     3.04           OBSERVATION DATA    M                   RINEX VERSION / TYPE
sbf2rin-15.6.1                          20240331 000034 UTC PGM / RUN BY / DATE
KIRU00SWE                                                   MARKER NAME
10403M002                                                   MARKER NUMBER
AUTOMATIC           ESA/ESOC                                OBSERVER / AGENCY
4701570             SEPT POLARX5TR      5.5.0               REC # / TYPE / VERS
5651                SEPCHOKE_B3E6   SPKE                    ANT # / TYPE
  2251420.9320   862817.1400  5885476.6040                  APPROX POSITION XYZ
        0.0620        0.0000        0.0000                  ANTENNA: DELTA H/E/N
G   22 C1C L1C D1C S1C C1W S1W C2W L2W D2W S2W C2L L2L D2L  SYS / # / OBS TYPES
       S2L C5Q L5Q D5Q S5Q C1L L1L D1L S1L                  SYS / # / OBS TYPES
E   20 C1C L1C D1C S1C C6C L6C D6C S6C C5Q L5Q D5Q S5Q C7Q  SYS / # / OBS TYPES
       L7Q D7Q S7Q C8Q L8Q D8Q S8Q                          SYS / # / OBS TYPES
S    8 C1C L1C D1C S1C C5I L5I D5I S5I                      SYS / # / OBS TYPES
R   20 C1C L1C D1C S1C C1P L1P D1P S1P C2P L2P D2P S2P C2C  SYS / # / OBS TYPES
       L2C D2C S2C C3Q L3Q D3Q S3Q                          SYS / # / OBS TYPES
C   24 C1P L1P D1P S1P C5P L5P D5P S5P C2I L2I D2I S2I C7I  SYS / # / OBS TYPES
       L7I D7I S7I C6I L6I D6I S6I C7D L7D D7D S7D          SYS / # / OBS TYPES
J   20 C1C L1C D1C S1C C2L L2L D2L S2L C5Q L5Q D5Q S5Q C1L  SYS / # / OBS TYPES
       L1L D1L S1L C1Z L1Z D1Z S1Z                          SYS / # / OBS TYPES
I    4 C5A L5A D5A S5A                                      SYS / # / OBS TYPES
SEPTENTRIO RECEIVERS OUTPUT ALIGNED CARRIER PHASES.         COMMENT
NO FURTHER PHASE SHIFT APPLIED IN THE RINEX ENCODER.        COMMENT
G L1C                                                       SYS / PHASE SHIFT
G L2W                                                       SYS / PHASE SHIFT
G L2L  0.00000                                              SYS / PHASE SHIFT
G L5Q  0.00000                                              SYS / PHASE SHIFT
G L1L  0.00000                                              SYS / PHASE SHIFT
E L1C  0.00000                                              SYS / PHASE SHIFT
E L6C  0.00000                                              SYS / PHASE SHIFT
E L5Q  0.00000                                              SYS / PHASE SHIFT
E L7Q  0.00000                                              SYS / PHASE SHIFT
E L8Q  0.00000                                              SYS / PHASE SHIFT
S L1C                                                       SYS / PHASE SHIFT
S L5I                                                       SYS / PHASE SHIFT
R L1C                                                       SYS / PHASE SHIFT
R L1P  0.00000                                              SYS / PHASE SHIFT
R L2P  0.00000                                              SYS / PHASE SHIFT
R L2C                                                       SYS / PHASE SHIFT
R L3Q  0.00000                                              SYS / PHASE SHIFT
C L1P  0.00000                                              SYS / PHASE SHIFT
C L5P  0.00000                                              SYS / PHASE SHIFT
C L2I                                                       SYS / PHASE SHIFT
C L7I                                                       SYS / PHASE SHIFT
C L6I                                                       SYS / PHASE SHIFT
C L7D                                                       SYS / PHASE SHIFT
J L1C                                                       SYS / PHASE SHIFT
J L2L  0.00000                                              SYS / PHASE SHIFT
J L5Q  0.00000                                              SYS / PHASE SHIFT
J L1L  0.00000                                              SYS / PHASE SHIFT
J L1Z  0.00000                                              SYS / PHASE SHIFT
I L5A                                                       SYS / PHASE SHIFT
    30.000                                                  INTERVAL
  2024     3    30     0     0    0.0000000     GPS         TIME OF FIRST OBS
  2024     3    30    23    59   30.0000000     GPS         TIME OF LAST OBS
   136                                                      # OF SATELLITES
 C1C    0.000 C1P    0.000 C2C    0.000 C2P    0.000        GLONASS COD/PHS/BIS
DBHZ                                                        SIGNAL STRENGTH UNIT
    18                                                      LEAP SECONDS
 26 R01  1 R02 -4 R03  5 R04  6 R05  1 R06 -4 R07  5 R08  6 GLONASS SLOT / FRQ #
    R09 -2 R10 -7 R11  0 R12 -1 R13 -2 R14 -7 R15  0 R16 -1 GLONASS SLOT / FRQ #
    R17  4 R18 -3 R19  3 R20  2 R21  4 R22 -3 R23  3 R24  2 GLONASS SLOT / FRQ #
    R25 -5 R26 -6                                           GLONASS SLOT / FRQ #
                                                            END OF HEADER
> 2024 03 30 00 00  0.0000000  0 55
C05                                                                                                                                                                                                  40964046.904 5 164945368.62205       -46.154 5        32.250    40964050.536 4                       -49.089 4        29.750
C06                                                                                                                                  38587284.123 6 200934199.81506     -1132.428 6        40.750    38587281.665 7 155375098.08707      -875.648 7        45.000    38587282.041 7 163275493.35707      -920.082 7        43.250
C09                                                                                                                                  38235256.526 7 199101080.60907      -743.375 7        44.000    38235255.835 8 153957632.39408      -574.822 8        48.250    38235254.825 7 161785962.08107      -604.065 7        44.750
C12                                                                                                                                                                                                  26873860.703 5 108209902.26405      2272.166 5        32.750
C16                                                                                                                                  39580485.273 6 206106006.57306     -1226.204 6        40.000    39580489.023 6 159374269.18406      -948.163 6        41.250    39580488.022 6 167478033.89006      -996.276 6        39.250
C19  26030988.010 6 136793788.16606      3362.924 6        36.250    26030989.920 6 102151211.61006      2511.323 6        39.750    26030986.007 6 135550188.14006      3332.479 6        38.500                                                                    26030986.877 6 110145637.06806      2707.820 6        41.500    26030988.942 6 104816023.89406      2577.049 6        40.000
C20  22403850.174 8 117733087.57108      1455.794 8        50.500    22403848.506 8  87917616.12908      1087.128 8        52.750    22403847.741 8 116662788.93408      1442.590 8        52.750                                                                    22403846.407 8  94798105.76108      1172.234 8        52.250    22403847.412 8  90211110.01908      1115.490 8        52.750
C23  23116563.501 8 121478414.69908      1041.093 8        48.750    23116558.533 8  90714401.05908       777.421 8        51.750    23116561.019 8 120374051.58008      1031.620 8        50.500                                                                    23116556.675 8  97813766.92008       838.276 8        51.750    23116557.037 8  93080846.60708       797.710 8        51.500
C25  24040816.001 7 126335368.73907     -2109.457 7        44.250    24040815.908 7  94341357.23507     -1575.270 7        46.500    24040813.377 7 125186843.25807     -2090.239 7        46.000                                                                    24040816.210 7 101724598.74507     -1698.510 7        47.000    24040814.872 7  96802431.80807     -1616.349 7        47.000
C29  26095717.023 4 137133979.92704     -3131.938 4        26.000    26095720.717 5 102405282.62005     -2339.118 5        31.500    26095715.995 5 135887292.39705     -3103.526 5        30.500                                                                    26095718.363 5 110419595.69505     -2521.858 5        31.000    26095716.569 5 105076701.37805     -2400.224 5        31.000
C32  22815404.466 8 119895860.06508     -2063.191 8        50.000    22815406.514 8  89532704.25108     -1540.724 8        52.000    22815401.251 8 118805903.24908     -2044.462 8        51.250                                                                    22815405.359 8  96539594.02508     -1661.242 8        52.000    22815404.969 8  91868329.62308     -1580.884 8        51.750
C35  24530863.510 7 128910622.60907      -615.449 7        42.750    24530864.637 7  96264483.97607      -459.437 7        43.750    24530861.136 7 127738714.06807      -609.741 7        45.000                                                                    24530864.210 7 103798194.91107      -495.446 7        45.750    24530863.695 7  98775707.27507      -471.525 7        44.750
C37  25434663.560 6 133660076.94406      3418.368 6        40.750    25434668.116 7  99811133.23607      2552.772 7        43.000    25434659.263 6 132444988.16306      3387.464 6        40.500                                                                    25434667.551 7 107622437.26107      2752.615 7        43.750    25434667.524 7 102414897.60707      2619.356 7        44.750
C39  40277588.805 6 211660225.85406     -1435.937 6        37.500    40277587.540 6 158057978.14506     -1072.355 6        40.000    40277585.197 6 209736016.26606     -1422.827 6        38.750                                                                    40277586.420 6 170427718.82706     -1156.034 6        40.000    40277586.943 6 162181221.35706     -1100.169 6        41.000
C41                                                                  27103847.205 5 106361459.97405     -2630.703 5        33.000                                                                                                                                    27103844.086 5 114685344.12705     -2836.710 5        34.750    27103846.599 5 109135961.60105     -2699.423 5        35.500
C44  25502052.656 6 134014217.69806      1931.039 6        37.250    25502057.074 6 100075591.75306      1442.065 6        38.750    25502049.410 6 132795918.48306      1913.570 6        37.500                                                                    25502055.176 6 107907575.12806      1554.774 6        39.250    25502054.536 6 102686243.75106      1479.653 6        38.500
C48  23598413.166 7 124010551.05807      2613.927 7        44.250    23598429.823 8  92605372.19808      1951.987 8        48.250    23598410.402 7 122883167.49507      2590.111 7        46.750                                                                    23598411.626 8  99852666.91908      2104.778 8        48.500    23598429.382 8  95021157.35008      2002.862 8        48.000
C57                                                                                                                                  23293502.529 7 121295408.49007       653.993 7        42.250                                                                    23293629.387 7  98563008.33407       531.407 7        43.750
E02  25442369.275 7 133700573.36007       727.643 7        45.000    25442369.548 8 108523200.92208       590.660 8        48.750    25442369.708 8  99841354.96408       543.419 8        48.250    25442367.967 8 102445895.47408       557.589 8        49.000    25442368.437 8 101143627.79308       550.511 8        51.500
E07  23516704.123 8 123581188.72308      -358.617 8        50.250    23516703.332 9 100309456.58109      -291.108 9        54.000    23516705.751 8  92284723.43108      -267.814 8        53.000    23516704.152 9  94692135.15609      -274.808 9        54.000    23516704.655 9  93488435.36909      -271.317 9        56.500
E08  26242666.985 7 137906234.89507     -2730.272 7        42.750    26242665.671 7 111936913.09207     -2216.122 7        45.750    26242667.101 7 102981990.25807     -2038.853 7        45.000    26242665.243 7 105668461.86907     -2092.050 7        46.000    26242665.902 8 104325231.63608     -2065.450 8        48.500
E10  27952445.334 5 146891105.00905      2786.446 5        34.250    27952449.251 6 119229822.52106      2262.028 6        41.000    27952450.793 6 109691433.21006      2081.042 6        40.250    27952449.561 6 112552942.77506      2135.362 6        41.750    27952449.607 7 111122197.56507      2108.204 7        44.000
E12  26547205.462 6 139506580.03506      1829.383 6        38.250    26547202.954 7 113235869.05907      1485.012 7        43.000    26547204.653 7 104177015.30507      1366.136 7        43.000    26547202.750 7 106894666.70507      1401.826 7        42.750    26547203.650 7 105535840.57907      1383.984 7        46.000
E18  22556252.801 6 118533922.20906      2563.266 6        37.750    22556251.880 6  96212608.38706      2080.424 6        38.250    22556256.637 6  88515618.30906      1913.989 6        40.750    22556253.916 6  90824710.00106      1964.060 6        41.000    22556254.879 7  89670173.23007      1939.011 7        44.000
E25  26926421.597 6 141499289.35906     -1989.427 6        39.250    26926421.816 7 114853322.82307     -1614.711 7        42.000    26926425.518 6 105665071.35706     -1485.518 6        41.500    26926423.745 7 108421525.92507     -1524.332 7        42.750    26926424.614 7 107043302.21607     -1504.945 7        45.250
E26  26976375.662 6 141761879.32106     -3224.752 6        38.000    26976376.937 7 115066484.40607     -2617.425 7        43.250    26976377.361 7 105861186.18307     -2408.088 7        42.750    26976375.602 7 108622766.29107     -2470.937 7        44.000    26976375.916 7 107241972.81007     -2439.507 7        46.500
E30  27065568.693 6 142230544.67906      3008.645 6        39.000    27065568.291 7 115446880.07707      2442.019 7        42.250    27065570.567 6 106211138.66206      2246.562 6        41.250    27065568.543 7 108981857.58807      2305.284 7        42.250    27065569.372 7 107596504.70007      2275.924 7        44.750
E33  25083258.458 7 131813483.47307     -1275.005 7        46.000    25083258.168 8 106991514.15408     -1034.869 8        49.750    25083258.347 8  98432210.88508      -952.073 8        49.250    25083256.288 8 100999995.85708      -976.917 8        49.750    25083256.982 8  99716107.44608      -964.494 8        52.500
G04  22635606.046 7 118950997.63107     -3196.725 7        43.500    22635605.872 5        32.000    22635605.823 5  92689120.01905     -2490.956 5        32.000    22635605.934 7  92689112.02207     -2491.037 7        44.250    22635608.254 7  88827098.91907     -2387.198 7        47.750    22635605.853 7 118951010.63807     -3196.834 7        44.250
G05  24059132.998 6 126431631.63606      3652.482 6        39.500    24059132.802 5        33.000    24059131.898 5  98518182.51105      2846.087 5        33.000    24059132.734 6  98518152.50706      2846.280 6        37.500
G06  24014305.725 6 126196071.19106     -3632.441 6        37.000    24014305.708 4        29.750    24014308.278 4  98334637.68104     -2830.471 4        29.750    24014309.284 6  98334638.67006     -2830.403 6        36.000    24014308.710 6  94237371.28806     -2712.499 6        41.500
G07  22496699.326 7 118220997.36907      2600.408 7        46.500    22496698.906 7        45.250    22496697.765 7  92120271.06107      2026.292 7        45.250    22496697.948 7  92120259.06207      2026.352 7        43.750
G09  20456644.503 8 107500458.66508      -965.633 8        51.500    20456644.146 9        56.250    20456644.283 9  83766623.87709      -752.441 9        56.250    20456644.757 8  83766635.88108      -752.407 8        48.500    20456643.459 9  80276380.98409      -721.082 9        55.250
G11  22536273.803 7 118429001.31207     -1909.790 7        46.000    22536273.683 5        35.500    22536273.118 5  92282367.20105     -1488.146 5        35.500    22536273.221 7  92282358.20507     -1488.153 7        45.750    22536275.975 8  88437287.97208     -1426.193 8        50.000    22536273.819 7 118428998.31907     -1909.875 7        46.250
G16  22380542.951 7 117610565.02307       756.698 7        44.500    22380542.151 5        32.000    22380541.194 5  91644595.92205       589.630 5        32.000
G20  21697498.268 8 114021200.64908      1919.435 8        48.000    21697497.213 6        38.250    21697495.598 6  88847709.00106      1495.670 6        38.250
G26  23288759.270 7 122383257.11507     -1997.417 7        42.000    23288758.837 6        38.250    23288761.684 6  95363591.43106     -1556.427 6        38.250    23288761.658 6  95363589.45206     -1556.480 6        40.750    23288759.269 7  91390095.62807     -1491.575 7        46.250
G29  23816220.505 7 125155139.09707      -853.653 7        42.000    23816220.121 6        36.000    23816220.169 6  97523491.52506      -665.184 6        36.000    23816220.706 6  97523495.52706      -665.226 6        38.000
G30  24741284.269 5 130016334.39005      3729.174 5        34.000    24741283.603 3        22.250    24741285.856 3 101311440.67403      2905.852 3        22.250    24741286.514 5 101311447.67805      2905.976 5        31.000    24741286.526 6  97090136.31206      2784.855 6        41.250
I01  26217160.190 6 102881956.39506     -2869.550 6        36.000
I06  39677728.392 6 155704000.87906         5.895 6        37.250
I09  39284863.270 6 154162418.04506      -694.570 6        38.250
J02  42703259.229 6 224407154.36806        16.161 6        40.250    42703260.454 6 174862732.56706        12.507 6        40.250    42703260.582 7 167576786.31407        11.996 7        42.250    42703259.268 6 224407165.36206        16.069 6        40.250    42703256.031 6 224407142.21306        15.990 6        41.000
R01  19486457.981 8 104166380.80508     -1612.863 8        50.250    19486457.958 8 104166363.81308     -1612.839 8        50.000    19486463.823 7  81018333.31607     -1254.438 7        45.000    19486463.282 7  81018320.30407     -1254.430 7        45.500
R02  20171282.325 8 107637913.76908      2541.182 8        52.000    20171282.825 8 107637897.76908      2541.177 8        52.500    20171287.049 8  83718424.25008      1976.434 8        49.500    20171286.973 8  83718420.25008      1976.473 8        49.000
R08  23458218.321 5 125617783.78105     -4225.929 5        35.250    23458218.482 5 125617791.79205     -4225.888 5        34.750    23458221.371 6  97702792.05306     -3286.884 6        37.000    23458221.572 6  97702800.05406     -3286.956 6        37.500
R09  23920866.875 6 127736036.59806     -4281.812 6        36.000    23920865.833 5 127736048.58705     -4281.685 5        35.250    23920871.909 5  99350259.78905     -3330.221 5        34.000    23920871.386 5  99350247.79605     -3330.201 5        34.250    23920861.585 5  95911204.81305     -3214.721 5        35.250
R10  20943594.725 7 111641171.40307     -2228.126 7        46.500    20943594.367 7 111641150.41707     -2228.210 7        45.750
R11  20446473.470 8 109259798.19108      2359.123 8        51.750    20446473.644 8 109259805.19708      2359.140 8        52.250    20446476.565 8  84979863.27808      1834.851 8        50.000    20446476.605 8  84979908.27308      1834.875 8        49.500    20446464.197 8  81980628.31108      1770.092 8        49.500
R12  24142214.399 6 128963429.63006      4719.958 6        38.500    24142214.699 6 128963381.64606      4719.917 6        38.250    24142220.950 6 100304885.20506      3671.141 6        38.750    24142221.857 6 100304882.19806      3671.132 6        39.250    24142208.238 5  96798772.42505      3543.130 5        35.750
R17  22087842.677 7 118196614.24207     -3560.344 7        45.000    22087843.031 7 118196611.25207     -3560.319 7        45.000    22087848.599 7  91930734.90707     -2769.018 7        43.250    22087848.264 7  91930746.91907     -2769.148 7        43.250
R18  20996933.674 8 112083124.94708       -22.485 8        49.250    20996933.849 8 112083139.95308       -22.508 8        48.750    20996938.828 7  87175814.07107       -17.490 7        47.500    20996938.676 7  87175816.07107       -17.455 7        47.000
R19  22646847.774 5 121145363.55705      3280.576 5        34.250    22646847.112 5 121145357.55205      3280.880 5        33.250    22646853.720 6  94224248.97006      2551.763 6        38.500    22646852.978 6  94224250.97506      2551.624 6        38.750
S23  40209729.633 6 211303609.08406         5.153 6        38.000    40209700.184 5 157791500.33405         4.208 5        32.000
S36  40294838.964 6 211750955.01406          .519 6        36.250    40294801.628 5 158125457.21005         -.276 5        32.750
> 2024 03 30 00 00 30.0000000  0 55
C05                                                                                                                                                                                                  40964392.484 5 164946757.60005       -46.290 5        32.000    40964395.705 4                       -49.046 4        29.000
C06                                                                                                                                  38593812.553 6 200968199.09606     -1134.247 6        40.750    38593810.596 7 155401388.47407      -877.008 7        45.000    38593811.384 7 163303120.54007      -921.663 7        43.500
C09                                                                                                                                  38239546.386 7 199123417.05807      -745.734 7        44.250    38239545.570 8 153974904.39808      -576.631 8        48.500    38239544.430 7 161804112.29807      -605.890 7        44.500
C12                                                                                                                                                                                                  26856952.295 4 108141832.16304      2265.214 4        29.000
C16                                                                                                                                  39587552.203 6 206142808.45306     -1227.464 6        40.000    39587556.270 6 159402726.75606      -949.104 6        41.250    39587555.560 6 167507938.42806      -997.313 6        39.250
C19  26011798.945 6 136692948.93306      3359.573 6        36.750    26011800.984 6 102075909.66306      2508.589 6        39.750    26011796.844 6 135450265.61806      3328.947 6        38.250                                                                    26011797.557 6 110064441.89206      2705.092 6        41.000    26011799.667 6 104738757.54206      2574.252 6        39.750
C20  22395577.990 8 117689617.50308      1442.179 8        51.000    22395576.518 8  87885154.73808      1076.956 8        53.250    22395575.848 8 116619714.05508      1429.063 8        53.000                                                                    22395574.138 8  94763103.90308      1161.261 8        52.250    22395575.250 8  90177801.80708      1105.056 8        52.750
C23  23110668.337 8 121447436.46308      1024.066 8        49.250    23110663.409 8  90691267.95508       764.768 8        52.000    23110665.922 8 120343354.95408      1014.830 8        50.750                                                                    23110661.860 8  97788823.39708       824.622 8        52.000    23110661.878 8  93057110.03008       784.730 8        51.500
C25  24052897.006 7 126398854.59007     -2122.927 7        44.750    24052897.154 7  94388765.43907     -1585.360 7        46.500    24052895.008 7 125249751.97207     -2103.712 7        46.500                                                                    24052897.009 7 101775717.18407     -1709.374 7        46.750    24052895.788 7  96851076.75807     -1626.742 7        46.750
C29  26113617.809 4 137228035.25104     -3138.551 4        28.000    26113617.782 4 102475518.62404     -2343.466 4        28.750    26113613.696 5 135980492.84905     -3109.879 5        30.250                                                                    26113616.050 5 110495328.53605     -2526.952 5        31.500    26113616.457 5 105148769.73705     -2405.352 5        32.000
C32  22827217.737 8 119957938.54208     -2075.428 8        50.250    22827219.664 8  89579061.54208     -1549.816 8        52.250    22827214.553 8 118867417.38208     -2056.521 8        51.750                                                                    22827218.509 8  96589579.28708     -1671.098 8        52.250    22827218.070 8  91915896.24108     -1590.263 8        51.750
C35  24534427.205 7 128929351.03207      -633.107 7        42.750    24534428.422 7  96278469.52207      -472.828 7        44.000    24534425.037 7 127757272.24807      -627.474 7        45.500                                                                    24534428.004 7 103813274.96707      -509.892 7        45.750    24534427.762 7  98790057.64707      -485.232 7        45.250
C37  25415163.015 6 133557603.81406      3413.021 6        41.000    25415168.475 7  99734611.14107      2548.539 7        43.750    25415159.957 7 132343446.61907      3381.948 7        42.000                                                                    25415167.727 7 107539926.47507      2748.142 7        44.000    25415167.359 7 102336379.28107      2615.176 7        44.750
C39  40285786.760 6 211703312.13906     -1436.530 6        36.500    40285786.796 6 158090152.88906     -1072.714 6        40.250    40285784.503 6 209778710.82506     -1423.369 6        38.500                                                                    40285785.882 6 170462411.62106     -1156.621 6        40.000    40285785.515 6 162214235.46106     -1100.715 6        40.000
C41                                                                  27123961.793 5 106440394.89305     -2631.438 5        31.750    27123959.249 3                     -3491.029 3        22.500                                                                    27123958.505 5 114770456.59205     -2837.331 5        34.500    27123961.079 5 109216955.66005     -2700.309 5        33.250
C44  25491068.544 6 133956503.46406      1916.460 6        36.000    25491075.109 6 100032492.97906      1431.237 6        38.750    25491068.003 6 132738728.93806      1898.976 6        39.750                                                                    25491072.321 6 107861103.56806      1543.200 6        39.250    25491073.009 6 102642020.73806      1468.391 6        39.500
C48  23583517.476 7 123932271.99607      2604.631 7        45.000    23583533.547 8  92546917.07308      1945.063 8        48.500    23583514.135 7 122805600.06407      2581.004 7        47.000                                                                    23583515.551 8  99789637.04908      2097.257 8        48.750    23583533.012 8  94961177.30808      1995.748 8        48.500
C57                                                                                                                                  23289786.727 7 121276058.48707       636.025 7        42.500                                                                    23289913.348 7  98547284.91407       516.830 7        43.750
E02  25438258.691 7 133678971.67507       712.390 7        45.250    25438258.660 8 108505667.05708       578.212 8        48.500    25438258.928 8  99825223.79508       532.026 8        48.250    25438257.258 8 102429343.49208       545.889 8        49.250    25438257.813 8 101127286.21708       538.957 8        51.750
E07  23518784.787 8 123592122.96608      -370.278 8        49.750    23518783.889 8 100318331.77208      -300.567 8        53.750    23518786.446 8  92292888.60508      -276.538 8        53.000    23518784.892 9  94700513.33709      -283.728 9        54.000    23518785.399 9  93496707.04609      -280.131 9        56.500
E08  26258267.242 6 137988217.16406     -2735.177 6        41.250    26258266.845 7 112003457.13207     -2220.142 7        46.000    26258267.627 7 103043210.77907     -2042.594 7        44.750    26258266.041 7 105731279.45007     -2095.872 7        46.000    26258266.624 8 104387250.68708     -2069.229 8        48.500
E10  27936559.224 5 146807620.13205      2778.704 5        34.750    27936562.730 6 119162058.93006      2255.588 6        41.250    27936564.388 6 109629090.75106      2075.127 6        40.500    27936562.535 6 112488973.99006      2129.255 6        41.750    27936562.920 7 111059041.94307      2102.182 7        44.000
E12  26536797.810 6 139451887.49806      1816.638 6        38.000    26536795.386 7 113191475.86007      1474.610 7        43.250    26536796.920 7 104136173.61207      1356.486 7        42.750    26536795.317 7 106852759.54407      1392.021 7        43.000    26536795.868 7 105494466.15207      1374.270 7        46.000
E18  22541710.821 6 118457508.13706      2531.054 6        36.750    22541712.587 6  96150584.03606      2054.407 6        39.000    22541714.487 6  88458555.88006      1889.989 6        39.750    22541712.817 6  90766158.98606      1939.285 6        41.000    22541713.811 7  89612366.50907      1914.618 7        43.500
E25  26937812.416 6 141559148.23306     -2001.026 6        39.250    26937813.159 7 114901909.51507     -1624.241 7        42.750    26937816.691 6 105709771.08106     -1494.337 6        41.500    26937814.801 7 108467391.73007     -1533.384 7        42.750    26937815.522 7 107088584.97807     -1513.857 7        45.250
E26  26994798.912 6 141858692.61406     -3229.619 6        37.250    26994799.986 7 115145066.57507     -2621.259 7        43.500    26994800.250 7 105933481.76707     -2411.695 7        42.500    26994798.785 7 108696947.84107     -2474.577 7        44.000    26994798.826 7 107315211.37807     -2443.135 7        46.250
E30  27048410.291 6 142140378.06506      3002.473 6        38.250    27048410.161 7 115373692.91007      2437.188 7        42.250    27048412.549 6 106143806.49506      2242.150 6        41.500    27048410.601 7 108912768.92207      2300.724 7        42.250    27048411.264 7 107528294.28207      2271.443 7        45.000
E33  25090578.876 7 131851954.64907     -1289.864 7        45.250    25090579.216 8 107022740.62408     -1046.825 8        49.750    25090579.395 8  98460939.18508      -963.190 8        49.250    25090577.174 8 101029473.61308      -988.251 8        49.500    25090578.012 8  99745210.47308      -975.728 8        52.500
G04  22653881.130 7 119047034.17607     -3205.609 7        43.750    22653880.956 5        32.250    22653881.058 5  92763953.69105     -2497.876 5        32.250    22653881.000 7  92763945.69007     -2497.928 7        44.000    22653883.252 7  88898814.53207     -2393.842 7        47.000    22653881.235 7 119047047.18507     -3205.639 7        44.250
G05  24038302.892 6 126322167.26606      3645.115 6        40.250    24038302.678 5        33.750    24038301.532 5  98432885.76805      2840.340 5        33.750    24038302.543 6  98432855.77106      2840.472 6        37.750
G06  24035061.785 6 126305144.18306     -3639.097 6        38.000    24035061.750 4        28.750    24035064.244 4  98419629.61004     -2835.665 4        28.750    24035065.080 5  98419630.59605     -2835.541 5        34.750    24035064.498 6  94318821.89306     -2717.382 6        41.250
G07  22481885.753 7 118143150.79507      2589.320 7        47.000    22481885.333 7        45.750    22481884.107 7  92059611.42007      2017.649 7        45.750    22481884.308 7  92059599.43407      2017.589 7        43.750
G09  20462208.100 8 107529695.99608      -983.512 8        51.750    20462207.743 9        56.000    20462208.019 9  83789406.21009      -766.372 9        56.000    20462208.238 8  83789418.22108      -766.400 8        48.000    20462207.218 9  80298214.05809      -734.429 9        55.000
G11  22547228.366 7 118486566.37307     -1927.788 7        46.250    22547228.246 5        35.750    22547227.172 5  92327223.05605     -1502.170 5        35.750    22547227.529 7  92327214.06207     -1502.191 7        45.000    22547230.010 8  88480274.81008     -1439.633 8        49.000    22547228.517 7 118486563.37607     -1927.878 7        46.250
G16  22376288.265 7 117588204.80707       733.881 7        44.750    22376287.461 5        32.000    22376286.007 5  91627172.36205       571.858 5        32.000
G20  21686587.942 8 113963866.54608      1902.811 8        48.250    21686586.892 6        38.250    21686585.179 6  88803033.11806      1482.710 6        38.250
G26  23300212.254 6 122443445.64106     -2015.135 6        41.000    23300211.825 6        36.750    23300215.115 6  95410491.45606     -1570.237 6        36.750    23300215.097 6  95410489.45306     -1570.191 6        39.000    23300213.344 7  91435041.45107     -1504.800 7        46.000
G29  23821152.463 7 125181058.30607      -874.321 7        42.000    23821152.070 6        36.000    23821152.257 6  97543688.29306      -681.290 6        36.000    23821153.317 6  97543692.28806      -681.197 6        38.000
G30  24720004.609 5 129904505.93605      3726.120 5        34.250    24720003.934 3        22.500    24720005.762 3 101224301.67703      2903.464 3        22.500    24720006.558 5 101224308.68705      2903.410 5        32.250    24720005.913 6  97006628.14306      2782.248 6        41.250
I01  26239100.443 5 102968054.69205     -2870.538 5        35.750
I06  39677683.260 6 155703822.71006         5.828 6        37.250
I09  39290176.528 6 154183267.41906      -695.252 6        38.750
J02  42703170.042 6 224406687.17006        15.053 6        40.000    42703171.669 6 174862368.53706        11.827 6        40.000    42703171.727 7 167576437.45707        11.147 7        42.500    42703170.251 6 224406698.16806        15.019 6        40.250    42703166.773 6 224406675.01206        15.208 6        41.000
R01  19495567.378 8 104215075.86908     -1633.514 8        50.250    19495567.526 8 104215058.87608     -1633.477 8        50.000    19495573.189 7  81056207.21207     -1270.487 7        44.750    19495572.406 7  81056194.20207     -1270.573 7        45.250
R02  20157043.163 8 107561927.34208      2524.609 8        52.250    20157043.140 8 107561911.34308      2524.606 8        52.500    20157047.533 8  83659323.70408      1963.572 8        50.000    20157047.515 8  83659319.70808      1963.552 8        49.750
R08  23481904.510 5 125744624.23205     -4230.043 5        34.500    23481904.282 5 125744632.24105     -4230.129 5        33.500    23481908.468 6  97801445.70906     -3289.976 6        37.250    23481908.137 6  97801453.72506     -3290.121 6        37.750
R09  23944935.902 5 127864596.01505     -4288.610 5        30.250    23944938.321 5 127864608.01705     -4288.862 5        31.000    23944946.714 5  99450250.51605     -3335.884 5        31.000    23944946.969 5  99450238.49805     -3335.895 5        30.250    23944937.355 5  96007734.33805     -3220.371 5        32.750
R10  20956201.919 7 111708373.32107     -2251.961 7        46.500    20956201.481 7 111708352.32907     -2252.008 7        45.750
R11  20433296.765 8 109189386.07308      2335.067 8        52.000    20433296.998 8 109189393.08308      2335.096 8        52.000    20433300.142 8  84925098.29408      1816.113 8        50.000    20433300.205 8  84925143.28708      1816.154 8        49.750    20433287.533 8  81927796.15108      1752.021 8        49.500
R12  24115711.521 6 128821851.15306      4718.378 6        40.500    24115711.266 6 128821803.15406      4718.436 6        40.250    24115717.097 6 100194768.74306      3669.917 6        38.500    24115717.307 6 100194765.74606      3669.782 6        39.000    24115704.654 6  96692505.02806      3541.604 6        36.750
R17  22107851.163 7 118303681.89707     -3577.538 7        45.000    22107851.221 7 118303678.90707     -3577.535 7        44.750    22107856.857 7  92014009.73707     -2782.526 7        43.000    22107857.187 7  92014021.74107     -2782.616 7        43.250
R18  20997142.320 8 112084238.09708       -51.679 8        49.250    20997142.325 8 112084253.10408       -51.745 8        48.750    20997147.725 8  87176679.82108       -40.131 8        48.000    20997147.608 7  87176681.82407       -40.249 7        47.500
R19  22628502.016 5 121047234.85605      3261.395 5        34.750    22628502.499 5 121047228.88205      3261.086 5        33.000    22628509.206 6  94147926.91306      2536.547 6        40.250    22628509.506 6  94147928.89606      2536.632 6        40.500
S23  40209702.199 6 211303454.81806         4.946 6        38.250    40209670.707 5 157791385.16115         3.635 5        31.750
S36  40294839.147 6 211750936.30506          .896 6        36.500    40294798.515 5 158125444.36315          .203 5        33.000
> 2024 03 30 00 01  0.0000000  0 55
C05                                                                                                                                                                                                  40964737.474 5 164948147.04905       -46.283 5        32.000    40964741.218 4                       -48.177 4        29.500
C06                                                                                                                                  38600352.493 6 201002252.64106     -1136.124 6        40.750    38600350.300 7 155427720.81207      -878.474 7        44.500    38600350.882 7 163330791.79907      -922.976 7        43.000
C09                                                                                                                                  38243848.986 7 199145822.60607      -748.055 7        44.000    38243848.572 8 153992229.83308      -578.433 8        48.000    38243847.044 7 161822318.68307      -607.864 7        44.500
C12                                                                                                                                                                                                  26840101.115 5 108073957.76705      2258.821 5        31.250    26840097.811 5                      2373.965 5        31.500
C16                                                                                                                                  39594626.342 6 206179647.03106     -1228.663 6        40.000    39594630.882 6 159431212.64106      -949.989 6        41.250    39594629.863 6 167537872.75106      -998.125 6        39.250
C19  25992629.149 6 136592214.70706      3356.028 6        37.500    25992631.407 6 102000686.28606      2506.199 6        40.250    25992627.476 6 135350447.13906      3325.572 6        39.000                                                                    25992628.284 6 109983331.40106      2702.210 6        41.500    25992630.134 6 104661571.80206      2571.473 6        40.500
C20  22387383.992 8 117646557.10008      1428.494 8        50.500    22387382.400 8  87852999.26108      1066.747 8        53.000    22387381.747 8 116577045.10908      1415.527 8        53.000                                                                    22387380.252 8  94728431.90208      1150.232 8        52.500    22387380.846 8  90144807.48708      1094.560 8        52.750
C23  23104870.427 8 121416967.50908      1007.187 8        48.750    23104865.401 8  90668515.15008       752.085 8        52.000    23104868.066 8 120313162.99608       997.958 8        50.750                                                                    23104863.950 8  97764289.94608       810.929 8        52.250    23104863.838 8  93033763.67408       771.705 8        51.500
C25  24065055.115 7 126462746.14407     -2136.478 7        44.250    24065055.303 7  94436476.59807     -1595.521 7        46.500    24065052.384 7 125313062.70607     -2117.138 7        46.250                                                                    24065055.110 7 101827162.29007     -1720.379 7        47.000    24065053.664 7  96900032.56607     -1637.088 7        46.750
C29  26131549.986 4 137322276.94904     -3144.486 4        26.250    26131548.515 4 102545893.77704     -2348.507 4        26.500    26131543.341 4 136073877.76804     -3116.208 4        27.250                                                                    26131552.189 5 110571211.40805     -2531.565 5        33.250    26131550.346 5 105220980.72505     -2409.120 5        34.000
C32  22839100.635 8 120020383.40108     -2087.597 8        50.000    22839102.482 8  89625692.43108     -1558.969 8        52.000    22839097.376 8 118929294.54808     -2068.596 8        51.750                                                                    22839101.470 8  96639859.54608     -1680.901 8        52.250    22839101.049 8  91963743.58708     -1599.576 8        51.750
C35  24538093.207 7 128948614.26807      -651.109 7        42.750    24538094.182 7  96292854.43507      -486.138 7        44.000    24538091.141 7 127776360.32907      -645.076 7        46.000                                                                    24538093.733 7 103828785.62507      -524.128 7        45.750    24538093.030 7  98804817.80507      -498.829 7        45.000
C37  25395695.149 6 133455299.24206      3407.340 6        40.500    25395700.139 7  99658214.90907      2544.451 7        43.750    25395692.006 7 132242072.06507      3376.441 7        42.500                                                                    25395700.223 7 107457551.38307      2743.546 7        44.250    25395699.225 7 102257990.11107      2610.793 7        44.500
C39  40293989.509 6 211746417.46306     -1437.239 6        36.000    40293989.626 6 158122341.84706     -1073.223 6        40.000    40293987.225 6 209821424.28706     -1424.095 6        38.500                                                                    40293989.016 6 170497119.74906     -1157.104 6        40.500    40293988.183 6 162247264.13406     -1101.184 6        39.500
C41  27144073.724 3                     -3521.016 3        18.250    27144082.324 5 106519351.90405     -2632.159 5        32.750    27144068.484 3                     -3490.509 3        22.750                                                                    27144077.779 5 114855592.88805     -2838.018 5        34.500    27144082.406 5 109297972.40405     -2700.746 5        35.250
C44  25480169.617 6 133899223.65106      1902.071 6        36.250    25480175.131 6  99989718.99606      1420.460 6        39.000    25480169.389 6 132681969.82306      1884.827 6        39.750                                                                    25480173.010 6 107814982.09506      1531.523 6        39.750    25480173.706 6 102598130.91406      1457.383 6        40.250
C48  23568674.121 7 123854270.55707      2595.447 7        45.250    23568690.367 8  92488669.26608      1938.131 8        49.250    23568670.929 8 122728307.73208      2571.752 8        48.000                                                                    23568672.528 8  99726830.70708      2089.805 8        50.250    23568690.047 8  94901409.98608      1988.727 8        49.500
C57                                                                                                                                  23286173.875 7 121257246.93607       618.030 7        42.500                                                                    23286300.599 7  98531999.07807       502.303 7        44.250
E02  25434235.013 7 133657828.79607       697.164 7        44.500    25434235.300 8 108488505.60408       565.839 8        48.000    25434235.849 8  99809435.25108       520.583 8        48.000    25434233.982 8 102413143.08408       534.060 8        48.250    25434234.502 8 101111291.74308       527.320 8        51.000
E07  23520932.052 8 123603406.30308      -381.934 8        50.000    23520930.791 8 100327490.32708      -309.980 8        53.000    23520933.496 8  92301314.48508      -285.188 8        53.000    23520931.946 8  94709159.01808      -292.613 8        53.500    23520932.493 9  93505242.82509      -288.895 9        56.250
E08  26273896.408 6 138070348.44106     -2740.168 6        41.750    26273895.697 7 112070122.10807     -2224.207 7        45.250    26273896.878 7 103104542.55107     -2046.299 7        44.750    26273895.493 7 105794211.18507     -2099.629 7        46.000    26273895.709 8 104449382.44208     -2072.963 8        48.500
E10  27920717.571 6 146724372.81306      2771.027 6        36.000    27920721.470 6 119094488.27306      2249.115 6        41.250    27920722.887 6 109566925.82006      2069.213 6        40.750    27920720.220 6 112425187.33906      2123.139 6        41.500    27920721.285 7 110996066.15407      2096.165 7        44.250
E12  26526463.371 6 139397581.41006      1803.682 6        37.750    26526461.028 7 113147396.31007      1464.138 7        42.500    26526462.477 7 104095620.45107      1346.943 7        42.500    26526461.227 7 106811148.47007      1382.077 7        42.750    26526461.684 7 105453384.03307      1364.512 7        45.750
E18  22527353.818 6 118382057.59706      2498.867 6        37.500    22527354.538 6  96089341.73106      2028.262 6        39.250    22527357.824 6  88402213.00806      1866.113 6        40.000    22527355.658 6  90708346.28006      1914.766 6        41.250    22527355.842 7  89555288.71707      1890.431 7        43.750
E25  26949269.857 6 141619357.75006     -2012.821 6        39.250    26949270.909 7 114950780.78707     -1633.681 7        43.250    26949274.602 7 105754732.60007     -1503.011 7        42.250    26949272.324 7 108513526.17207     -1542.331 7        42.750    26949273.040 7 107134132.96207     -1522.684 7        45.500
E26  27013249.305 6 141955650.14706     -3234.446 6        37.250    27013250.639 7 115223765.81407     -2625.283 7        43.250    27013250.607 7 106005885.03507     -2415.344 7        42.000    27013249.196 7 108771239.90207     -2478.213 7        43.500    27013249.327 7 107388559.04207     -2446.769 7        45.750
E30  27031286.521 6 142050392.60306      2996.266 6        38.250    27031286.212 6 115300652.80906      2432.259 6        41.750    27031289.016 6 106076609.64106      2237.582 6        41.750    27031287.028 7 108843819.08907      2295.954 7        42.000    27031287.516 7 107460220.93807      2266.776 7        45.000
E33  25097984.652 7 131890870.23507     -1304.502 7        45.750    25097984.290 8 107054327.90008     -1058.890 8        49.250    25097984.755 8  98489999.45508      -974.215 8        49.750    25097982.816 8 101059291.98508      -999.590 8        49.750    25097983.461 8  99774649.79208      -986.898 8        52.750
G04  22672206.469 7 119143334.38707     -3214.375 7        43.750    22672206.286 5        32.250    22672206.362 5  92838992.79305     -2504.708 5        32.250    22672206.563 7  92838984.78807     -2504.665 7        44.250    22672208.986 7  88970727.00007     -2400.330 7        47.500    22672206.508 7 119143347.38807     -3214.444 7        44.000
G05  24017514.668 6 126212924.12406      3637.701 6        41.000    24017514.445 5        34.750    24017513.380 5  98347761.37805      2834.567 5        34.750    24017514.238 6  98347731.39406      2834.505 6        38.250
G06  24055855.491 6 126414415.03406     -3645.732 6        39.000    24055855.451 4        29.250    24055858.308 4  98504775.73004     -2840.831 4        29.250    24055858.715 5  98504776.71605     -2840.772 5        34.000    24055857.833 6  94400420.25406     -2722.371 6        41.000
G07  22467135.444 7 118065637.95007      2578.188 7        46.750    22467135.024 7        45.500    22467133.789 7  91999211.80907      2008.977 7        45.500    22467133.646 7  91999199.82007      2008.987 7        43.500
G09  20467872.953 8 107559465.78308     -1001.252 8        51.500    20467872.596 9        56.000    20467873.010 9  83812603.44009      -780.197 9        56.000    20467873.440 8  83812615.44908      -780.245 8        48.000    20467872.146 9  80320444.73309      -747.674 9        54.750
G11  22558284.994 7 118544671.53107     -1945.803 7        45.500    22558284.883 5        35.500    22558284.403 5  92372499.76605     -1516.207 5        35.500    22558284.868 7  92372490.76607     -1516.226 7        45.500    22558287.130 8  88523664.97708     -1453.029 8        48.500    22558285.158 7 118544668.52907     -1945.775 7        45.250
G16  22372164.208 7 117566531.62707       710.944 7        45.500    22372163.399 5        32.500    22372162.281 5  91610284.03905       553.995 5        32.500
G20  21675772.791 8 113907032.68408      1886.059 8        48.500    21675771.745 6        38.250    21675770.162 6  88758746.99806      1469.651 6        38.250
G26  23311766.725 6 122504164.54206     -2032.868 6        41.250    23311766.296 6        36.500    23311769.363 6  95457804.91006     -1584.057 6        36.500    23311769.050 6  95457802.90106     -1584.076 6        39.000    23311767.489 7  91480383.48507     -1517.949 7        46.000
G29  23826201.703 6 125207593.86206      -894.771 6        41.250    23826201.306 5        35.250    23826201.716 5  97564365.41405      -697.231 5        35.250    23826201.730 6  97564369.42506      -697.212 6        37.750
G30  24698741.471 5 129792773.35505      3722.947 5        33.750    24698740.774 4        24.000    24698744.507 4 101137237.41304      2900.990 4        24.000    24698745.138 5 101137244.43805      2900.977 5        33.000    24698744.694 7  96923191.56807      2780.073 7        42.250
I01  26261045.869 5 103054172.91905     -2870.950 5        35.500
I06  39677639.152 6 155703651.22806         5.672 6        37.000
I09  39295495.603 6 154204140.43306      -696.163 6        38.750
J02  42703087.407 6 224406250.48806        13.971 6        40.000    42703088.766 6 174862028.25806        10.844 6        39.750    42703088.680 7 167576111.34707        10.409 7        42.500    42703087.204 6 224406261.48606        14.129 6        40.250    42703083.704 6 224406238.34106        13.999 6        41.000
R01  19504792.698 8 104264391.20808     -1654.177 8        50.000    19504792.809 8 104264374.21308     -1654.128 8        49.750    19504798.714 7  81094563.52407     -1286.549 7        44.500    19504798.128 7  81094550.51507     -1286.548 7        44.750
R02  20142896.576 8 107486440.45108      2507.875 8        52.250    20142896.925 8 107486424.45408      2507.890 8        52.250    20142901.220 8  83600611.64308      1950.539 8        49.750    20142901.086 8  83600607.64108      1950.561 8        49.500
R08  23505615.526 5 125871588.81405     -4234.297 5        34.250    23505615.660 5 125871596.81305     -4233.973 5        32.750    23505619.068 6  97900195.95506     -3293.182 6        38.500    23505617.829 6  97900203.94606     -3293.337 6        38.500
R09  23969053.871 5 127993373.38105     -4296.304 5        33.000    23969055.597 5 127993385.39405     -4296.343 5        31.750    23969063.560 5  99550410.75405     -3341.549 5        32.250    23969063.296 5  99550398.76805     -3341.328 5        31.250    23969054.788 5  96104427.49205     -3225.635 5        34.500
R10  20968942.672 7 111776289.16707     -2275.711 7        46.250    20968942.551 7 111776268.17107     -2275.757 7        46.000
R11  20420255.349 8 109119697.28808      2310.837 8        51.750    20420255.689 8 109119704.29708      2310.859 8        52.250    20420258.932 8  84870895.92808      1797.322 8        50.500    20420258.789 8  84870940.92308      1797.312 8        50.250    20420246.314 8  81875506.73508      1733.845 8        49.500
R12  24089216.652 6 128680322.82206      4716.882 6        39.500    24089216.760 6 128680274.82906      4716.765 6        39.250    24089222.465 6 100084691.28706      3668.666 6        38.750    24089221.799 6 100084688.29306      3668.541 6        38.750    24089210.098 6  96586275.27206      3540.240 6        36.250
R17  22127955.041 7 118411264.86307     -3594.646 7        45.000    22127955.466 7 118411261.87407     -3594.707 7        44.250    22127961.231 7  92097685.37007     -2795.929 7        42.750    22127961.357 7  92097697.35907     -2795.808 7        43.250
R18  20997514.722 8 112086228.15008       -80.942 8        49.250    20997514.860 8 112086243.15208       -80.954 8        48.750    20997520.636 8  87178227.61408       -62.915 8        48.000    20997520.479 8  87178229.61208       -62.975 8        48.000
R19  22610265.403 5 120949685.57805      3241.923 5        33.250    22610266.306 5 120949679.63505      3241.678 5        32.500    22610273.040 6  94072055.37306      2521.327 6        38.500    22610273.151 6  94072057.35706      2521.494 6        39.000
S23  40209669.449 6 211303300.27006         5.096 6        38.000    40209641.163 5 157791268.85115         3.982 5        32.250
S36  40294836.299 6 211750927.64806          .259 6        36.250    40294795.264 5 158125433.95405          .685 5        32.750
> 2024 03 30 00 01 30.0000000  0 55
C05                                                                                                                                                                                                  40965082.500 5 164949537.03005       -46.398 5        32.000    40965085.698 4                       -48.432 4        29.000
C06                                                                                                                                  38606902.817 6 201036360.20006     -1137.763 6        40.750    38606900.288 7 155454094.96707      -879.901 7        44.750    38606900.659 7 163358507.00907      -924.536 7        42.500
C09                                                                                                                                  38248164.513 7 199168296.91507      -750.235 7        43.250    38248164.359 7 154009608.40307      -580.182 7        47.500    38248163.009 7 161840580.91407      -609.676 7        44.000
C12                                                                                                                                  26823284.163 4 139675922.02114      2912.800 4        27.500    26823290.251 5 108006280.37205      2252.701 5        30.250    26823292.237 5 113498123.88315      2367.130 5        33.000
C16                                                                                                                                  39601708.184 6 206216522.07706     -1229.842 6        40.250    39601712.233 6 159459726.75106      -950.940 6        40.750    39601711.138 6 167567836.73806      -999.314 6        38.000
C19  25973480.650 6 136491586.48006      3352.527 6        38.000    25973482.229 6 101925541.96206      2503.446 6        39.250    25973478.459 6 135250733.73006      3321.861 6        39.500                                                                    25973478.833 6 109902306.16606      2699.299 6        40.500    25973481.193 6 104584467.17506      2568.763 6        40.250
C20  22379268.019 8 117603907.51308      1414.806 8        50.500    22379266.521 8  87821150.54608      1056.545 8        53.000    22379265.859 8 116534783.24108      1401.970 8        53.000                                                                    22379264.207 8  94694090.68208      1139.188 8        52.250    22379265.137 8  90112127.93208      1084.108 8        53.000
C23  23099169.488 8 121387008.69508       990.116 8        48.500    23099164.364 8  90646143.30408       739.367 8        51.750    23099167.082 8 120283476.53508       981.112 8        50.500                                                                    23099163.047 8  97740167.25908       797.271 8        52.000    23099162.962 8  93010808.21608       758.651 8        51.750
C25  24077290.025 7 126527041.52707     -2149.870 7        44.250    24077290.405 7  94484489.29107     -1605.422 7        46.750    24077287.825 7 125376773.56307     -2130.299 7        46.250                                                                    24077290.560 7 101878932.52707     -1730.992 7        47.250    24077289.137 7  96949297.77507     -1647.269 7        47.250
C29  26149519.389 4 137416702.23104     -3150.336 4        27.000    26149519.590 4 102616405.96304     -2352.275 4        26.250    26149516.304 5 136167444.60005     -3121.965 5        30.250                                                                    26149521.239 5 110647242.11905     -2536.740 5        32.750    26149520.335 5 105293332.40905     -2413.747 5        34.500
C32  22851052.809 8 120083193.50008     -2099.758 8        49.750    22851054.843 8  89672596.06808     -1567.979 8        52.000    22851049.755 8 118991533.65308     -2080.660 8        51.250                                                                    22851053.590 8  96690433.91308     -1690.735 8        51.750    22851053.406 8  92011870.79808     -1608.908 8        52.000
C35  24541860.245 7 128968411.70907      -668.749 7        42.500    24541861.251 7  96307638.38507      -499.395 7        43.750    24541858.273 7 127795977.80107      -662.687 7        46.000                                                                    24541860.494 7 103844726.54107      -538.505 7        45.000    24541860.269 7  98819987.40007      -512.468 7        45.000
C37  25376259.997 6 133353165.26706      3401.432 6        40.500    25376264.755 7  99581946.13307      2540.108 7        44.000    25376256.742 7 132140866.58407      3370.639 7        42.250                                                                    25376264.360 7 107375313.70507      2738.991 7        43.750    25376263.715 7 102179731.69107      2606.386 7        44.750
C39  40302195.800 5 211789541.65205     -1437.720 5        35.000    40302196.032 6 158154544.91606     -1073.602 6        39.750    40302193.868 6 209864156.47206     -1424.774 6        38.000                                                                    40302195.584 6 170531843.08006     -1157.736 6        40.500    40302194.264 6 162280307.28806     -1101.624 6        39.500
C41  27164197.425 3                     -3526.520 3        22.250    27164209.548 5 106598330.14805     -2633.427 5        30.500    27164197.350 3                     -3493.823 3        23.500                                                                    27164204.051 5 114940752.00905     -2838.917 5        30.250    27164207.798 5 109379010.92705     -2701.733 5        31.250
C44  25469351.734 5 133842379.45405      1887.562 5        34.500    25469357.878 6  99947270.33906      1409.403 6        38.500    25469350.719 6 132625642.44306      1870.213 6        37.750                                                                    25469355.546 6 107769211.38206      1519.929 6        39.250    25469356.105 6 102554574.90306      1446.300 6        40.250
C48  23553883.510 7 123776548.26407      2586.038 7        44.250    23553900.417 8  92430629.94708      1931.164 8        48.750    23553881.073 7 122651292.01807      2562.547 7        47.000                                                                    23553882.283 8  99664249.16708      2082.250 8        49.000    23553899.972 8  94841856.59308      1981.552 8        49.000
C57                                                                                                                                  23282664.684 7 121238974.32407       600.117 7        42.000                                                                    23282791.632 7  98517151.16007       487.623 7        43.500
E02  25430299.082 7 133637145.25707       681.804 7        44.250    25430299.463 7 108471717.03107       553.468 7        47.750    25430299.976 7  99793989.77007       509.123 7        47.500    25430298.230 8 102397294.67008       522.448 8        48.000    25430298.531 8 101095644.79408       515.796 8        50.750
E07  23523145.558 8 123615038.48108      -393.550 8        50.000    23523144.589 8 100336932.04108      -319.431 8        53.500    23523147.115 8  92310000.85508      -293.884 8        53.000    23523145.409 8  94718071.99108      -301.523 8        53.750    23523146.049 9  93514042.49809      -297.707 9        56.500
E08  26289553.548 6 138152627.68306     -2745.192 6        41.750    26289552.807 7 112136907.21507     -2228.213 7        45.000    26289554.121 7 103165984.84607     -2049.921 7        44.750    26289552.428 7 105857256.31107     -2103.384 7        46.000    26289552.783 8 104511626.15308     -2076.646 8        48.500
E10  27904920.844 6 146641364.82606      2762.967 6        36.250    27904925.459 6 119027111.84806      2242.820 6        41.500    27904926.076 6 109504939.60706      2063.219 6        40.750    27904923.806 6 112361584.06506      2117.122 6        41.500    27904925.162 7 110933271.40907      2090.182 7        44.250
E12  26516203.560 6 139343663.26706      1790.735 6        38.250    26516200.425 7 113103631.66407      1453.514 7        42.000    26516202.303 7 104055356.98607      1337.301 7        43.000    26516200.906 7 106769834.65507      1372.144 7        43.250    26516201.327 7 105412595.39407      1354.722 7        46.000
E18  22513179.186 5 118307574.72805      2466.606 5        35.750    22513180.733 6  96028884.88106      2002.074 6        39.250    22513183.027 6  88346592.65506      1841.875 6        40.000    22513180.538 6  90651274.98806      1889.964 6        40.500    22513182.382 7  89498942.89607      1865.904 7        43.250
E25  26960793.837 6 141679916.40106     -2024.523 6        38.500    26960794.195 7 114999935.41807     -1643.162 7        42.500    26960798.640 7 105799954.81807     -1511.745 7        42.750    26960796.079 7 108559928.10507     -1551.196 7        42.750    26960797.064 7 107179945.03507     -1531.475 7        45.750
E26  27031727.078 6 142052750.03106     -3239.001 6        38.000    27031728.327 7 115302580.61407     -2629.094 7        43.750    27031728.049 6 106078394.61306     -2418.693 6        41.750    27031726.723 7 108845641.05807     -2481.900 7        43.500    27031726.872 7 107462014.41007     -2450.297 7        45.500
E30  27014197.974 6 141960590.11606      2990.518 6        38.250    27014197.348 6 115227761.23506      2427.209 6        41.500    27014200.200 6 106009549.40006      2233.146 6        41.750    27014198.025 7 108775009.43507      2291.409 7        42.000    27014198.522 7 107392285.99207      2262.280 7        45.000
E33  25105474.418 7 131930229.24207     -1319.385 7        45.500    25105474.370 8 107086275.13508     -1070.879 8        49.500    25105474.651 8  98519390.90008      -985.229 8        50.000    25105472.628 8 101089450.16708     -1010.950 8        49.750    25105473.214 8  99804424.60808      -998.096 8        52.750
G04  22690581.650 7 119239896.26507     -3223.049 7        44.000    22690581.467 5        32.250    22690581.493 5  92914235.81305     -2511.465 5        32.250    22690581.694 7  92914227.82707     -2511.517 7        43.750    22690583.674 7  89042834.89907     -2406.874 7        46.750    22690581.613 7 119239909.26907     -3223.073 7        44.500
G05  23996768.937 6 126103904.54306      3630.283 6        40.500    23996768.705 5        34.750    23996767.506 5  98262811.19305      2828.787 5        34.750    23996768.297 6  98262781.23006      2828.661 6        37.500
G06  24076686.782 6 126523880.76006     -3652.069 6        39.750    24076686.760 4        29.250    24076688.463 4  98590073.69004     -2845.770 4        29.250    24076689.250 5  98590074.66805     -2845.785 5        32.750    24076688.418 6  94482164.12606     -2727.097 6        41.000
G07  22452449.084 7 117988460.47207      2566.966 7        46.750    22452448.660 7        45.500    22452447.411 7  91939073.53107      2000.232 7        45.500    22452447.420 7  91939061.53707      2000.239 7        43.750
G09  20473639.320 8 107589767.23208     -1018.933 8        51.250    20473638.963 9        56.000    20473639.060 9  83836214.96209      -793.972 9        56.000    20473639.396 8  83836226.96208      -793.946 8        48.000    20473638.420 9  80343072.44009      -760.866 9        54.750
G11  22569444.831 7 118603314.74307     -1963.668 7        45.750    22569444.724 6        36.000    22569444.129 6  92418195.73706     -1530.130 6        36.000    22569444.258 7  92418186.74407     -1530.156 7        45.500    22569446.596 8  88567456.96608     -1466.387 8        48.500    22569444.713 7 118603311.74007     -1963.677 7        45.500
G16  22368170.732 7 117545547.39707       688.005 7        44.500    22368169.923 5        31.750    22368168.581 5  91593932.68905       536.112 5        31.750
G20  21665053.002 8 113850700.56308      1869.302 8        48.250    21665051.956 6        38.500    21665050.323 6  88714851.78806      1456.599 6        38.500
G26  23323422.474 7 122565411.31207     -2050.308 7        42.250    23323422.050 6        38.000    23323424.267 6  95505529.65306     -1597.646 6        38.000    23323424.835 6  95505527.66606     -1597.578 6        40.500    23323421.995 7  91526119.70907     -1531.091 7        45.750
G29  23831369.052 7 125234744.40507      -915.351 7        42.250    23831368.659 6        36.000    23831368.493 6  97585521.75306      -713.261 6        36.000    23831367.884 6  97585525.75406      -713.079 6        37.250
G30  24677498.988 5 129681138.70705      3719.506 5        35.250    24677498.264 4        25.500    24677500.964 4 101050249.42804      2898.313 4        25.500    24677502.024 5 101050256.42205      2898.474 5        33.000    24677500.847 7  96839828.09707      2777.545 7        42.000
I01  26282996.877 6 103140311.07006     -2871.531 6        36.250
I06  39677597.548 6 155703486.43506         5.413 6        36.750
I09  39300821.162 6 154225037.01306      -697.073 6        38.750
J02  42703009.922 6 224405844.34606        13.068 6        39.750    42703010.946 6 174861711.79306        10.224 6        40.000    42703011.459 7 167575808.07407         9.771 7        42.750    42703009.939 6 224405855.34606        13.098 6        40.000    42703006.739 6 224405832.18606        13.165 6        40.750
R01  19514134.154 8 104314325.61908     -1674.773 8        49.750    19514134.078 8 104314308.62508     -1674.761 8        49.750    19514140.099 7  81133401.36507     -1302.571 7        44.750    19514139.576 7  81133388.35707     -1302.574 7        45.000
R02  20128844.274 8 107411455.01608      2491.126 8        52.250    20128844.503 8 107411439.02208      2491.134 8        52.250    20128848.954 8  83542289.64508      1937.563 8        49.750    20128848.739 8  83542285.64508      1937.548 8        49.250
R08  23529346.516 5 125998676.02205     -4238.387 5        32.000    23529347.433 5 125998684.06105     -4238.349 5        31.000    23529351.301 6  97999041.55906     -3296.540 6        38.250    23529350.036 6  97999049.55406     -3296.442 6        38.000
R09  23993211.441 5 128122364.82205     -4302.968 5        34.250    23993213.811 5 128122376.84205     -4303.273 5        34.250    23993220.294 5  99650737.46905     -3347.117 5        33.250    23993219.708 5  99650725.45305     -3346.670 5        33.500    23993210.770 5  96201281.39605     -3230.967 5        34.500
R10  20981816.880 7 111844915.71707     -2299.364 7        46.000    20981816.598 7 111844894.72507     -2299.404 7        45.750
R11  20407350.157 8 109050734.55208      2286.664 8        52.000    20407350.359 8 109050741.56008      2286.654 8        52.250    20407353.244 8  84817258.25208      1778.445 8        50.500    20407353.280 8  84817303.24808      1778.482 8        49.750    20407340.871 8  81823762.08608      1715.752 8        49.500
R12  24062732.426 6 128538847.91506      4714.773 6        41.750    24062732.591 6 128538799.91506      4714.796 6        41.500    24062738.261 6  99974655.37106      3667.010 6        40.250    24062737.631 6  99974652.35906      3667.127 6        39.500    24062725.317 6  96480085.53206      3539.034 6        36.750
R17  22148155.274 7 118519359.12307     -3611.655 7        44.750    22148155.811 7 118519356.12607     -3611.650 7        44.250    22148161.402 7  92181758.63707     -2809.035 7        43.500    22148161.107 7  92181770.63607     -2808.990 7        43.500
R18  20998051.790 8 112089094.81008      -110.187 8        49.250    20998052.170 8 112089109.81508      -110.188 8        48.750    20998057.566 7  87180457.21107       -85.751 7        47.500    20998057.284 7  87180459.20507       -85.696 7        47.500
R19  22592140.056 5 120852720.20005      3222.495 5        34.250    22592140.316 5 120852714.24105      3222.206 5        33.250    22592146.459 6  93996637.97906      2506.338 6        39.250    22592146.334 6  93996639.97006      2506.403 6        39.250
S23  40209643.853 6 211303145.44406         5.286 6        38.250    40209611.423 5 157791150.53415         3.529 5        32.250
S36  40294835.928 6 211750914.18606          .368 6        36.500    40294792.953 5 158125422.16415          .517 5        32.500
> 2024 03 30 00 02  0.0000000  0 55
C05                                                                                                                                                                                                  40965427.732 5 164950927.42805       -46.507 5        32.250    40965431.498 4                       -48.856 4        29.000
C06                                                                                                                                  38613462.790 6 201070521.58106     -1139.576 6        40.750    38613460.654 7 155480510.69607      -881.161 7        45.000    38613460.548 7 163386265.93707      -925.923 7        42.250
C09                                                                                                                                  38252493.335 7 199190839.93107      -752.605 7        43.000    38252493.292 8 154027040.11908      -581.963 8        48.000    38252492.336 7 161858898.97707      -611.546 7        44.250
C12                                                                                                                                  26806525.868 5 139588657.11705      2904.131 5        30.250    26806530.798 4 107938801.52804      2245.763 4        28.500    26806529.206 5 113427213.92405      2360.257 5        33.000
C16                                                                                                                                  39608796.837 6 206253433.40806     -1230.974 6        40.000    39608800.850 6 159488268.91906      -951.759 6        40.750    39608799.492 6 167597830.21506     -1000.267 6        37.750
C19  25954351.612 6 136391065.83806      3348.897 6        38.000    25954353.736 6 101850477.93206      2500.704 6        40.000    25954349.752 6 135151126.88706      3318.423 6        40.250                                                                    25954350.430 6 109821367.49606      2696.535 6        40.500    25954352.848 6 104507444.93406      2566.021 6        40.500
C20  22371230.278 8 117561669.80708      1401.030 8        50.250    22371228.900 8  87789609.39408      1046.223 8        53.250    22371228.377 8 116492929.51508      1388.300 8        53.000                                                                    22371226.591 8  94660081.09108      1128.107 8        52.250    22371227.659 8  90079763.97008      1073.519 8        52.750
C23  23093565.870 8 121357560.75708       973.046 8        48.750    23093560.607 8  90624152.96708       726.651 8        52.000    23093563.312 8 120254296.30508       964.263 8        50.500                                                                    23093559.009 8  97716455.94608       783.503 8        51.750    23093559.133 8  92988244.21608       745.605 8        51.500
C25  24089601.918 7 126591738.92607     -2163.209 7        44.250    24089601.958 7  94532802.19107     -1615.434 7        46.500    24089599.374 7 125440882.80907     -2143.521 7        46.000                                                                    24089602.149 7 101931026.46407     -1741.824 7        47.000    24089600.820 7  96998871.01807     -1657.514 7        47.000
C29  26167521.672 4 137511308.65604     -3156.512 4        27.000    26167524.337 4 102687053.49704     -2357.277 4        28.500    26167521.865 5 136261190.92305     -3127.807 5        32.000                                                                    26167523.115 5 110723418.58905     -2541.691 5        32.750    26167523.297 5 105365822.89805     -2418.795 5        35.250
C32  22863074.547 8 120146367.72908     -2111.880 8        49.500    22863076.519 8  89719771.62008     -1577.072 8        52.250    22863071.395 8 119054133.56708     -2092.673 8        51.250                                                                    22863075.493 8  96741301.46608     -1700.501 8        52.000    22863075.059 8  92060277.01508     -1618.156 8        51.750
C35  24545729.289 7 128988742.36107      -686.628 7        42.500    24545729.929 7  96322820.45107      -512.786 7        43.500    24545726.468 7 127816123.64107      -680.360 7        45.500                                                                    24545729.431 7 103861096.74707      -552.881 7        45.000    24545729.131 7  98835565.50507      -526.133 7        44.750
C37  25356856.769 6 133251203.91006      3395.825 6        40.250    25356861.839 7  99505806.26507      2535.862 7        44.000    25356854.506 7 132039832.16507      3364.845 7        42.750                                                                    25356861.949 7 107293215.03307      2734.281 7        44.250    25356860.858 7 102101605.55807      2601.932 7        44.000
C39  40310406.226 5 211832684.49505     -1438.560 5        35.500    40310406.061 6 158186761.91006     -1074.081 6        39.750    40310403.240 6 209906907.11206     -1425.361 6        37.250                                                                    40310405.433 6 170566581.43106     -1158.368 6        40.500    40310404.042 6 162313364.71706     -1102.162 6        39.000
C41  27184329.556 3                     -3526.856 3        21.750    27184338.463 4 106677328.85904     -2633.453 4        25.500                                                                                                                                    27184333.807 4 115025933.19404     -2839.896 4        25.250
C44  25458618.932 6 133785972.79906      1872.917 6        36.750    25458623.627 6  99905148.52106      1398.688 6        40.750    25458616.164 6 132569748.53006      1855.928 6        38.250                                                                    25458621.765 6 107723793.06406      1508.109 6        41.250    25458622.297 6 102511354.24906      1435.182 6        41.750
C48  23539147.345 7 123699106.69007      2576.745 7        44.500    23539163.653 8  92372800.27708      1924.181 8        48.500    23539143.910 7 122574554.46007      2553.276 7        46.500                                                                    23539145.635 8  99601893.66908      2074.773 8        48.750    23539163.315 8  94782518.31508      1974.363 8        48.250
C57                                                                                                                                  23279259.141 7 121221241.25907       582.017 7        42.500                                                                    23279385.753 7  98502741.65407       472.956 7        43.500
E02  25426450.687 7 133616921.34907       666.544 7        44.750    25426450.862 8 108455301.48708       540.988 8        48.000    25426451.148 7  99778887.44507       497.667 7        47.750    25426449.670 8 102381798.38508       510.719 8        48.250    25426450.185 8 101080345.48808       504.197 8        51.000
E07  23525425.536 8 123627019.28608      -405.202 8        50.000    23525424.351 8 100346656.73808      -328.891 8        53.500    23525427.030 8  92318947.58008      -302.567 8        53.250    23525425.301 8  94727252.10608      -310.413 8        53.750    23525425.901 9  93523105.91709      -306.492 9        56.500
E08  26305238.721 6 138235053.93106     -2750.007 6        41.000    26305238.145 7 112203811.63007     -2232.115 7        45.250    26305239.307 7 103227536.90107     -2053.542 7        44.750    26305237.427 7 105920414.07707     -2107.145 7        45.250    26305237.983 8 104573981.06408     -2080.348 8        48.000
E10  27889170.868 6 146558597.95606      2754.913 6        36.500    27889175.259 6 118959931.16506      2236.023 6        41.000    27889175.290 6 109443133.47206      2057.163 6        40.500    27889173.714 6 112298165.53606      2110.874 6        41.250    27889174.739 7 110870659.07907      2084.026 7        44.000
E12  26506017.002 6 139290134.53806      1777.679 6        38.250    26506014.078 7 113060183.07907      1443.003 7        42.250    26506016.023 7 104015384.34507      1327.665 7        43.000    26506014.558 7 106728819.23707      1362.160 7        43.250    26506015.092 7 105372101.36607      1344.895 7        46.250
E18  22499191.847 6 118234063.92106      2434.086 6        37.500    22499192.125 6  95969217.01106      1975.663 6        39.250    22499195.456 6  88291698.22806      1817.697 6        40.250    22499193.441 6  90594948.51706      1865.101 6        41.000    22499193.644 7  89443332.44407      1841.401 7        43.750
E25  26972384.198 6 141740822.75806     -2036.000 6        38.250    26972384.860 7 115049372.30807     -1652.519 7        42.250    26972388.517 6 105845436.72006     -1520.439 6        41.500    26972386.454 7 108606596.50607     -1559.940 7        42.000    26972387.300 7 107226020.18607     -1540.171 7        44.750
E26  27050231.252 6 142149990.44606     -3243.607 6        38.500    27050232.791 7 115381509.46707     -2632.898 7        44.000    27050232.495 6 106151009.14306     -2422.201 6        41.250    27050231.151 7 108920149.88207     -2485.475 7        43.250    27050231.193 7 107535576.08707     -2453.854 7        45.500
E30  26997144.064 6 141870972.48906      2984.241 6        38.000    26997143.621 6 115155019.67906      2422.352 6        41.500    26997146.335 6 105942627.19206      2228.519 6        41.250    26997144.468 6 108706341.44506      2286.427 6        41.750    26997144.831 7 107324490.89207      2257.459 7        44.500
E33  25113048.533 7 131970030.55807     -1334.080 7        46.000    25113048.185 8 107118581.37108     -1082.848 8        49.500    25113048.533 8  98549112.61508      -996.254 8        49.750    25113046.326 8 101119947.24408     -1022.203 8        49.500    25113047.285 8  99834534.00408     -1009.222 8        52.500
G04  22709006.550 7 119336718.00507     -3231.750 7        44.250    22709006.363 5        32.500    22709006.143 5  92989681.32005     -2518.246 5        32.500    22709006.340 7  92989673.31007     -2518.118 7        44.000    22709008.190 7  89115136.83807     -2413.261 7        46.750    22709006.446 7 119336731.00007     -3231.687 7        44.000
G05  23976065.566 6 125995110.54406      3622.562 6        39.750    23976065.343 5        34.000    23976064.363 5  98178036.83905      2822.768 5        34.000    23976065.311 6  98178006.85706      2822.985 6        37.750
G06  24097553.224 6 126633538.52406     -3658.371 6        38.500    24097553.198 4        29.000    24097555.026 4  98675521.25204     -2850.675 4        29.000    24097554.489 5  98675522.24605     -2850.660 5        33.000    24097555.821 6  94564051.37206     -2732.006 6        41.250
G07  22437827.016 7 117911619.84807      2555.673 7        47.250    22437826.583 7        46.500    22437825.129 7  91879197.75607      1991.433 7        46.500    22437825.393 7  91879185.76407      1991.430 7        44.000
G09  20479506.366 8 107620599.40908     -1036.547 8        51.500    20479506.009 9        56.250    20479506.325 9  83860240.03109      -807.700 9        56.250    20479506.710 8  83860252.04008      -807.762 8        48.250    20479505.631 9  80366096.46209      -774.055 9        55.000
G11  22580705.960 7 118662493.72007     -1981.566 7        45.750    22580705.849 5        35.500    22580705.043 5  92464309.16205     -1544.072 5        35.500    22580705.101 7  92464300.15607     -1544.112 7        45.250    22580708.038 8  88611648.97408     -1479.705 8        49.250    22580706.079 7 118662490.72107     -1981.615 7        45.000
G16  22364308.511 7 117525252.64107       665.030 7        44.250    22364307.707 5        32.500    22364307.004 5  91578118.50405       518.205 5        32.500
G20  21654429.392 8 113794872.54808      1852.520 8        48.250    21654428.346 6        38.500    21654426.669 6  88671349.40506      1443.524 6        38.500
G26  23335176.707 6 122627183.76706     -2067.836 6        41.250    23335176.278 6        37.750    23335179.322 6  95553663.97006     -1611.298 6        37.750    23335179.604 6  95553661.96606     -1611.219 6        40.000    23335177.220 7  91572248.41107     -1544.122 7        45.250
G29  23836652.265 7 125262508.76207      -935.724 7        42.250    23836651.876 5        35.750    23836651.196 5  97607156.35905      -729.140 5        35.750    23836651.540 6  97607160.36006      -729.119 6        37.000
G30  24656273.703 5 129569603.88905      3715.926 5        35.750    24656272.939 4        27.000    24656276.282 4 100963339.25704      2895.521 4        27.000    24656275.527 5 100963346.23805      2895.899 5        33.500    24656276.492 7  96756539.18507      2774.991 7        42.750
I01  26304951.976 6 103226469.02406     -2872.123 6        36.250
I06  39677557.196 6 155703328.27006         4.996 6        37.000
I09  39306152.074 6 154245957.08206      -697.617 6        39.000
J02  42702937.956 6 224405468.64206        12.032 6        39.250    42702939.637 6 174861419.02606         9.307 6        39.750    42702940.012 7 167575527.51107         8.951 7        42.500    42702938.089 6 224405479.64306        11.988 6        39.750    42702934.933 6 224405456.48906        12.060 6        40.250
R01  19523590.809 8 104364877.56508     -1695.372 8        49.750    19523590.777 8 104364860.56908     -1695.359 8        49.750    19523596.651 7  81172719.52007     -1318.646 7        44.250    19523595.868 7  81172706.50707     -1318.552 7        44.500
R02  20114886.825 8 107336973.90508      2474.284 8        52.250    20114887.035 8 107336957.91308      2474.233 8        52.500    20114891.321 8  83484359.88008      1924.464 8        49.750    20114891.177 8  83484355.88508      1924.445 8        49.500
R08  23553101.072 3                     -4241.087 3        22.500                                                                    23553105.490 6                     -3299.696 6        37.000    23553106.090 6                     -3299.298 6        37.500
R09  24017409.478 5 128251566.77105     -4310.105 5        35.500    24017410.082 5 128251578.75505     -4310.162 5        34.500    24017418.278 5  99751227.89705     -3352.468 5        32.750    24017419.432 5  99751215.91305     -3352.940 5        33.750    24017403.639 5  96298293.33305     -3236.193 5        31.750
R10  20994823.855 7 111914249.82907     -2322.899 7        46.000    20994823.310 7 111914228.83107     -2322.889 7        45.750
R11  20394580.585 8 108982500.38408      2262.220 8        51.750    20394580.777 8 108982507.39308      2262.229 8        52.000    20394584.092 8  84764187.24908      1759.507 8        50.000    20394583.967 8  84764232.24408      1759.561 8        49.250    20394571.532 8  81772564.12308      1697.465 8        49.500
R12  24036257.880 6 128397429.93206      4713.000 6        40.000    24036258.131 6 128397381.95506      4712.824 6        39.500    24036264.601 6  99864663.74606      3665.589 6        40.750    24036264.583 6  99864660.75206      3665.649 6        40.250    24036251.420 6  96373938.58406      3537.585 6        38.250
R17  22168449.925 7 118627960.13107     -3628.486 7        45.000    22168450.220 7 118627957.13607     -3628.459 7        44.250    22168456.084 7  92266226.12007     -2822.148 7        43.000    22168455.606 7  92266238.11807     -2822.051 7        42.750
R18  20998753.281 8 112092838.26908      -139.388 8        49.250    20998753.477 8 112092853.27008      -139.313 8        48.750    20998758.600 7  87183368.83107      -108.397 7        47.750    20998758.470 7  87183370.83007      -108.394 7        47.250
R19  22574123.343 5 120756343.05905      3202.433 5        34.250    22574123.249 5 120756337.06505      3202.645 5        33.000    22574129.062 6  93921678.25406      2490.876 6        38.250    22574129.241 6  93921680.23706      2491.019 6        38.500
S23  40209613.411 6 211302990.03806         5.136 6        38.250    40209582.031 5 157791036.59915         3.540 5        32.250
S36  40294830.146 6 211750898.41306          .487 6        36.250    40294789.894 5 158125410.12315          .558 5        32.500
> 2024 03 30 00 02 30.0000000  0 55
C05                                                                                                                                                                                                  40965772.959 5 164952318.28105       -46.680 5        32.000    40965776.573 4                       -48.842 4        29.750
C06                                                                                                                                  38620032.882 6 201104736.56006     -1141.534 6        40.500    38620031.301 7 155506967.88707      -882.544 7        44.500    38620031.525 7 163414068.40907      -927.377 7        42.500
C09                                                                                                                                  38256835.991 7 199213451.41607      -754.820 7        43.750    38256835.269 7 154044524.80707      -583.753 7        47.750    38256834.554 7 161877272.70407      -613.491 7        44.750
C12                                                                                                                                  26789820.275 5 139501651.80405      2895.859 5        34.000    26789822.401 5 107871523.42205      2239.221 5        33.000    26789822.299 6 113356514.86906      2353.049 6        37.250
C16                                                                                                                                  39615892.757 6 206290380.88606     -1232.112 6        40.750    39615896.430 6 159516839.01906      -952.825 6        41.250    39615894.861 6 167627853.02606     -1001.065 6        37.750
C19  25935244.633 6 136290654.47206      3345.315 6        38.500    25935246.086 6 101775495.60106      2498.168 6        39.500    25935241.995 6 135051628.36406      3314.816 6        40.000                                                                    25935242.708 6 109740516.94006      2693.553 6        41.000    25935244.823 6 104430506.53106      2563.103 6        40.000
C20  22363271.567 8 117519845.26308      1387.267 8        51.000    22363269.926 8  87758376.80808      1035.922 8        53.250    22363269.260 8 116451485.19208      1374.666 8        53.250                                                                    22363267.720 8  94626404.20708      1117.011 8        52.500    22363268.488 8  90047716.61608      1062.991 8        52.750
C23  23088059.268 8 121328624.42808       956.043 8        49.000    23088054.130 8  90602544.67208       713.886 8        52.000    23088056.777 8 120225623.03408       947.308 8        50.750                                                                    23088052.621 8  97693156.56108       769.790 8        52.000    23088052.822 8  92966072.23008       732.513 8        51.750
C25  24101989.564 7 126656836.69107     -2176.616 7        44.500    24101989.462 7  94581414.07207     -1625.322 7        46.250    24101987.324 7 125505388.77307     -2156.860 7        46.750                                                                    24101989.706 7 101983442.78407     -1752.588 7        47.000    24101988.368 7  97048751.04907     -1667.760 7        46.750
C29  26185559.424 4 137606093.83004     -3162.463 4        29.500    26185558.682 4 102757834.59904     -2362.417 4        26.000    26185554.988 5 136355114.38205     -3133.707 5        30.500                                                                    26185561.198 5 110799738.93405     -2546.553 5        33.250    26185559.399 5 105438450.32105     -2422.915 5        34.000
C32  22875165.470 8 120209905.00208     -2123.969 8        50.000    22875167.339 8  89767218.28008     -1586.096 8        52.250    22875162.027 8 119117093.23708     -2104.641 8        51.500                                                                    22875166.157 8  96792461.34108     -1710.211 8        52.000    22875165.767 8  92108961.41508     -1627.443 8        51.750
C35  24549699.428 7 129009605.76707      -704.255 7        43.250    24549700.131 7  96338400.39707      -525.934 7        43.250    24549696.974 7 127836797.37507      -697.960 7        45.750                                                                    24549699.811 7 103877895.94907      -567.106 7        45.750    24549699.279 7  98851551.86907      -539.679 7        45.000
C37  25337487.546 6 133149417.22206      3389.941 6        41.000    25337492.496 7  99429796.76707      2531.500 7        44.000    25337484.515 7 131938970.80207      3359.113 7        43.250                                                                    25337492.584 7 107211256.94107      2729.587 7        44.750    25337491.184 7 102023613.19107      2597.525 7        44.000
C39  40318620.530 5 211875845.82905     -1438.941 5        35.750    40318619.229 6 158218992.70106     -1074.294 6        38.750    40318617.244 6 209949676.06206     -1426.018 6        37.250                                                                    40318619.115 6 170601334.64506     -1158.781 6        40.750    40318618.207 6 162346436.32406     -1102.727 6        39.250
C41                                                                                                                                  27204473.290 3                     -3500.251 3        18.750                                                                    27204470.167 3                     -2840.701 3        22.250
C44  25447968.216 6 133730005.16406      1858.440 6        36.000    25447973.702 6  99863354.51106      1387.673 6        39.000    25447966.888 6 132514289.69306      1841.375 6        38.250                                                                    25447971.787 6 107678728.22206      1496.213 6        39.750    25447971.974 6 102468469.96206      1423.852 6        39.500
C48  23524464.687 7 123621947.52107      2567.302 7        44.750    23524480.597 8  92315181.52108      1917.128 8        48.500    23524461.052 7 122498096.72907      2543.876 7        46.750                                                                    23524462.669 8  99539765.58308      2067.153 8        49.000    23524480.277 8  94723396.45208      1967.157 8        48.750
C57                                                                                                                                  23275957.304 7 121204048.39407       564.005 7        42.500                                                                    23276084.118 7  98488771.08107       458.413 7        44.250
E02  25422690.129 7 133597157.75707       651.139 7        45.250    25422690.219 8 108439259.52908       528.535 8        49.250    25422690.522 8  99764128.80508       486.183 8        49.250    25422688.615 8 102366654.75108       498.887 8        49.250    25422689.376 8 101065394.35208       492.532 8        52.250
E07  23527771.515 8 123639348.46008      -416.803 8        50.000    23527770.634 8 100356664.18908      -338.319 8        53.500    23527773.200 8  92328154.43408      -311.203 8        53.000    23527771.588 8  94736699.14108      -319.324 8        53.250    23527772.077 9  93532432.86109      -315.268 9        56.250
E08  26320951.864 6 138317626.30306     -2754.816 6        41.750    26320951.154 7 112270834.63907     -2236.028 7        45.250    26320952.307 7 103289198.06307     -2057.165 7        45.250    26320950.686 7 105983683.80407     -2110.878 7        45.500    26320951.139 8 104636446.50708     -2084.022 8        48.250
E10  27873467.464 6 146476074.18506      2746.742 6        37.500    27873470.487 6 118892947.76206      2229.527 6        39.750    27873471.381 6 109381508.84906      2051.204 6        40.250    27873470.610 6 112234933.27806      2104.703 6        41.500    27873470.607 7 110808230.63507      2077.965 7        44.000
E12  26495905.094 6 139236996.64706      1764.785 6        38.000    26495902.206 7 113017051.73407      1432.471 7        42.250    26495904.253 7 103975703.53907      1317.799 7        43.500    26495902.453 7 106688103.26207      1352.289 7        43.000    26495903.233 7 105331902.97407      1335.039 7        46.250
E18  22485387.068 5 118161529.53805      2401.573 5        35.500    22485389.147 6  95910341.69406      1949.225 6        38.000    22485392.818 6  88237532.92706      1793.427 6        39.750    22485389.310 6  90539370.22906      1840.123 6        40.250    22485391.059 7  89388460.65407      1816.756 7        43.000
E25  26984040.148 6 141802075.22606     -2047.370 6        38.250    26984040.945 7 115099090.12107     -1661.958 7        42.250    26984044.334 6 105891177.07006     -1528.868 6        41.500    26984042.283 6 108653530.10006     -1568.856 6        41.750    26984043.237 7 107272357.16007     -1548.876 7        44.500
E26  27068761.839 6 142247369.55206     -3248.332 6        38.250    27068763.570 7 115460550.89707     -2636.594 7        43.750    27068762.948 6 106223727.23406     -2425.635 6        41.000    27068761.609 7 108994764.97907     -2488.936 7        42.500    27068761.905 7 107609242.68007     -2457.287 7        45.000
E30  26980125.784 6 141781541.57606      2977.939 6        38.000    26980125.498 6 115082429.67906      2417.197 6        41.250    26980128.104 6 105875844.41306      2223.791 6        41.250    26980126.447 6 108637816.49506      2281.659 6        41.500    26980126.685 7 107256837.02607      2252.732 7        44.500
E33  25120706.334 7 132010273.28807     -1348.743 7        46.000    25120706.241 8 107151245.87308     -1094.772 8        49.750    25120706.245 8  98579163.93508     -1007.172 8        49.750    25120704.418 8 101150782.52408     -1033.490 8        49.750    25120705.341 8  99864977.30308     -1020.335 8        52.750
G04  22727479.905 7 119433797.74807     -3240.263 7        43.750    22727479.718 5        32.250    22727479.842 5  93065327.86305     -2524.881 5        32.250    22727479.699 7  93065319.86507     -2524.882 7        43.500    22727482.010 7  89187631.46107     -2419.685 7        47.000    22727479.971 7 119433810.75707     -3240.276 7        44.000
G05  23955405.914 6 125886545.13506      3614.903 6        39.250    23955405.686 5        33.250    23955405.131 5  98093440.60805      2816.802 5        33.250    23955406.146 6  98093410.62406      2816.923 6        37.750
G06  24118457.170 6 126743385.41806     -3664.667 6        38.000    24118457.153 4        28.250    24118457.943 4  98761116.18004     -2855.581 4        28.250    24118459.003 5  98761117.17805     -2855.713 5        33.000    24118458.734 6  94646079.84806     -2736.804 6        40.750
G07  22423269.206 7 117835118.58207      2544.358 7        47.250    22423268.777 7        46.250    22423267.346 7  91819586.40307      1982.614 7        46.250    22423267.650 7  91819574.41507      1982.588 7        43.750
G09  20485474.453 8 107651961.59208     -1054.238 8        51.500    20485474.096 9        56.250    20485474.363 9  83884678.08709      -821.483 9        56.250    20485474.783 8  83884690.08708      -821.483 8        48.250    20485473.539 9  80389516.26609      -787.274 9        55.000
G11  22592069.175 7 118722206.58607     -1999.307 7        46.000    22592069.059 5        35.250    22592067.963 5  92510838.62705     -1557.899 5        35.250    22592068.241 7  92510829.63007     -1557.891 7        44.750    22592070.887 8  88656239.70708     -1492.944 8        48.750    22592069.129 7 118722203.58807     -1999.257 7        45.250
G16  22360578.127 7 117505648.00007       641.999 7        44.750    22360577.327 5        32.000    22360576.624 5  91562842.13705       500.260 5        32.000
G20  21643901.977 8 113739550.64208      1835.661 8        48.250    21643900.931 6        38.500    21643899.360 6  88628241.50906      1430.385 6        38.500
G26  23347031.756 6 122689479.90606     -2085.233 6        41.500    23347031.327 6        37.000    23347033.933 6  95602206.33306     -1624.854 6        37.000    23347033.768 6  95602204.32806     -1624.980 6        39.500    23347032.157 7  91618768.15107     -1557.189 7        45.500
G29  23842052.040 7 125290885.66207      -956.022 7        42.250    23842051.638 6        36.750    23842051.445 6  97629268.25506      -744.953 6        36.750    23842052.210 6  97629272.28206      -745.167 6        37.750
G30  24635068.696 6 129458170.95306      3712.819 6        36.250    24635067.954 4        28.250    24635071.352 4 100876508.45904      2893.109 4        28.250    24635071.732 5 100876515.45405      2893.275 5        33.750    24635071.740 7  96673326.37507      2772.491 7        43.500
I01  26326913.518 6 103312646.74806     -2872.812 6        36.500
I06  39677518.186 6 155703176.83206         5.070 6        37.000
I09  39311489.184 6 154266900.62106      -698.479 6        38.750
J02  42702872.205 6 224405123.32806        10.980 6        39.500    42702873.502 6 174861149.93706         8.592 6        39.750    42702874.310 7 167575269.61607         8.257 7        42.750    42702872.432 6 224405134.32906        10.997 6        39.750    42702869.013 6 224405111.16806        11.054 6        40.250
R01  19533163.318 8 104416045.66908     -1715.908 8        50.500    19533163.193 8 104416028.67308     -1715.852 8        50.000    19533168.986 7  81212516.92907     -1334.585 7        45.000    19533168.230 7  81212503.92207     -1334.519 7        45.250
R02  20101023.882 8 107262999.09808      2457.390 8        52.250    20101024.070 8 107262983.10108      2457.370 8        52.500    20101028.383 8  83426823.93908      1911.287 8        50.000    20101028.508 8  83426819.94108      1911.322 8        49.500
R08  23576895.926 4                     -4246.219 4        28.750                                                                    23576883.916 6  98197011.35706     -3302.406 6        37.750    23576883.589 6  98197019.35406     -3302.543 6        38.250
R09  24041643.432 5 128380975.01905     -4317.174 5        35.250    24041642.757 5 128380987.02705     -4317.126 5        34.750    24041654.186 5  99851878.69005     -3357.529 5        32.500    24041655.993 5  99851866.71905     -3357.855 5        33.750    24041636.439 5  96395460.11105     -3241.158 5        30.500
R10  21007963.016 7 111984288.20207     -2346.323 7        46.000    21007962.394 7 111984267.20407     -2346.335 7        45.500
R11  20381948.640 8 108914997.93608      2237.822 8        52.000    20381948.877 8 108915004.94408      2237.823 8        52.250    20381952.067 8  84711685.34308      1740.585 8        50.250    20381951.951 8  84711730.33608      1740.628 8        49.750    20381939.578 8  81721915.16708      1679.115 8        49.750
R12  24009795.525 6 128256072.33506      4710.947 6        41.750    24009795.391 6 128256024.34106      4710.917 6        41.250    24009802.344 6  99754719.03706      3664.079 6        40.500    24009802.308 6  99754716.04106      3663.974 6        40.250    24009788.970 6  96267836.94206      3535.887 6        37.500
R17  22188839.071 7 118737063.56707     -3645.138 7        45.500    22188839.062 7 118737060.57907     -3645.111 7        44.250    22188844.756 7  92351084.33007     -2835.108 7        42.750    22188844.613 7  92351096.32607     -2835.123 7        43.000
R18  20999618.759 8 112097457.97208      -168.518 8        49.000    20999618.870 8 112097472.97808      -168.545 8        48.500    20999624.217 7  87186961.89007      -131.143 7        47.750    20999624.163 7  87186963.89307      -131.198 7        47.500
R19  22556217.258 5 120660557.82505      3183.047 5        34.000    22556216.919 5 120660551.82205      3183.012 5        32.500    22556223.183 6  93847178.75206      2475.555 6        39.000    22556223.469 6  93847180.74606      2475.577 6        39.000
S23  40209585.575 6 211302833.24406         5.230 6        38.000
S36  40294828.116 6 211750884.79606          .566 6        36.750    40294786.782 5 158125396.37605          .242 5        32.500
> 2024 03 30 00 03  0.0000000  0 55
C05                                                                                                                                                                                                  40966118.960 5 164953709.63505       -46.599 5        32.250    40966121.876 4                       -48.592 4        29.500
C06                                                                                                                                  38626614.019 6 201139004.81806     -1143.132 6        40.250    38626612.166 7 155533466.27007      -883.921 7        44.250    38626612.627 7 163441914.17507      -928.904 7        42.750
C09                                                                                                                                  38261192.004 7 199236131.16207      -757.052 7        44.000    38261190.709 8 154062062.28808      -585.451 8        48.000    38261189.771 7 161895701.90307      -615.169 7        44.500
C12                                                                                                                                  26773164.165 5 139414909.04005      2887.056 5        31.000    26773166.032 5 107804448.70605      2232.121 5        31.250    26773165.760 5 113286029.38905      2345.930 5        35.250
C16                                                                                                                                  39622994.834 6 206327364.25806     -1233.384 6        40.250    39622998.730 6 159545436.86206      -953.749 6        41.250    39622997.135 6 167657905.02406     -1002.236 6        38.000
C19  25916157.812 6 136190353.60806      3341.618 6        38.750    25916158.943 6 101700595.71306      2495.224 6        39.250    25916155.339 6 134952239.35006      3310.999 6        40.500                                                                    25916155.820 6 109659755.28506      2690.440 6        40.750    25916157.845 6 104353652.70806      2560.396 6        40.250
C20  22355391.321 8 117478434.88408      1373.468 8        50.500    22355389.783 8  87727453.49408      1025.613 8        53.250    22355389.519 8 116410451.27008      1360.935 8        53.500                                                                    22355387.482 8  94593060.79808      1105.883 8        52.500    22355388.381 8  90015986.60408      1052.368 8        53.000
C23  23082650.259 8 121300200.49808       938.916 8        48.500    23082645.345 8  90581319.01408       701.131 8        52.000    23082648.220 8 120197457.49508       930.398 8        51.000                                                                    23082643.863 8  97670269.76408       756.039 8        52.000    23082644.001 8  92944292.86508       719.431 8        51.750
C25  24114453.385 7 126722332.79707     -2189.816 7        44.750    24114453.144 7  94630323.42807     -1635.273 7        46.250    24114450.452 7 125570289.45107     -2169.898 7        46.000                                                                    24114453.348 7 102036179.85907     -1763.252 7        47.000    24114452.010 7  97098936.32107     -1677.964 7        47.000
C29  26203630.538 5 137701055.26905     -3168.058 5        30.250    26203629.076 4 102828747.30204     -2366.026 4        25.750    26203629.108 5 136449212.55805     -3139.328 5        32.250                                                                    26203632.531 5 110876201.27305     -2550.998 5        33.750    26203627.500 5 105511212.87605     -2427.480 5        30.250
C32  22887324.920 8 120273804.17508     -2135.978 8        49.500    22887326.937 8  89814935.17008     -1595.032 8        52.000    22887321.773 8 119180411.50608     -2116.568 8        51.500                                                                    22887325.796 8  96843912.60908     -1719.884 8        52.000    22887325.410 8  92157923.09808     -1636.636 8        51.750
C35  24553770.751 7 129031000.98907      -721.889 7        43.250    24553771.105 7  96354377.40607      -539.145 7        43.000    24553767.858 7 127857998.09207      -715.306 7        45.000                                                                    24553771.318 7 103895123.30307      -581.253 7        45.750    24553770.637 7  98867945.66107      -553.128 7        45.000
C37  25318151.696 6 133047807.30606      3384.013 6        41.000    25318156.753 7  99353919.30207      2527.102 7        43.750    25318148.624 7 131838284.60907      3353.267 7        42.750                                                                    25318156.702 7 107129441.21407      2724.774 7        44.500    25318155.646 7 101945756.30007      2592.925 7        44.500
C39  40326837.083 5 211919025.47505     -1439.599 5        35.000    40326835.352 6 158251237.15306     -1074.904 6        37.750    40326833.443 6 209992463.12106     -1426.374 6        36.000                                                                    40326835.878 6 170636102.57806     -1159.151 6        40.000    40326835.547 6 162379521.93106     -1103.000 6        39.750
C44  25437401.651 5 133674478.60705      1843.687 5        35.500    25437407.410 6  99821889.99106      1376.672 6        39.250    25437398.914 6 132459267.94806      1827.054 6        37.000                                                                    25437404.708 6 107634018.63706      1484.282 6        39.500    25437405.279 6 102425923.74506      1412.483 6        39.500
C48  23509835.425 7 123545072.15407      2557.774 7        45.000    23509851.523 8  92257774.64908      1910.022 8        49.250    23509832.349 7 122421920.23907      2534.484 7        47.500                                                                    23509833.594 8  99477865.98208      2059.528 8        49.500    23509851.435 8  94664492.00708      1959.810 8        49.250
C56                                                                                                                                  40139478.114 6 209016794.48216      1956.349 6        36.750                                                                    40139481.833 5 169843284.31315      1589.911 5        33.750
C57                                                                                                                                  23272759.088 7 121187396.19607       546.147 7        42.500                                                                    23272886.107 7  98475239.84207       443.774 7        43.750
E02  25419017.000 7 133577854.84907       635.756 7        45.250    25419017.045 8 108423591.51008       516.037 8        48.500    25419017.263 8  99749714.18508       474.821 8        48.250    25419015.343 8 102351864.11708       487.136 8        48.500    25419016.256 8 101050791.72408       480.988 8        51.500
E07  23530184.071 8 123652025.81108      -428.404 8        49.750    23530183.007 8 100366954.24508      -347.688 8        53.500    23530185.484 8  92337621.29508      -319.881 8        53.250    23530183.935 9  94746412.96009      -328.208 9        54.000    23530184.490 9  93542023.20009      -324.037 9        56.500
E08  26336692.629 7 138400343.80007     -2759.744 7        42.250    26336691.771 7 112337975.46107     -2239.996 7        45.000    26336692.696 7 103350967.61207     -2060.844 7        44.250    26336691.249 7 106047064.72107     -2114.517 7        45.750    26336691.702 8 104699021.74008     -2087.679 8        48.000
E10  27857810.454 6 146393795.21106      2738.616 6        37.750    27857812.958 6 118826163.05206      2222.905 6        38.500    27857814.684 6 109320067.01106      2045.046 6        40.250    27857813.693 7 112171888.57607      2098.487 7        42.000    27857813.153 7 110745987.36607      2071.765 7        44.000
E12  26485867.987 6 139184250.96606      1751.670 6        38.000    26485865.349 7 112974238.73007      1421.799 7        42.250    26485867.102 7 103936315.60307      1308.034 7        43.250    26485865.418 7 106647687.79907      1342.251 7        43.250    26485865.934 7 105292001.27407      1325.140 7        46.250
E18  22471772.439 6 118089975.66206      2368.678 6        37.750    22471773.682 6  95852262.29806      1922.736 6        39.250    22471775.086 6  88184099.89906      1768.889 6        39.250    22471774.270 6  90484543.28406      1814.927 6        41.000    22471774.620 7  89334330.66507      1791.905 7        43.250
E25  26995760.736 6 141863672.23206     -2059.010 6        36.250    26995762.816 6 115149087.62106     -1671.217 6        41.750    26995765.968 6 105937174.71406     -1537.542 6        40.250    26995763.734 6 108700727.69206     -1577.685 6        40.750    26995764.880 7 107318954.77707     -1557.613 7        43.750
E26  27087318.442 6 142344885.53806     -3252.825 6        37.750    27087319.838 7 115539703.43107     -2640.181 7        42.750    27087319.963 6 106296547.55906     -2429.117 6        40.500    27087318.127 7 109069484.96507     -2492.405 7        42.250    27087318.691 7 107683012.83507     -2460.760 7        44.500
E30  26963143.478 6 141692299.17906      2971.787 6        38.000    26963142.995 6 115009992.70606      2411.915 6        41.250    26963145.597 6 105809202.40906      2219.122 6        40.750    26963143.712 6 108569436.00806      2276.936 6        41.500    26963144.380 7 107189325.78307      2248.024 7        44.250
E33  25128448.403 7 132050956.59307     -1363.379 7        45.500    25128448.064 8 107184267.99308     -1106.687 8        49.000    25128448.354 8  98609544.26908     -1018.105 8        49.500    25128446.398 8 101181955.38708     -1044.628 8        49.750    25128447.114 8  99895753.90108     -1031.367 8        52.500
G04  22746002.229 7 119531133.65407     -3248.766 7        43.750    22746002.028 5        31.500    22746001.777 5  93141174.02105     -2531.506 5        31.500    22746001.974 7  93141166.02107     -2531.506 7        43.000    22746004.262 7  89260317.35007     -2426.052 7        46.750    22746002.326 7 119531146.65607     -3248.772 7        44.250
G05  23934790.343 6 125778210.48806      3607.380 6        39.750    23934790.138 5        32.500    23934789.176 5  98009024.14305      2810.943 5        32.500    23934789.784 6  98008994.15906      2810.837 6        37.000
G06  24139395.677 6 126853418.57706     -3670.889 6        36.500    24139395.642 4        27.500    24139397.304 4  98846856.23104     -2860.430 4        27.500    24139397.850 5  98846857.19405     -2860.220 5        34.250    24139397.209 6  94728247.36706     -2741.126 6        40.250
G07  22408775.949 7 117758957.60207      2532.989 7        46.500    22408775.520 7        46.000    22408774.383 7  91760240.21207      1973.755 7        46.000    22408774.620 7  91760228.22507      1973.773 7        43.750
G09  20491543.053 8 107683852.87808     -1071.829 8        51.250    20491542.700 9        55.750    20491543.044 9  83909528.43909      -835.192 9        55.750    20491543.629 8  83909540.43908      -835.176 8        48.000    20491542.291 9  80413331.18409      -800.392 9        54.750
G11  22603533.128 7 118782451.21607     -2016.930 7        45.500    22603533.008 5        35.250    22603532.376 5  92557782.50105     -1571.635 5        35.250    22603532.730 7  92557773.50107     -1571.608 7        45.000    22603535.470 8  88701227.58808     -1506.131 8        49.250    22603533.216 7 118782448.21107     -2016.927 7        45.000
G16  22356978.703 7 117486734.34007       618.880 7        44.250    22356977.912 5        32.000    22356977.107 5  91548104.13405       482.253 5        32.000
G20  21633471.327 8 113684736.57508      1818.678 8        48.500    21633470.272 6        38.500    21633468.447 6  88585529.24406      1417.154 6        38.500
G26  23358985.611 7 122752297.63707     -2102.638 7        42.000    23358985.164 6        36.750    23358987.591 6  95651155.20606     -1638.416 6        36.750    23358988.052 6  95651153.19406     -1638.384 6        39.000    23358985.591 7  91665677.49007     -1570.166 7        45.250
G29  23847568.573 6 125319874.09106      -976.502 6        41.750    23847568.189 6        36.750    23847568.135 6  97651856.61506      -760.908 6        36.750    23847568.036 6  97651860.61606      -761.050 6        38.250
G30  24613884.496 6 129346841.91906      3709.272 6        37.750    24613883.750 4        29.000    24613886.123 4 100789758.63004      2890.338 4        29.000    24613886.857 5 100789765.66805      2890.150 5        33.750    24613885.845 7  96590191.11707      2769.860 7        42.750
I01  26348878.508 6 103398844.05006     -2873.604 6        36.000
I06  39677481.362 6 155703032.11306         4.697 6        36.750
I09  39316831.329 6 154287867.52306      -699.266 6        38.500
J02  42702812.192 6 224404808.43406         9.961 6        39.250    42702813.917 6 174860904.54206         7.723 6        40.000    42702814.413 7 167575034.45007         7.511 7        42.750    42702812.298 6 224404819.42506        10.057 6        39.750    42702809.294 6 224404796.26906        10.079 6        40.000
R01  19542849.966 8 104467828.81008     -1736.332 8        50.000    19542849.967 8 104467811.81908     -1736.302 8        49.750    19542856.050 7  81252792.70707     -1350.473 7        44.500    19542855.500 7  81252779.69307     -1350.481 7        45.000
R02  20087256.637 8 107189533.24608      2440.455 8        52.500    20087256.772 8 107189517.25308      2440.416 8        52.750    20087260.896 8  83369683.84708      1898.093 8        49.750    20087260.713 8  83369679.84608      1898.111 8        49.000
R08  23600676.225 4                     -4249.976 4        27.250                                                                    23600681.980 6                     -3305.449 6        37.750    23600682.759 6                     -3305.558 6        38.500
R09  24065916.433 6 128510586.34906     -4323.599 6        38.750    24065917.175 6 128510598.37406     -4323.782 6        37.500    24065922.786 5  99952687.36605     -3362.712 5        30.250    24065921.642 4  99952675.42504     -3362.551 4        27.500    24065907.543 4  96492779.31204     -3246.317 4        29.250
R10  21021233.647 7 112055027.99207     -2369.635 7        46.250    21021233.097 7 112055006.99807     -2369.602 7        45.500
R11  20369453.863 8 108848229.75308      2213.375 8        52.000    20369454.100 8 108848236.76208      2213.356 8        52.250    20369457.226 8  84659754.53708      1721.496 8        50.000    20369457.025 8  84659799.53208      1721.502 8        49.750    20369444.724 8  81671817.15408      1660.741 8        49.750
R12  23983343.302 6 128114778.55006      4708.754 6        39.750    23983344.178 6 128114730.57106      4708.762 6        39.250    23983351.744 6  99644823.96906      3662.328 6        40.750    23983351.918 6  99644820.97406      3662.337 6        41.500    23983338.375 6  96161783.15606      3534.210 6        38.000
R17  22209320.180 7 118846665.01507     -3661.558 7        44.750    22209320.435 7 118846662.02807     -3661.586 7        44.250    22209326.214 7  92436329.80707     -2847.825 7        43.000    22209326.348 7  92436341.80007     -2847.918 7        43.000
R18  21000648.014 8 112102954.32708      -197.768 8        48.750    21000648.305 8 112102969.32908      -197.745 8        48.500    21000653.821 8  87191236.91308      -153.890 8        48.000    21000653.472 7  87191238.90707      -153.826 7        47.500
R19  22538422.334 5 120565368.29405      3163.109 5        34.750    22538421.891 5 120565362.31505      3162.921 5        33.000    22538428.562 6  93773142.41706      2460.059 6        39.250    22538428.343 6  93773144.41006      2460.092 6        40.250
S23  40209551.617 6 211302676.23206         5.324 6        38.250    40209522.656 5 157790802.78115         4.068 5        32.000
S36  40294824.248 6 211750869.89606          .580 6        36.750    40294784.045 5 158125384.99315          .648 5        32.500
> 2024 03 30 00 03 30.0000000  0 56
C05                                                                                                                                                                                                  40966463.838 5 164955101.37605       -46.053 5        31.500    40966467.761 4                       -49.242 4        29.250
C06                                                                                                                                  38633205.231 6 201173326.18506     -1145.053 6        40.500    38633202.698 7 155560005.75207      -885.357 7        44.000    38633203.512 7 163469803.09907      -930.408 7        42.500
C09                                                                                                                                  38265560.265 7 199258878.89907      -759.324 7        44.000    38265559.346 8 154079652.37808      -587.232 8        48.500    38265557.965 7 161914186.38507      -617.098 7        44.750
C12                                                                                                                                  26756551.394 4 139328430.22104      2877.907 4        27.500    26756559.673 6 107737577.61406      2225.790 6        38.000    26756555.564 5 113215758.18205      2338.876 5        34.750
C16                                                                                                                                  39630104.114 6 206364383.28406     -1234.590 6        40.250    39630108.002 6 159574062.30906      -954.718 6        41.500    39630106.103 6 167687985.99806     -1003.155 6        37.500
C19  25897092.235 6 136090164.84406      3337.764 6        38.000    25897093.599 6 101625779.52006      2492.442 6        39.500    25897089.771 6 134852961.39506      3307.421 6        40.250                                                                    25897090.431 6 109579083.88706      2687.595 6        40.750    25897092.505 6 104276884.79006      2557.503 6        40.500
C20  22347590.227 8 117437439.80008      1359.584 8        50.750    22347588.594 8  87696840.31108      1015.268 8        53.500    22347588.031 8 116369828.87708      1347.219 8        53.000                                                                    22347586.397 8  94560051.79508      1094.700 8        52.500    22347587.152 8  89984574.81008      1041.757 8        53.000
C23  23077339.107 8 121272289.60208       921.778 8        49.000    23077334.247 8  90560476.48708       688.320 8        52.500    23077336.872 8 120169800.34208       913.408 8        50.750                                                                    23077332.505 8  97647796.07308       742.234 8        52.000    23077332.661 8  92922906.60708       706.303 8        52.000
C25  24126991.953 7 126788225.50907     -2202.916 7        44.000    24126992.324 7  94679528.95607     -1645.086 7        46.500    24126989.628 7 125635583.16507     -2182.913 7        45.750                                                                    24126992.113 7 102089236.28407     -1773.834 7        46.750    24126991.070 7  97149425.46907     -1688.011 7        47.000
C29  26221735.051 5 137796190.74105     -3173.927 5        30.500    26221733.956 4 102899789.92704     -2370.437 4        27.750    26221734.180 5 136543483.21405     -3145.178 5        34.000                                                                    26221736.266 5 110952803.72905     -2555.632 5        33.250
C32  22899553.096 8 120338064.10208     -2148.007 8        49.750    22899555.041 8  89862921.46608     -1604.014 8        52.250    22899550.149 8 119244087.24908     -2128.512 8        51.500                                                                    22899554.208 8  96895654.35708     -1729.557 8        52.000    22899553.724 8  92207161.21308     -1645.852 8        52.000
C35  24557943.039 7 129052926.99107      -739.717 7        43.250    24557943.781 7  96370750.58907      -552.394 7        43.500    24557940.245 7 127879724.78207      -732.987 7        45.000                                                                    24557943.328 7 103912777.91907      -595.670 7        45.500    24557943.162 7  98884745.99207      -566.812 7        45.000
C37  25298850.067 6 132946376.22206      3377.996 6        40.750    25298854.883 7  99278175.37707      2522.566 7        44.000    25298847.540 7 131737775.60607      3347.396 7        43.500                                                                    25298854.751 7 107047769.47907      2719.929 7        44.250    25298853.852 7 101868036.44007      2588.370 7        44.500
C39  40335056.792 5 211962223.15405     -1440.299 5        34.250    40335055.474 6 158283495.10906     -1075.689 6        37.750    40335054.123 5 210035268.08905     -1427.010 5        35.750                                                                    40335056.004 6 170670885.07906     -1159.643 6        39.250    40335056.173 6 162412621.39806     -1103.454 6        39.500
C44  25426918.965 5 133619394.49205      1828.792 5        35.000    25426924.581 6  99780755.70906      1365.558 6        39.500    25426918.652 6 132404684.56806      1812.039 6        38.500                                                                    25426923.198 6 107589665.13506      1472.606 6        40.000    25426923.564 6 102383716.38806      1401.329 6        40.500
C48  23495260.806 7 123468482.19607      2548.287 7        45.000    23495277.047 8  92200580.93308      1902.931 8        48.750    23495257.448 7 122346026.55807      2525.073 7        46.750                                                                    23495258.739 8  99416196.21608      2051.794 8        49.000    23495276.530 8  94605806.26608      1952.532 8        48.250
C56                                                                                                                                  40128210.488 6 208958120.89906      1954.906 6        36.500                                                                    40128214.153 5 169795607.24705      1588.675 5        34.000
C57                                                                                                                                  23269665.490 7 121171285.33007       527.944 7        42.250                                                                    23269791.977 7  98462148.49207       428.995 7        43.500
E02  25415431.612 7 133559013.33007       620.398 7        45.250    25415431.662 8 108408298.06108       503.561 8        48.500    25415431.898 7  99735644.22807       463.210 7        47.750    25415430.295 8 102337427.10408       475.365 8        48.750    25415430.784 8 101036538.23908       469.286 8        51.250
E07  23532662.589 8 123665051.05008      -439.966 8        50.250    23532661.431 8 100377526.68108      -357.137 8        53.750    23532664.109 8  92347347.93908      -328.561 8        52.500    23532662.551 8  94756393.34108      -337.129 8        53.750    23532663.071 9  93551876.71409      -332.845 9        56.250
E08  26352460.607 7 138483205.38407     -2764.478 7        42.000    26352459.673 7 112405233.25807     -2243.927 7        45.250    26352460.782 7 103412844.79507     -2064.428 7        44.000    26352458.870 7 106110556.07007     -2118.214 7        45.250    26352459.538 7 104761706.00507     -2091.308 7        47.500
E10  27842199.921 6 146311762.94806      2730.292 6        37.500    27842202.117 6 118759578.64306      2216.081 6        38.000    27842204.665 6 109258809.45406      2038.839 6        39.750    27842203.030 6 112109032.97206      2092.004 6        41.500    27842202.665 7 110683930.78807      2065.396 7        43.750
E12  26475905.901 6 139131898.91206      1738.541 6        38.500    26475902.592 7 112931745.22507      1411.077 7        42.250    26475904.448 7 103897221.59407      1298.179 7        43.000    26475903.144 7 106607573.94707      1332.021 7        43.250    26475903.606 7 105252397.34307      1315.099 7        46.250
E18  22458343.374 6 118019406.53006      2335.866 6        38.500    22458344.179 6  95794982.14106      1895.992 6        39.000    22458347.837 6  88131402.25006      1744.187 6        39.250    22458344.718 6  90430470.87806      1789.697 6        40.250    22458345.515 7  89280945.63907      1766.943 7        42.750
E25  27007548.264 6 141925612.15006     -2070.423 6        38.250    27007549.414 7 115199363.37807     -1680.619 7        42.500    27007553.178 6 105983428.33606     -1546.028 6        41.000    27007551.253 6 108748187.95606     -1586.465 6        41.500    27007551.840 7 107365811.72007     -1566.258 7        44.250
E26  27105901.383 6 142442536.50706     -3257.234 6        38.250    27105902.452 7 115618965.53707     -2643.832 7        42.250    27105902.202 6 106369468.67406     -2432.458 6        40.000    27105900.768 7 109144308.38007     -2495.852 7        42.250    27105901.181 7 107756885.10007     -2464.141 7        44.250
E30  26946197.526 6 141603247.17106      2965.456 6        38.750    26946196.730 6 114937710.24806      2406.803 6        41.250    26946199.529 6 105742702.55906      2214.342 6        40.500    26946197.698 6 108501201.37006      2272.097 6        41.250    26946198.348 7 107121958.53807      2243.219 7        44.000
E33  25136273.738 7 132092079.38407     -1378.061 7        46.250    25136273.426 8 107217646.83508     -1118.616 8        49.500    25136273.806 8  98640252.77508     -1029.152 8        49.500    25136271.786 8 101213464.99208     -1055.931 8        50.000    25136272.597 8  99926862.95808     -1042.542 8        52.750
G04  22764573.199 7 119628723.79207     -3257.344 7        43.750    22764572.989 5        32.000    22764572.797 5  93217218.27605     -2538.188 5        32.000    22764573.025 7  93217210.27907     -2538.050 7        43.500    22764575.219 7  89333193.09707     -2432.323 7        47.000    22764573.037 7 119628736.79107     -3257.250 7        44.000
G05  23914219.807 6 125670109.29306      3599.458 6        40.250    23914219.606 5        32.250    23914217.839 5  97924789.54305      2804.775 5        32.250    23914218.876 6  97924759.54506      2804.924 6        36.500
G06  24160368.834 5 126963635.03305     -3676.881 5        35.750    24160368.838 4        26.750    24160371.168 4  98932739.13304     -2865.108 4        26.750    24160371.874 5  98932740.11705     -2864.997 5        34.250    24160370.765 6  94810551.80206     -2745.681 6        40.500
G07  22394348.004 7 117683138.26507      2521.557 7        46.750    22394347.580 7        46.250    22394346.407 7  91701160.23807      1964.848 7        46.250    22394346.792 7  91701148.24507      1964.899 7        44.000
G09  20497712.291 8 107716272.32708     -1089.472 8        51.500    20497711.934 9        56.250    20497712.304 9  83934790.34509      -848.939 9        56.250    20497712.783 8  83934802.35108      -848.949 8        48.500    20497711.552 9  80437540.51209      -813.599 9        55.500
G11  22615098.228 7 118843225.34607     -2034.620 7        45.750    22615098.099 5        35.500    22615097.580 5  92605138.92005     -1585.419 5        35.500    22615097.750 7  92605129.92507     -1585.470 7        45.500    22615100.365 8  88746610.81708     -1519.373 8        49.500    22615098.451 7 118843222.35307     -2034.592 7        45.500
G16  22353511.819 7 117468512.56907       595.894 7        44.750    22353511.024 5        32.250    22353510.043 5  91533905.26705       464.337 5        32.250
G20  21623137.859 8 113630432.23708      1801.575 8        48.500    21623136.804 6        38.750    21623134.733 6  88543214.17006      1403.821 6        38.750
G26  23371038.315 6 122815634.48206     -2119.973 6        41.500    23371037.873 6        37.000    23371040.309 6  95700508.53606     -1651.920 6        37.000    23371040.693 6  95700506.53506     -1652.033 6        39.500    23371038.157 7  91712974.40707     -1583.075 7        45.000
G29  23853200.162 6 125349472.45006      -996.887 6        41.250    23853199.782 6        36.000    23853200.278 6  97674920.32506      -776.797 6        36.000    23853200.725 6  97674924.33906      -776.740 6        37.750
G30  24592719.618 6 129235618.71506      3705.593 6        38.000    24592718.894 4        29.000    24592720.454 4 100703091.25704      2887.479 4        29.000    24592721.004 5 100703098.25605      2887.530 5        34.000    24592721.146 7  96507134.91007      2767.115 7        43.250
I01  26370848.896 6 103485060.89306     -2874.116 6        36.250
I06  39677446.528 6 155702894.09806         4.534 6        36.750
I09  39322180.431 6 154308857.70806      -700.190 6        38.750
J02  42702758.286 6 224404523.84006         9.063 6        39.250    42702759.744 6 174860682.78806         6.845 6        39.750    42702760.235 7 167574821.93507         6.681 7        42.500    42702758.272 6 224404534.84506         9.036 6        40.000    42702754.897 6 224404511.68106         9.112 6        39.750
R01  19552651.892 8 104520225.03408     -1756.755 8        50.000    19552651.910 8 104520208.04108     -1756.741 8        49.750    19552657.712 7  81293545.31907     -1366.349 7        44.500    19552657.202 7  81293532.31707     -1366.362 7        45.000
R02  20073584.643 8 107116578.59608      2423.213 8        52.250    20073584.982 8 107116562.59908      2423.228 8        52.750    20073589.340 8  83312941.35108      1884.749 8        50.000    20073589.040 8  83312937.35508      1884.731 8        49.250
R03  24166617.580 5 129365811.70315      4297.008 5        30.000
R08  23624493.974 4                     -4254.028 4        27.500                                                                    23624502.479 6  98395341.95806     -3308.313 6        38.750    23624504.134 6  98395349.97206     -3308.613 6        40.000
R09  24090225.559 6 128640396.72606     -4330.443 6        38.750    24090225.613 6 128640408.73806     -4330.435 6        38.000    24090233.438 5 100053650.76605     -3368.142 5        32.750    24090232.798 5 100053638.76305     -3367.880 5        34.500    24090217.157 4  96590247.95004     -3251.896 4        29.250
R10  21034635.404 7 112126465.77807     -2392.885 7        46.000    21034634.984 7 112126444.77307     -2392.858 7        45.500
R11  20357096.520 8 108782198.30408      2188.774 8        51.750    20357096.860 8 108782205.30808      2188.781 8        52.000    20357100.243 8  84608396.75708      1702.347 8        50.250    20357100.242 8  84608441.75108      1702.344 8        49.750    20357087.865 8  81622271.93908      1642.253 8        49.750
R12  23956905.772 6 127973552.05806      4706.257 6        39.000    23956906.327 6 127973504.06006      4706.308 6        39.750    23956913.884 6  99534981.22106      3660.428 6        40.000    23956914.317 6  99534978.21906      3660.541 6        41.000    23956900.215 6  96055779.88006      3532.797 6        37.750
R17  22229893.659 7 118956760.32607     -3678.088 7        44.750    22229894.442 7 118956757.33807     -3678.055 7        44.000    22229900.279 7  92521959.41207     -2860.754 7        42.000    22229900.153 7  92521971.40607     -2860.662 7        42.500
R18  21001841.812 8 112109326.50708      -226.991 8        49.000    21001842.036 8 112109341.51308      -227.018 8        48.500    21001847.409 8  87196193.08108      -176.552 8        48.000    21001847.427 7  87196195.08507      -176.588 7        47.500
R19  22520740.067 5 120470779.58905      3142.765 5        35.250    22520739.758 5 120470773.58605      3143.044 5        34.000    22520746.362 6  93699573.63506      2444.624 6        40.750    22520746.675 6  93699575.63206      2444.448 6        40.750
S23  40209522.856 6 211302519.35906         5.345 6        38.500
S36  40294816.498 6 211750849.98106          .869 6        36.750    40294780.311 5 158125376.67015          .224 5        32.250
> 2024 03 30 00 04  0.0000000  0 56
C05                                                                                                                                                                                                  40966809.834 5 164956493.59705       -46.364 5        32.500    40966813.234 4                       -49.032 4        29.250
C06                                                                                                                                  38639806.232 6 201207700.33806     -1146.581 6        40.250    38639804.034 7 155586586.06007      -886.644 7        44.000    38639804.696 7 163497734.93607      -931.780 7        43.000
C09                                                                                                                                  38269941.150 7 199281694.18207      -761.602 7        43.500    38269941.067 8 154097294.57208      -588.993 8        48.500    38269939.475 7 161932725.64807      -618.876 7        45.000
C12                                                                                                                                  26740006.114 4                      2869.332 4        27.500    26740000.593 5 107670912.66405      2218.669 5        35.250    26739998.130 5 113145703.65605      2331.464 5        31.250
C16                                                                                                                                  39637220.264 6 206401437.75106     -1235.795 6        40.000    39637223.910 6 159602715.16606      -955.535 6        41.500    39637221.894 6 167718095.78106     -1004.145 6        37.500
C19  25878047.613 6 135990089.68406      3333.936 6        37.750    25878049.982 6 101551048.21106      2489.502 6        40.000    25878046.378 6 134753796.03606      3303.556 6        40.750                                                                    25878046.448 6 109498503.97606      2684.416 6        41.250    25878048.303 6 104200203.95306      2554.528 6        40.500
C20  22339868.468 8 117396861.04808      1345.644 8        51.000    22339866.648 8  87666537.99108      1004.863 8        53.250    22339866.281 8 116329619.02308      1333.407 8        53.250                                                                    22339864.513 8  94527377.99208      1083.499 8        52.750    22339865.442 8  89953481.99508      1031.058 8        53.000
C23  23072125.522 8 121244892.35308       904.674 8        49.000    23072120.558 8  90540017.50908       675.562 8        52.000    23072123.581 8 120142652.16408       896.426 8        51.000                                                                    23072119.108 8  97625735.95808       728.433 8        52.250    23072119.112 8  92901913.91608       693.192 8        51.750
C25  24139606.051 7 126854512.98607     -2216.182 7        44.250    24139606.468 7  94729029.24507     -1654.875 7        46.250    24139603.400 7 125701267.99907     -2195.955 7        45.750                                                                    24139606.435 7 102142610.54407     -1784.429 7        47.250    24139605.164 7  97200217.08207     -1698.081 7        46.750
C29  26239869.676 4 137891497.69204     -3179.468 4        28.500    26239872.015 4 102970960.61904     -2374.335 4        29.750    26239864.512 4 136637923.75104     -3150.579 4        29.250                                                                    26239872.416 5 111029544.30505     -2559.902 5        31.250
C32  22911849.937 8 120402683.60908     -2159.964 8        49.750    22911851.820 8  89911176.27208     -1612.971 8        51.750    22911846.606 8 119308119.30408     -2140.315 8        51.250                                                                    22911850.879 8  96947685.63408     -1739.190 8        52.250    22911850.453 8  92256674.84308     -1655.001 8        51.750
C35  24562216.676 7 129075383.50907      -757.372 7        43.500    24562217.338 7  96387520.01807      -565.582 7        43.250    24562213.725 7 127901977.15507      -750.565 7        45.250                                                                    24562216.961 7 103930859.75207      -609.818 7        46.000    24562216.611 7  98901952.88407      -580.440 7        44.750
C37  25279583.236 6 132845126.00906      3372.026 6        41.750    25279587.613 7  99202566.54607      2518.027 7        44.000    25279579.341 7 131637445.87907      3341.369 7        42.750                                                                    25279587.800 7 106966243.40407      2715.060 7        45.000    25279586.784 7 101790455.19807      2583.696 7        44.500
C39  40343281.059 5 212005438.67105     -1440.771 5        34.000    40343279.096 6 158315766.36706     -1075.919 6        36.750    40343276.498 5 210078090.74105     -1427.622 5        34.750                                                                    40343279.363 6 170705681.95106     -1160.170 6        39.000    40343279.890 6 162445734.55406     -1104.085 6        39.250
C44  25416522.635 6 133564754.83306      1814.055 6        36.500    25416526.976 6  99739953.48206      1354.367 6        39.500    25416519.715 6 132350541.65306      1797.291 6        37.500                                                                    25416526.000 6 107545669.67306      1460.486 6        40.750    25416525.628 6 102341849.75806      1389.880 6        40.500
C48  23480740.974 7 123392179.31607      2538.642 7        45.500    23480757.022 8  92143601.61708      1895.659 8        49.000    23480737.929 7 122270417.32507      2515.533 7        47.250                                                                    23480738.790 8  99354757.59708      2044.042 8        49.500    23480756.559 8  94547340.51208      1945.158 8        48.750
C56                                                                                                                                  40116950.952 5 208899492.70505      1953.319 5        35.750                                                                    40116955.265 5 169747967.05405      1587.344 5        34.000
C57                                                                                                                                  23266675.682 7 121155716.24607       509.918 7        42.500                                                                    23266801.959 7  98449497.36107       414.396 7        43.250
E02  25411934.115 7 133540633.51707       605.013 7        45.250    25411934.263 8 108393379.40508       491.033 8        48.500    25411934.450 8  99721919.06908       451.660 8        48.000    25411932.820 8 102323343.88708       463.572 8        48.750    25411933.197 8 101022634.05208       457.612 8        51.500
E07  23535207.273 8 123678423.89908      -451.500 8        50.000    23535206.276 8 100388381.27608      -366.495 8        53.250    23535208.918 8  92357334.16208      -337.173 8        53.000    23535207.364 8  94766640.07808      -345.975 8        53.750    23535207.889 9  93561993.19409      -341.570 9        56.250
E08  26368255.809 7 138566210.15207     -2769.208 7        42.250    26368254.857 7 112472607.24207     -2247.748 7        45.000    26368256.301 7 103474828.84807     -2067.876 7        44.750    26368253.951 7 106174157.12407     -2121.963 7        44.500    26368254.936 7 104824498.56007     -2094.927 7        47.750
E10  27826636.483 6 146229979.23406      2721.920 6        37.250    27826639.081 6 118693195.94706      2209.441 6        38.500    27826641.469 6 109197737.49506      2032.605 6        40.000    27826639.378 6 112046367.78806      2085.627 6        41.000    27826639.505 7 110622062.21607      2059.102 7        43.500
E12  26466018.835 6 139079941.98706      1725.277 6        38.500    26466015.450 7 112889572.47107      1400.357 7        42.500    26466017.212 7 103858422.70807      1288.418 7        43.250    26466015.836 7 106567762.90307      1322.068 7        43.500    26466016.428 7 105213092.37907      1305.248 7        46.250
E18  22445102.037 6 117949826.14806      2302.920 6        38.250    22445103.186 6  95738504.59506      1869.157 6        39.500    22445105.873 6  88079442.88106      1719.708 6        39.500    22445103.693 6  90377156.07006      1764.586 6        39.750    22445104.991 7  89228308.54807      1742.157 7        42.750
E25  27019400.295 6 141987893.63606     -2081.782 6        38.750    27019400.702 6 115249916.40706     -1689.709 6        41.500    27019405.183 6 106029937.11306     -1554.602 6        41.000    27019403.195 6 108795910.00406     -1595.047 6        41.750    27019403.724 7 107412927.13307     -1574.830 7        44.250
E26  27124509.271 6 142540320.69706     -3261.658 6        38.000    27124509.554 6 115698335.77506     -2647.345 6        41.000    27124510.014 6 106442489.27606     -2435.714 6        40.250    27124508.589 7 109219233.88607     -2499.209 7        42.000    27124508.939 7 107830858.15607     -2467.475 7        44.000
E30  26929288.072 6 141514387.44506      2958.801 6        38.250    26929287.241 6 114865583.86006      2401.619 6        41.250    26929290.205 6 105676346.31306      2209.403 6        41.000    26929288.253 6 108433114.07206      2267.088 6        41.500    26929288.818 7 107054736.76607      2238.255 7        44.250
E33  25144182.429 7 132133640.80007     -1392.732 7        46.000    25144182.501 8 107251381.73308     -1130.416 8        49.500    25144182.559 8  98671288.87408     -1039.973 8        49.500    25144180.656 8 101245310.74008     -1067.120 8        50.000    25144181.498 8  99958303.88108     -1053.545 8        52.750
G04  22783191.936 7 119726566.27507     -3265.614 7        43.750    22783191.722 5        31.000    22783191.546 5  93293459.16705     -2544.634 5        31.000    22783191.287 7  93293451.16907     -2544.632 7        42.750    22783193.884 7  89406257.28007     -2438.586 7        46.750    22783191.836 7 119726579.27407     -3265.577 7        44.000
G05  23893693.811 6 125562245.32206      3591.527 6        41.000    23893693.601 5        33.250    23893691.870 5  97840739.78105      2798.591 5        33.250    23893693.002 6  97840709.79406      2798.478 6        37.000
G06  24181376.544 5 127074031.90905     -3682.945 5        34.750    24181376.531 4        26.250    24181379.539 4  99018762.61304     -2869.817 4        26.250    24181380.116 5  99018763.63005     -2869.717 5        35.500    24181379.033 6  94892990.94906     -2750.204 6        40.750
G07  22379985.693 7 117607663.05407      2510.084 7        47.250    22379985.273 7        46.250    22379983.783 7  91642348.40007      1955.908 7        46.250    22379983.806 7  91642336.41207      1955.865 7        43.750
G09  20503982.052 8 107749219.04908     -1107.012 8        51.500    20503981.695 9        56.000    20503981.926 9  83960463.11609      -862.608 9        56.000    20503982.288 8  83960475.12208      -862.590 8        48.250    20503980.968 9  80462143.58309      -826.655 9        54.750
G11  22626763.748 7 118904526.96707     -2052.152 7        46.250    22626763.619 5        35.000    22626762.648 5  92652906.42405     -1599.082 5        35.000    22626762.760 7  92652897.42707     -1599.042 7        44.500    22626765.518 8  88792388.01408     -1532.468 8        48.750    22626763.818 7 118904523.96807     -2052.162 7        45.750
G16  22350176.015 7 117450983.48507       572.789 7        44.250    22350175.215 5        32.000    22350174.472 5  91520246.20005       446.335 5        32.000
G20  21612900.830 8 113576639.26408      1784.639 8        48.250    21612899.775 6        38.500    21612898.281 6  88501297.63806      1390.628 6        38.500
G26  23383189.564 6 122879488.34706     -2137.139 6        41.750    23383189.126 6        36.750    23383191.362 6  95750264.74906     -1665.302 6        36.750    23383191.626 6  95750262.74906     -1665.300 6        38.750    23383189.103 7  91760657.45107     -1595.801 7        44.750
G29  23858948.790 7 125379680.15707     -1016.991 7        42.000    23858948.401 6        36.750    23858948.463 6  97698458.86706      -792.461 6        36.750    23858948.937 6  97698462.87906      -792.579 6        38.500
G30  24571575.801 6 129124503.30806      3702.008 6        39.250    24571575.082 4        29.750    24571576.064 4 100616507.89004      2884.681 4        29.750    24571576.346 5 100616514.90505      2884.481 5        34.000    24571576.564 7  96424159.21307      2764.510 7        43.000
I01  26392824.394 6 103571297.08106     -2874.869 6        36.500
I06  39677413.063 6 155702762.77406         4.340 6        37.000
I09  39327535.642 6 154329871.11206      -700.826 6        38.750
J02  42702709.720 6 224404269.52206         8.054 6        39.500    42702711.857 6 174860484.59006         6.197 6        40.000    42702711.829 7 167574631.99707         5.870 7        42.500    42702709.866 6 224404280.52606         8.017 6        40.000    42702706.500 6 224404257.35706         8.015 6        40.500
R01  19562568.225 8 104573233.46708     -1777.126 8        50.000    19562568.243 8 104573216.47608     -1777.107 8        49.750    19562574.157 7  81334774.09607     -1382.199 7        44.500    19562573.419 7  81334761.08407     -1382.174 7        44.750
R02  20060009.346 8 107044137.32108      2406.212 8        52.250    20060009.566 8 107044121.32608      2406.185 8        52.750    20060013.749 8  83256598.13108      1871.452 8        49.500    20060013.556 8  83256594.12908      1871.464 8        49.000
R03  24142537.397 4                      4296.346 4        24.250
R08  23648340.332 5                     -4257.520 5        32.000                                                                    23648343.485 6  98494638.53506     -3311.442 6        38.500    23648343.422 6  98494646.53906     -3311.472 6        39.500
R09  24114571.621 5 128770402.70605     -4336.592 5        35.000    24114571.478 5 128770414.72105     -4336.706 5        34.500    24114580.626 5 100154766.37605     -3372.992 5        30.000    24114579.947 5 100154754.38905     -3373.056 5        31.000
R10  21048167.079 7 112198598.51707     -2415.951 7        45.750    21048166.713 7 112198577.51707     -2415.907 7        45.500
R11  20344878.491 8 108716906.49608      2164.101 8        52.000    20344878.710 8 108716913.50408      2164.071 8        52.000    20344881.855 8  84557614.24908      1683.100 8        50.250    20344881.770 8  84557659.24208      1683.133 8        49.750    20344869.393 8  81573281.69508      1623.733 8        49.500
R12  23930481.412 6 127832396.17106      4703.904 6        38.750    23930481.403 6 127832348.18706      4703.694 6        38.500    23930488.888 6  99425193.39406      3658.608 6        40.000    23930489.492 6  99425190.38606      3658.698 6        40.250    23930475.671 6  95949829.61606      3530.834 6        37.750
R17  22250559.849 7 119067345.15807     -3694.255 7        45.000    22250559.652 7 119067342.16107     -3694.208 7        44.000    22250565.900 7  92607969.83507     -2873.291 7        43.250    22250565.949 7  92607981.83507     -2873.279 7        43.250
R18  21003199.187 8 112116574.14708      -256.160 8        48.500    21003199.446 8 112116589.15008      -256.121 8        48.250    21003205.740 8  87201830.01608      -199.185 8        48.000    21003205.602 7  87201832.01807      -199.180 7        47.750
R19  22503168.763 5 120376795.11605      3122.583 5        35.250    22503170.257 5 120376789.09205      3123.004 5        34.250    22503176.566 6  93626474.79906      2428.846 6        40.750    22503177.371 6  93626476.80206      2428.629 6        40.750
S23  40209494.823 6 211302361.94506         5.247 6        38.250    40209462.857 5 157790569.16615         3.799 5        32.000
S36  40294815.962 6 211750829.61206          .472 6        36.500    40294777.906 5 158125364.76615          .227 5        32.250
> 2024 03 30 00 04 30.0000000  0 56
C05                                                                                                                                                                                                  40967155.808 5 164957886.30005       -46.303 5        31.750    40967158.890 4                       -49.456 4        29.000
C06                                                                                                                                  38646417.642 6 201242127.04106     -1148.335 6        40.500    38646415.649 7 155613206.97407      -888.082 7        44.500    38646416.200 7 163525709.46907      -933.241 7        43.000
C09                                                                                                                                  38274335.485 7 199304577.07507      -763.895 7        43.250    38274335.464 8 154114989.08908      -590.685 8        48.250    38274334.262 7 161951319.89207      -620.761 7        45.000
C12                                                                                                                                  26723499.772 4                      2860.456 4        24.250    26723494.609 5 107604455.54505      2212.143 5        32.250    26723496.447 5 113075867.41405      2324.155 5        32.000
C16                                                                                                                                  39644342.391 6 206438527.45606     -1236.804 6        39.500    39644346.623 6 159631395.30406      -956.441 6        41.500    39644344.701 6 167748234.23906     -1005.190 6        38.000
C19  25859026.207 6 135890129.65506      3330.075 6        38.000    25859028.214 6 101476402.85706      2486.847 6        41.000    25859024.534 6 134654744.72906      3299.765 6        40.500                                                                    25859024.506 6 109418016.78206      2681.381 6        41.500    25859026.387 6 104123611.32106      2551.717 6        41.000
C20  22332226.009 8 117356699.73308      1331.731 8        51.250    22332224.117 8  87636547.37808       994.465 8        53.250    22332223.666 8 116289822.80708      1319.616 8        53.000                                                                    22332222.117 8  94495040.29008      1072.321 8        52.750    22332223.104 8  89922709.01708      1020.462 8        53.000
C23  23067010.066 8 121218009.54408       887.536 8        49.250    23067004.933 8  90519942.69208       662.745 8        52.000    23067007.540 8 120116013.74308       879.451 8        50.750                                                                    23067003.424 8  97604090.06408       714.608 8        52.250    23067003.589 8  92881315.40808       680.068 8        51.750
C25  24152295.036 7 126921193.33507     -2229.237 7        44.250    24152295.256 7  94778822.95807     -1664.748 7        46.250    24152292.810 7 125767342.18007     -2209.013 7        46.250                                                                    24152295.437 7 102196301.17907     -1795.028 7        47.000    24152294.091 7  97251309.76407     -1708.095 7        46.500
C29  26258039.126 5 137986973.51505     -3185.318 5        30.750    26258041.143 5 103042257.31105     -2379.083 5        30.250    26258035.617 5 136732531.53505     -3156.471 5        33.000                                                                    26258037.372 4 111106420.80604     -2564.906 4        27.250
C32  22924214.680 8 120467661.62208     -2171.971 8        49.750    22924216.800 8  89959698.80008     -1621.862 8        52.000    22924211.783 8 119372506.60508     -2152.125 8        51.250                                                                    22924215.801 8  97000005.58508     -1748.792 8        52.250    22924215.415 8  92306463.17808     -1664.203 8        51.750
C35  24566590.728 7 129098369.49507      -774.981 7        43.000    24566591.443 7  96404684.80707      -578.732 7        43.250    24566587.786 7 127924754.16207      -767.939 7        45.000                                                                    24566591.276 7 103949367.89107      -624.045 7        46.000    24566590.641 7  98919565.46407      -593.927 7        44.500
C37  25260350.702 6 132744058.72006      3365.887 6        41.750    25260354.731 7  99127094.30007      2513.363 7        44.250    25260347.138 7 131537297.38907      3335.185 7        43.000                                                                    25260355.105 7 106884864.59707      2710.177 7        44.750    25260354.121 7 101713014.09407      2578.996 7        44.250
C39  40351507.351 5 212048671.79405     -1441.554 5        33.250    40351506.273 6 158348050.76506     -1076.477 6        36.750    40351504.029 5 210120930.85405     -1428.168 5        33.250                                                                    40351505.596 6 170740492.98206     -1160.617 6        37.500    40351505.909 6 162478861.16406     -1104.358 6        37.750
C44  25406209.705 6 133510561.40706      1798.965 6        36.000    25406214.945 6  99699484.51706      1343.324 6        39.750    25406207.317 6 132296840.89306      1782.556 6        38.500                                                                    25406212.350 6 107502033.47906      1448.698 6        40.000    25406212.886 6 102300325.05406      1378.451 6        40.250
C48  23466275.628 7 123316164.96507      2528.963 7        45.500    23466291.869 8  92086837.77108      1888.521 8        49.500    23466272.355 7 122195094.03107      2505.965 7        47.500                                                                    23466273.851 8  99293551.31708      2036.363 8        50.000    23466291.656 8  94489095.85108      1937.804 8        49.250
C56                                                                                                                                  40105700.707 6 208840910.28506      1951.940 6        36.000                                                                    40105705.061 5 169700364.10905      1585.775 5        33.750
C57                                                                                                                                  23263790.091 7 121140689.56607       491.826 7        42.750                                                                    23263916.327 7  98437287.01607       399.702 7        43.750
E02  25408524.073 7 133522715.95307       589.573 7        45.250    25408524.311 8 108378835.99308       478.547 8        48.500    25408524.583 8  99708539.15308       440.241 8        48.500    25408522.743 8 102309614.92808       451.714 8        49.000    25408523.536 8 101009079.61408       445.969 8        51.750
E07  23537818.276 8 123692144.18008      -463.105 8        50.250    23537817.373 8 100399517.87108      -375.890 8        53.500    23537819.792 8  92367579.83408      -345.859 8        53.000    23537818.184 8  94777153.02208      -354.822 8        53.750    23537818.735 9  93572372.50209      -350.339 9        56.250
E08  26384078.073 7 138649357.10807     -2773.920 7        42.000    26384077.407 7 112540096.66007     -2251.546 7        45.500    26384078.655 7 103536919.10707     -2071.503 7        44.750    26384076.859 7 106237867.13907     -2125.477 7        45.000    26384077.500 8 104887398.69608     -2098.488 8        48.000
E10  27811121.317 6 146148445.77006      2713.362 6        37.250    27811124.049 6 118627016.37606      2202.642 6        39.000    27811125.193 6 109136852.38806      2026.169 6        39.500    27811123.492 6 111983894.33306      2079.205 6        40.000    27811123.945 7 110560382.93307      2052.709 7        42.750
E12  26456206.660 6 139028381.42906      1712.006 6        38.500    26456204.388 7 112847721.40007      1389.648 7        42.750    26456205.725 7 103819919.75207      1278.444 7        43.000    26456204.113 7 106528255.50807      1311.812 7        43.250    26456204.718 7 105174087.20407      1295.117 7        46.000
E18  22432050.546 6 117881238.72306      2269.622 6        38.750    22432052.152 6  95682833.07506      1842.153 6        41.500    22432054.441 6  88028225.11506      1694.781 6        39.750    22432052.037 6  90324602.15906      1739.067 6        40.750    22432053.076 7  89176422.71007      1716.929 7        43.250
E25  27031316.758 6 142050515.24206     -2093.038 6        39.500    27031317.599 6 115300745.64406     -1698.805 6        41.750    27031321.802 6 106076700.01406     -1563.024 6        41.500    27031319.434 7 108843892.81107     -1603.708 7        42.250    27031320.213 7 107460299.98607     -1583.372 7        45.000
E26  27143142.254 6 142638236.26806     -3266.070 6        37.250    27143141.946 6 115777812.65906     -2650.836 6        40.000    27143142.679 6 106515608.00806     -2438.948 6        40.000    27143141.206 6 109294260.06506     -2502.506 6        41.750    27143141.766 7 107904930.60807     -2470.719 7        44.000
E30  26912415.455 6 141425721.86206      2952.259 6        38.000    26912414.950 6 114793615.12606      2396.204 6        41.000    26912417.427 6 105610135.08506      2204.692 6        40.500    26912415.645 6 108365175.60706      2262.089 6        41.500    26912416.326 7 106987661.92107      2233.381 7        44.250
E33  25152174.345 7 132175639.75207     -1407.313 7        45.500    25152174.386 8 107285471.80308     -1142.276 8        48.500    25152174.605 8  98702651.74008     -1050.863 8        48.750    25152172.934 8 101277491.75608     -1078.286 8        49.250    25152173.571 8  99990075.82208     -1064.575 8        52.000
G04  22801858.384 7 119824659.25707     -3273.982 7        43.500    22801858.170 5        30.750    22801857.780 5  93369895.26105     -2551.156 5        30.750    22801857.968 7  93369887.26607     -2551.137 7        42.750    22801860.444 7  89479508.53207     -2444.808 7        46.750    22801858.342 7 119824672.26107     -3273.907 7        43.750
G05  23873213.217 6 125454620.13306      3583.469 6        41.000    23873213.012 5        34.250    23873211.723 5  97756876.10205      2792.314 5        34.250    23873212.094 6  97756846.09806      2792.277 6        38.000
G06  24202417.151 5 127184606.31905     -3688.794 5        34.250    24202417.084 4        26.500    24202420.545 4  99104924.46504     -2874.389 4        26.500    24202421.139 5  99104925.48405     -2874.387 5        35.250    24202421.147 6  94975562.72006     -2754.620 6        41.250
G07  22365688.905 7 117532533.34807      2498.581 7        47.250    22365688.481 7        46.250    22365687.031 7  91583805.81107      1946.944 7        46.250    22365687.233 7  91583793.81607      1946.962 7        44.000
G09  20510351.699 8 107782692.19208     -1124.500 8        51.500    20510351.342 9        55.750    20510351.739 9  83986546.07809      -876.233 9        55.750    20510352.047 8  83986558.08508      -876.258 8        48.250    20510350.745 9  80487139.75709      -839.716 9        54.750
G11  22638529.066 7 118966353.85907     -2069.659 7        46.250    22638528.941 5        34.750    22638527.831 5  92701083.23005     -1612.723 5        34.750    22638528.412 7  92701074.23307     -1612.673 7        45.000    22638531.126 8  88838557.44708     -1545.520 8        49.500    22638529.091 7 118966350.85707     -2069.607 7        45.500
G16  22346972.558 7 117434148.24107       549.538 7        45.000    22346971.749 5        32.250    22346970.711 5  91507127.81705       428.214 5        32.250
G20  21602762.038 7 113523359.79507      1767.457 7        47.750    21602760.983 6        38.000    21602759.476 6  88459781.17006      1377.240 6        38.000
G26  23395437.969 6 122943857.07706     -2154.136 6        40.500    23395437.527 6        36.000    23395440.522 6  95800422.15406     -1678.547 6        36.000    23395440.929 6  95800420.14606     -1678.563 6        39.750    23395438.598 7  91808724.94607     -1608.598 7        45.500
G29  23864812.608 6 125410495.39406     -1037.390 6        41.500    23864812.233 6        36.750    23864812.961 6  97722470.71606      -808.353 6        36.750    23864812.920 6  97722474.70006      -808.093 6        39.000
G30  24550452.182 6 129013497.75906      3698.263 6        39.250    24550451.489 5        30.000    24550452.401 5 100530010.13105      2881.766 5        30.000    24550453.761 5 100530017.14105      2881.740 5        34.750    24550452.740 7  96341265.54607      2761.745 7        43.000
I01  26414805.241 6 103657552.72906     -2875.567 6        36.250
I06  39677380.903 6 155702638.13406         4.085 6        36.750
I09  39332895.986 6 154350907.67806      -701.690 6        38.000
J02  42702667.485 6 224404045.43006         6.980 6        40.000    42702668.876 6 174860309.96406         5.492 6        39.750    42702669.188 7 167574464.64207         5.158 7        42.250    42702667.609 6 224404056.41506         6.965 6        40.250    42702664.409 6 224404033.26406         6.850 6        40.750
R01  19572598.897 8 104626852.56308     -1797.434 8        49.750    19572598.687 8 104626835.56808     -1797.440 8        49.750    19572604.766 7  81376477.85007     -1398.028 7        44.500    19572604.167 7  81376464.83707     -1397.997 7        45.000
R02  20046530.566 8 106972211.76108      2388.953 8        52.250    20046530.749 8 106972195.76608      2388.954 8        52.750    20046534.847 8  83200655.96308      1858.110 8        49.250    20046535.057 8  83200651.96808      1858.062 8        48.750
R03  24118469.206 5                      4294.794 5        31.000
R08  23672201.487 4                     -4260.992 4        28.500                                                                    23672204.895 6  98594020.44506     -3314.142 6        39.250    23672204.828 6  98594028.41906     -3314.017 6        39.250
R09  24138950.456 5 128900600.40105     -4343.018 5        32.250    24138950.818 5 128900612.41005     -4343.446 5        32.750    24138962.394 5 100256031.03005     -3378.068 5        35.000    24138963.012 5 100256019.02305     -3377.916 5        35.250    24138945.112 4  96785622.83404     -3261.652 4        25.750
R10  21061828.915 7 112271422.79107     -2438.957 7        45.500    21061828.459 7 112271401.79707     -2439.008 7        45.250
R11  20332798.917 8 108652357.07408      2139.284 8        52.000    20332799.186 8 108652364.08308      2139.254 8        52.500    20332802.558 8  84507409.14408      1663.900 8        50.500    20332802.397 8  84507454.14608      1663.857 8        50.250    20332789.859 8  81524848.48908      1605.134 8        49.750
R12  23904070.721 6 127691314.43406      4701.538 6        40.750    23904071.347 6 127691266.43506      4701.425 6        40.500    23904078.242 6  99315463.23406      3656.684 6        40.250    23904077.889 6  99315460.22706      3656.642 6        40.000    23904064.846 6  95843934.97906      3528.918 6        38.250
R17  22271316.530 7 119178415.13007     -3710.425 7        46.500    22271316.629 7 119178412.14007     -3710.394 7        45.500    22271322.327 7  92694357.56107     -2885.847 7        44.250    22271322.434 7  92694369.55807     -2885.828 7        44.750
R18  21004721.296 8 112124697.17308      -285.383 8        48.750    21004721.587 8 112124712.17708      -285.394 8        48.500    21004727.161 8  87208147.87708      -221.952 8        48.000    21004726.892 7  87208149.88007      -221.986 7        47.250
R19  22485714.514 5 120283418.26205      3102.491 5        34.750    22485714.241 5 120283412.26405      3102.397 5        33.500    22485720.277 6  93553848.43206      2412.941 6        40.000    22485720.626 6  93553850.42506      2412.984 6        39.750
S23  40209465.020 6 211302204.19306         5.164 6        38.250    40209432.723 5 157790449.36115         4.161 5        32.250
S36  40294815.993 6 211750813.76106          .315 6        36.750    40294774.883 5 158125351.82815          .437 5        32.500
> 2024 03 30 00 05  0.0000000  0 56
C05                                                                                                                                                                                                  40967502.033 5 164959279.39205       -46.482 5        32.000    40967504.810 4                       -48.668 4        29.000
C06                                                                                                                                  38653038.594 6 201276606.07806     -1150.080 6        40.000    38653036.893 7 155639868.31107      -889.362 7        44.750    38653037.716 7 163553726.47507      -934.514 7        43.250
C09                                                                                                                                  38278742.635 7 199327527.26407      -766.060 7        43.750    38278742.615 8 154132735.62008      -592.374 8        48.250    38278741.699 7 161969968.78907      -622.568 7        45.000
C12                                                                                                                                  26707042.224 4                      2851.660 4        26.500    26707047.919 6 107538209.06906      2204.732 6        39.500    26707046.175 5 113006252.42405      2316.824 5        34.500
C16                                                                                                                                  39651471.870 6 206475652.17806     -1238.083 6        39.250    39651476.084 6 159660102.49406      -957.269 6        41.750    39651473.912 6 167778401.11006     -1005.996 6        37.500
C19  25840026.108 6 135790286.11106      3326.075 6        37.750    25840028.634 6 101401844.47806      2483.782 6        41.000    25840024.918 6 134555808.84306      3296.054 6        40.000                                                                    25840024.997 6 109337623.34006      2678.194 6        41.750    25840026.906 6 104047107.93106      2548.490 6        41.000
C20  22324663.220 8 117316957.02508      1317.757 8        51.250    22324661.396 8  87606869.38408       984.025 8        53.000    22324660.739 8 116250441.39808      1305.795 8        53.000                                                                    22324659.328 8  94463039.67108      1061.015 8        52.250    22324660.231 8  89892256.81608      1009.733 8        52.750
C23  23061992.217 8 121191641.80608       870.324 8        49.000    23061987.303 8  90500252.51508       649.916 8        52.000    23061989.981 8 120089885.70708       862.435 8        50.750                                                                    23061985.727 8  97582858.90808       700.800 8        52.000    23061985.856 8  92861111.57508       666.871 8        51.750
C25  24165058.679 7 126988264.70407     -2242.208 7        44.750    24165058.317 7  94828908.64907     -1674.329 7        45.500    24165056.028 7 125833803.78807     -2221.792 7        46.000                                                                    24165058.758 7 102250306.63907     -1805.400 7        47.000    24165057.277 7  97302702.04507     -1717.999 7        46.500
C29  26276239.578 5 138082615.82505     -3190.535 5        31.250    26276240.665 5 103113678.31805     -2382.558 5        30.000    26276236.654 5 136827304.35905     -3161.526 5        34.750
C32  22936647.570 8 120532996.91708     -2183.747 8        49.750    22936649.574 8  90008488.13108     -1630.715 8        51.750    22936644.561 8 119437247.94908     -2163.873 8        51.250                                                                    22936648.709 8  97052613.21508     -1758.367 8        51.750    22936648.248 8  92356525.27408     -1673.283 8        51.500
C35  24571065.539 7 129121884.35607      -792.646 7        43.250    24571065.870 7  96422244.60707      -591.934 7        42.750    24571062.619 7 127948055.26107      -785.470 7        45.250                                                                    24571065.828 7 103968301.93607      -638.258 7        45.750    24571065.429 7  98937583.33707      -607.413 7        44.500
C37  25241153.021 6 132643176.38806      3359.696 6        41.750    25241157.707 7  99051760.12507      2508.807 7        44.250    25241149.850 7 131437332.17307      3329.121 7        42.500                                                                    25241157.651 7 106803634.70907      2705.184 7        44.750    25241156.542 7 101635714.67307      2574.311 7        44.000
C39  40359738.079 5 212091922.42605     -1441.860 5        33.000    40359737.574 6 158380348.26106     -1076.822 6        37.500    40359734.394 5 210163788.33505     -1428.765 5        34.000                                                                    40359735.855 6 170775318.13006     -1160.967 6        37.000    40359735.152 6 162512001.20606     -1104.663 6        37.000
C44  25395983.064 6 133456815.47006      1783.949 6        37.000    25395987.110 6  99659349.60406      1332.342 6        40.250    25395980.492 6 132243583.53506      1767.829 6        38.500                                                                    25395984.926 6 107458757.58206      1436.517 6        40.750    25395985.292 6 102259143.15206      1367.073 6        41.000
C48  23451865.708 7 123240440.55807      2519.303 7        45.500    23451881.998 8  92030290.34708      1881.305 8        48.750    23451862.234 7 122120058.03307      2496.438 7        47.250                                                                    23451864.012 8  99232578.44108      2028.482 8        49.500    23451881.866 8  94431073.28108      1930.308 8        49.000
C56                                                                                                                                  40094459.491 6 208782374.11206      1950.492 6        36.250                                                                    40094463.549 5 169652798.68805      1584.896 5        33.750
C57                                                                                                                                  23261008.335 7 121126205.69407       473.730 7        43.000                                                                    23261134.933 7  98425517.72707       384.929 7        43.750
E02  25405202.490 7 133505260.65207       574.237 7        44.500    25405202.459 7 108364667.66807       466.036 7        47.750    25405202.937 7  99695504.25807       428.779 7        47.500    25405201.311 8 102296240.00508       439.882 8        48.250    25405201.947 8 100995874.70608       434.328 8        51.000
E07  23540495.280 8 123706211.60408      -474.731 8        50.250    23540494.176 9 100410936.23909      -385.288 9        54.000    23540496.822 8  92378084.73608      -354.505 8        53.750    23540495.107 9  94787931.96909      -363.754 9        54.250    23540495.672 9  93583014.42709      -359.136 9        57.000
E08  26399927.212 6 138732645.31606     -2778.527 6        41.750    26399926.626 7 112607700.69707     -2255.381 7        45.500    26399927.489 7 103599114.83107     -2074.971 7        44.250    26399926.226 7 106301685.36007     -2129.113 7        45.750    26399926.670 8 104950405.66908     -2102.030 8        48.000
E10  27795654.529 6 146067164.51806      2705.131 6        37.750    27795656.948 6 118561041.49906      2195.727 6        39.750    27795656.849 6 109076155.58206      2020.247 6        38.500    27795655.528 6 111921614.10806      2072.750 6        39.500    27795656.330 7 110498894.41907      2046.497 7        42.000
E12  26446471.191 6 138977218.74206      1698.854 6        38.750    26446468.204 7 112806193.29807      1378.875 7        42.750    26446469.684 7 103781713.89907      1268.590 7        43.250    26446468.313 7 106489052.97707      1301.631 7        43.500    26446468.730 7 105135383.01007      1285.123 7        46.250
E18  22419188.805 6 117813648.03106      2236.473 6        38.000    22419189.337 6  95627970.51706      1815.157 6        40.250    22419192.727 6  87977751.54906      1670.055 6        40.500    22419190.278 6  90272811.89906      1713.644 6        41.750    22419191.089 7  89125290.79807      1691.848 7        44.250
E25  27043297.992 6 142113475.01106     -2104.176 6        39.000    27043298.560 6 115351849.32506     -1708.063 6        40.750    27043302.602 6 106123715.35006     -1571.298 6        41.000    27043300.141 6 108892134.65406     -1612.374 6        41.250    27043301.067 7 107507928.57707     -1591.826 7        44.250
E26  27161799.129 6 142736281.35706     -3270.210 6        36.250    27161799.608 6 115857394.69706     -2654.502 6        39.500    27161800.256 6 106588823.43206     -2442.100 6        40.250    27161798.697 7 109369385.47707     -2505.698 7        42.000    27161799.244 7 107979101.02807     -2473.904 7        44.250
E30  26895580.105 6 141337252.19606      2945.767 6        37.750    26895579.676 6 114721805.35606      2391.032 6        41.500    26895582.340 6 105544070.13406      2199.771 6        41.250    26895580.670 7 108297387.21007      2256.988 7        42.000    26895581.011 7 106920735.24607      2228.382 7        44.750
E33  25160249.733 7 132218075.28107     -1421.741 7        45.750    25160249.792 8 107319916.21608     -1153.974 8        49.500    25160249.979 8  98734340.59708     -1061.730 8        49.500    25160248.287 8 101310007.27608     -1089.404 8        50.000    25160248.766 8 100022178.01108     -1075.572 8        52.750
G04  22820572.196 7 119923000.91007     -3282.172 7        43.250    22820571.977 5        31.000    22820571.950 5  93446525.09205     -2557.534 5        31.000    22820571.878 7  93446517.10007     -2557.554 7        42.750    22820574.449 7  89552945.46907     -2450.979 7        46.750    22820572.136 7 119923013.91807     -3282.201 7        43.250
G05  23852778.474 6 125347235.94706      3575.448 6        41.000    23852778.260 5        35.250    23852777.351 5  97673200.18005      2786.066 5        35.250    23852778.196 6  97673170.17606      2785.921 6        38.750
G06  24223494.028 6 127295355.45506     -3694.567 6        36.500    24223493.952 4        28.000    24223495.253 4  99191222.45904     -2878.883 4        28.000    24223496.451 6  99191223.44206     -2878.617 6        36.250    24223495.717 6  95058264.93406     -2759.035 6        41.000
G07  22351458.208 7 117457750.08007      2487.006 7        47.500    22351457.784 7        46.500    22351456.401 7  91525533.20307      1937.925 7        46.500    22351456.714 7  91525521.20907      1937.936 7        44.250
G09  20516821.426 8 107816690.82308     -1142.058 8        51.500    20516821.069 9        56.000    20516821.273 9  84013038.52809      -889.917 9        56.000    20516821.765 8  84013050.53308      -889.927 8        48.250    20516820.441 9  80512528.35709      -852.855 9        55.000
G11  22650393.546 7 119028703.85707     -2087.074 7        45.750    22650393.408 5        35.250    22650393.076 5  92749667.67505     -1626.291 5        35.250    22650393.527 7  92749658.67607     -1626.231 7        45.500    22650395.937 8  88885117.54008     -1558.458 8        49.500    22650393.728 7 119028700.85507     -2086.958 7        45.000
G16  22343900.486 7 117418007.33407       526.398 7        44.500    22343899.682 5        32.250    22343898.943 5  91494550.50305       410.177 5        32.250
G20  21592721.538 8 113470595.94008      1750.153 8        48.500    21592720.492 6        38.500    21592718.810 6  88418666.59506      1363.749 6        38.500
G26  23407784.481 6 123008738.21806     -2171.201 6        40.750    23407784.043 5        35.750    23407787.307 5  95850978.80405     -1691.837 5        35.750    23407787.276 6  95850976.79606     -1691.813 6        39.250    23407785.119 7  91857175.04407     -1621.451 7        45.000
G29  23870792.084 6 125441917.13506     -1057.539 6        41.250    23870791.700 6        36.000    23870791.842 6  97746955.14006      -824.054 6        36.000    23870791.869 6  97746959.15406      -824.156 6        38.000
G30  24529350.202 6 128902604.03706      3694.665 6        39.250    24529349.523 5        30.500    24529350.416 5 100443599.51505      2878.953 5        30.500    24529351.114 5 100443606.52905      2878.861 5        35.000    24529349.910 7  96258455.40007      2758.955 7        42.000
I01  26436789.678 6 103743827.51406     -2875.996 6        36.000
I06  39677350.688 6 155702520.22106         3.731 6        37.000
I09  39338263.122 6 154371967.32506      -702.336 6        38.500
J02  42702630.760 6 224403851.52606         5.918 6        40.250    42702632.191 6 174860158.88406         4.515 6        39.750    42702632.234 7 167574319.84407         4.414 7        42.500    42702630.718 6 224403862.52906         5.835 6        40.500    42702627.295 6 224403839.36306         5.871 6        40.500
R01  19582743.399 8 104681080.53008     -1817.728 8        50.000    19582743.207 8 104681063.53808     -1817.681 8        49.750    19582749.004 7  81418655.15107     -1413.804 7        44.250    19582748.517 7  81418642.14107     -1413.825 7        44.750
R02  20033148.690 8 106900804.58008      2371.601 8        52.250    20033148.900 8 106900788.58408      2371.612 8        52.750    20033153.468 8  83145117.09808      1844.615 8        50.000    20033153.338 8  83145113.09708      1844.633 8        49.500
R03  24094399.137 5                      4293.365 5        32.250    24094400.608 5                      4293.612 5        30.500
R08  23696084.199 4                     -4264.826 4        26.500                                                                    23696087.567 6                     -3316.799 6        38.250    23696087.321 6                     -3317.047 6        39.000
R09  24163368.878 4 129030986.59104     -4349.703 4        28.500    24163367.040 4 129030998.64204     -4349.715 4        28.000    24163380.709 5 100357442.42505     -3382.465 5        33.500    24163383.370 5 100357430.41505     -3382.626 5        35.000    24163364.487 4  96883523.76504     -3264.564 4        24.500
R10  21075620.315 7 112344935.37307     -2461.855 7        46.250    21075619.931 7 112344914.37407     -2461.849 7        45.750
R11  20320858.956 8 108588552.38608      2114.324 8        52.250    20320859.046 8 108588559.39408      2114.337 8        52.500    20320862.052 8  84457783.30908      1644.406 8        50.250    20320861.900 8  84457828.30408      1644.422 8        49.750    20320849.697 8  81476974.08208      1586.470 8        50.000
R12  23877675.167 6 127550310.39406      4698.771 6        40.750    23877675.323 6 127550262.38206      4698.860 6        40.750    23877681.937 6  99205793.52706      3654.755 6        39.750    23877681.123 6  99205790.52206      3654.583 6        39.250    23877668.747 6  95738098.66806      3526.783 6        38.250
R17  22292162.036 7 119289965.77707     -3726.325 7        46.000    22292162.291 7 119289962.79307     -3726.377 7        44.750    22292168.352 7  92781119.13607     -2898.286 7        43.750    22292168.276 7  92781131.13207     -2898.213 7        44.000
R18  21006407.352 8 112133695.45708      -314.530 8        49.000    21006407.473 8 112133710.45808      -314.559 8        48.500    21006412.797 7  87215146.59107      -244.647 7        47.750    21006412.502 7  87215148.59307      -244.717 7        47.750
R19  22468372.130 5 120190653.74205      3081.906 5        35.250    22468372.810 5 120190647.74305      3081.908 5        34.000    22468379.365 6  93481698.38806      2396.980 6        41.500    22468379.977 6  93481700.38306      2397.024 6        41.500
S23  40209432.024 6 211302045.90806         5.285 6        38.750
S36  40294810.149 6 211750804.19106          .321 6        37.000    40294771.229 5 158125340.18605          .610 5        33.000
> 2024 03 30 00 05 30.0000000  0 56
C05                                                                                                                                                                                                  40967847.881 5 164960672.94805       -46.425 5        32.000
C06                                                                                                                                  38659670.364 6 201311137.31306     -1151.924 6        39.750    38659668.233 7 155666570.05807      -890.734 7        44.750    38659669.092 7 163581785.92107      -936.021 7        43.250
C09                                                                                                                                  38283163.170 7 199350544.60707      -768.362 7        43.500    38283162.402 8 154150534.11808      -594.113 8        48.000    38283161.594 7 161988672.28707      -624.264 7        44.750
C12                                                                                                                                  26690640.058 4                      2842.311 4        29.750    26690645.564 5 107472174.33005      2197.660 5        34.250    26690642.229 4 112936859.97204      2309.752 4        29.250
C16                                                                                                                                  39658608.504 6 206512811.63606     -1239.331 6        40.000    39658612.293 7 159688836.54007      -958.195 7        42.250    39658609.656 6 167808596.23006     -1006.990 6        37.250
C19  25821049.333 6 135690560.57806      3322.154 6        38.500    25821051.515 6 101327374.16706      2480.869 6        41.250    25821046.959 6 134456989.91106      3291.913 6        39.500                                                                    25821047.802 7 109257324.90207      2675.077 7        42.500    25821049.536 6 103970694.90406      2545.513 6        41.000
C20  22317180.148 8 117277633.98508      1303.724 8        51.250    22317178.440 8  87577504.78308       973.530 8        53.000    22317178.051 8 116211475.84108      1291.895 8        53.250                                                                    22317176.399 8  94431376.96708      1049.747 8        52.500    22317177.400 8  89862126.18108       998.954 8        53.250
C23  23057073.016 8 121165789.72608       853.149 8        49.500    23057067.717 8  90480947.40408       637.128 8        52.000    23057070.423 8 120064268.64808       845.423 8        51.000                                                                    23057066.245 8  97562042.96008       686.963 8        52.250    23057066.284 8  92841302.85208       653.724 8        52.000
C25  24177895.607 7 127055725.20907     -2255.178 7        44.000    24177896.050 7  94879284.93107     -1684.031 7        45.500    24177893.354 7 125900651.02007     -2234.684 7        45.750                                                                    24177896.067 7 102304625.43107     -1815.854 7        47.250    24177894.926 7  97354392.48807     -1727.935 7        46.750
C29  26294470.817 5 138178422.34105     -3196.713 5        32.000    26294472.132 5 103185222.09005     -2387.222 5        30.250    26294470.250 6 136922239.87006     -3167.188 6        36.500
C32  22949148.233 8 120598688.40108     -2195.687 8        49.750    22949150.321 8  90057543.44708     -1639.573 8        52.000    22949145.483 8 119502342.22708     -2175.660 8        51.500                                                                    22949149.282 8  97105507.64108     -1767.899 8        51.750    22949148.883 8  92406860.29208     -1682.343 8        51.750
C35  24575640.755 7 129145926.93907      -810.116 7        43.250    24575641.095 7  96440198.37207      -604.986 7        43.000    24575637.764 7 127971879.26507      -802.731 7        45.250                                                                    24575641.018 7 103987660.81007      -652.308 7        46.000    24575640.194 7  98956005.48507      -620.828 7        44.250
C37  25221991.953 7 132542481.09807      3353.387 7        42.500    25221996.048 7  98976565.61707      2504.187 7        44.250    25221987.579 7 131337552.30907      3322.954 7        42.500                                                                    25221996.029 7 106722555.41307      2700.156 7        45.250    25221994.606 7 101558558.56507      2569.542 7        44.250
C39  40367972.290 5 212135190.38905     -1442.736 5        33.750    40367971.968 6 158412658.69006     -1077.249 6        37.750    40367968.588 5 210206662.91205     -1429.359 5        33.750                                                                    40367969.324 6 170810157.24306     -1161.522 6        36.250    40367967.588 6 162545154.52206     -1105.208 6        36.000
C44  25385839.523 5 133403519.26505      1768.934 5        35.000    25385845.148 6  99619550.73806      1321.021 6        38.750    25385837.712 6 132190771.87706      1752.983 6        37.500                                                                    25385843.076 6 107415843.93106      1424.479 6        39.500    25385842.986 6 102218306.02906      1355.464 6        39.250
C48  23437511.424 7 123165008.05107      2509.556 7        45.750    23437527.415 8  91973961.01908      1874.014 8        48.750    23437508.097 7 122045311.27207      2486.679 7        47.250                                                                    23437509.316 8  99171840.69408      2020.605 8        49.750    23437527.394 8  94373274.48208      1922.917 8        49.500
C56                                                                                                                                  40083227.495 6 208723884.54206      1948.981 6        37.250                                                                    40083231.406 5 169605271.13105      1583.659 5        33.500
C57                                                                                                                                  23258331.518 7 121112264.95907       455.738 7        43.250                                                                    23258457.625 7  98414189.75607       370.258 7        43.500
E02  25401969.211 7 133488268.16807       558.705 7        44.750    25401969.529 8 108350874.94308       453.462 8        48.250    25401969.882 7  99682814.90107       417.163 7        47.750    25401968.069 8 102283219.63008       428.072 8        48.500    25401968.508 8 100983019.84008       422.616 8        51.250
E07  23543238.218 8 123720625.87608      -486.195 8        49.750    23543237.167 8 100422636.13208      -394.662 8        53.250    23543239.854 8  92388848.64408      -363.064 8        52.500    23543238.014 8  94798976.67208      -372.571 8        53.000    23543238.592 9  93593918.73209      -367.816 9        55.750
E08  26415803.783 7 138816073.80407     -2783.324 7        42.250    26415802.796 7 112675418.63007     -2259.166 7        45.250    26415803.726 7 103661415.32007     -2078.373 7        44.250    26415801.707 7 106365611.07007     -2132.662 7        45.250    26415802.486 7 105013518.76907     -2105.525 7        47.750
E10  27780234.621 6 145986137.21006      2696.537 6        36.750    27780237.537 6 118495272.71706      2188.799 6        39.750    27780237.917 6 109015648.37706      2013.628 6        38.250    27780236.117 6 111859528.40806      2066.278 6        39.750    27780237.115 7 110437597.96507      2039.959 7        42.000
E12  26436810.849 6 138926455.48906      1685.356 6        38.750    26436807.706 7 112764989.45307      1368.080 7        42.500    26436809.624 7 103743806.41207      1258.629 7        43.000    26436808.293 7 106450156.58607      1291.470 7        43.250    26436808.693 7 105096981.07307      1275.046 7        46.250
E18  22406517.295 6 117747058.15206      2203.104 6        38.750    22406517.667 6  95573920.34806      1788.201 6        40.250    22406519.741 6  87928025.41706      1644.852 6        40.250    22406518.679 7  90221788.55907      1687.995 7        42.500    22406519.521 7  89074916.06207      1666.439 7        44.500
E25  27055343.439 6 142176771.60206     -2115.518 6        39.250    27055343.927 6 115403226.38306     -1717.156 6        41.750    27055347.199 6 106170982.21606     -1579.758 6        41.500    27055345.306 7 108940634.56807     -1620.872 7        42.250    27055346.152 7 107555811.96607     -1600.317 7        45.000
E26  27180480.284 5 142834454.15305     -3274.615 5        35.500    27180481.618 6 115937080.35206     -2657.810 6        39.000    27180481.921 6 106662134.21106     -2445.167 6        40.000    27180480.278 6 109444608.73006     -2509.058 6        41.500    27180480.919 7 108053368.04407     -2477.122 7        43.750
E30  26878782.616 6 141248980.18706      2939.212 6        37.500    26878782.137 6 114650156.02006      2385.612 6        41.500    26878784.534 6 105478152.74906      2194.736 6        41.500    26878782.899 7 108229750.24807      2251.956 7        42.250    26878783.468 7 106853958.07307      2223.330 7        44.750
E33  25168407.820 7 132260946.18307     -1436.239 7        45.500    25168408.120 8 107354713.97108     -1165.812 8        49.250    25168407.918 8  98766354.50308     -1072.544 8        48.750    25168405.989 8 101342856.34808     -1100.547 8        49.000    25168406.956 8 100054609.49908     -1086.547 8        52.000
G04  22839333.139 7 120021589.33407     -3290.388 7        43.250    22839332.916 5        30.250    22839332.477 5  93523347.23805     -2563.940 5        30.250    22839332.191 7  93523339.23807     -2563.892 7        42.250    22839335.579 7  89626566.66807     -2457.063 7        47.250    22839332.860 7 120021602.33907     -3290.450 7        43.500
G05  23832390.317 6 125240095.67806      3567.171 6        40.500    23832390.098 6        36.000    23832389.511 6  97589714.31806      2779.608 6        36.000    23832390.106 6  97589684.33506      2779.707 6        39.250
G06  24244601.338 6 127406276.40206     -3700.329 6        37.500    24244601.258 4        29.500    24244603.001 4  99277654.26604     -2883.370 4        29.500    24244603.914 6  99277655.26206     -2882.927 6        36.250    24244602.687 6  95141095.37206     -2762.982 6        40.500
G07  22337293.771 7 117383315.19407      2475.297 7        47.500    22337293.347 7        46.250    22337291.665 7  91467532.02007      1928.801 7        46.250    22337291.937 7  91467520.03407      1928.798 7        43.250
G09  20523390.892 8 107851213.97408     -1159.431 8        51.500    20523390.535 9        56.250    20523390.852 9  84039939.68809      -903.453 9        56.250    20523391.415 8  84039951.69308      -903.480 8        48.500    20523390.073 9  80538308.63309      -865.840 9        55.000
G11  22662357.542 7 119091574.58307     -2104.323 7        45.250    22662357.408 5        34.250    22662356.839 5  92798657.77805     -1639.729 5        34.250    22662356.768 7  92798648.76807     -1639.699 7        44.500    22662359.539 8  88932066.37008     -1571.389 8        48.500    22662357.478 7 119091571.58007     -2104.219 7        44.750
G16  22340961.597 7 117402561.11607       503.267 7        44.750    22340960.779 5        32.500    22340959.741 5  91482514.50605       392.157 5        32.500
G20  21582779.350 8 113418348.65608      1732.997 8        48.750    21582778.300 6        38.500    21582776.801 6  88377954.18706      1350.402 6        38.500
G26  23420228.461 6 123074129.57206     -2188.265 6        40.750    23420228.032 6        36.250    23420230.580 6  95901932.96406     -1705.139 6        36.250    23420230.500 6  95901930.95406     -1705.022 6        39.500    23420228.389 7  91906006.09007     -1634.028 7        44.750
G29  23876886.789 6 125473944.12006     -1077.629 6        41.750    23876886.409 6        36.000    23876886.051 6  97771911.23106      -839.713 6        36.000    23876886.851 6  97771915.23106      -839.758 6        38.250
G30  24508268.120 6 128791824.16106      3690.686 6        38.000    24508267.459 5        30.250    24508269.059 5 100357277.61205      2875.855 5        30.250    24508269.730 5 100357284.59705      2875.932 5        34.500    24508268.938 7  96175730.26207      2755.995 7        42.000
I01  26458779.414 5 103830121.43505     -2876.612 5        35.250
I06  39677322.754 6 155702409.05806         3.622 6        37.000
I09  39343635.723 6 154393050.01506      -703.246 6        38.500
J02  42702599.669 6 224403687.73906         5.036 6        40.250    42702601.166 6 174860031.25406         3.840 6        39.750    42702601.063 7 167574197.54307         3.733 7        42.500    42702599.641 6 224403698.74606         4.904 6        40.750    42702596.176 6 224403675.56906         4.954 6        41.000
R01  19593001.521 8 104735916.21908     -1837.968 8        50.000    19593001.422 8 104735899.22708     -1837.970 8        50.000    19593007.255 7  81461305.12507     -1429.550 7        44.750    19593006.714 7  81461292.12007     -1429.510 7        45.000
R02  20019864.707 8 106829917.87208      2354.223 8        52.750    20019865.006 8 106829901.87508      2354.190 8        53.250    20019869.100 8  83089983.03108      1831.092 8        49.750    20019868.992 8  83089979.03208      1831.053 8        49.250
R03  24070341.870 5                      4292.005 5        31.000    24070343.565 5                      4292.008 5        31.250
R08                                                                                                                                  23719986.225 5  98793033.57605     -3319.455 5        35.250    23719986.131 5  98793041.58505     -3319.511 5        34.750
R09  24187814.652 3                     -4354.661 3        22.000                                                                    24187832.503 5 100458997.56905     -3387.574 5        34.750    24187832.771 5 100458985.59505     -3387.534 5        35.250    24187816.227 4  96981563.65804     -3269.773 4        28.000
R10  21089539.408 7 112419132.78707     -2484.629 7        45.750    21089538.768 7 112419111.79707     -2484.632 7        45.250
R11  20309058.519 8 108525495.22308      2089.425 8        52.250    20309058.800 8 108525502.23008      2089.447 8        52.500    20309061.775 8  84408738.85708      1625.118 8        50.250    20309061.753 8  84408783.85408      1625.092 8        49.750    20309049.447 8  81429660.57308      1567.803 8        50.000
R12  23851294.400 6 127409387.43806      4695.995 6        41.750    23851294.427 6 127409339.43006      4696.082 6        40.750    23851300.589 6  99096186.85006      3652.452 6        39.750    23851300.683 6  99096183.85606      3652.456 6        39.500    23851287.434 6  95632323.20906      3524.888 6        38.250
R17  22313096.787 7 119401992.80807     -3742.138 7        45.500    22313097.274 7 119401989.81807     -3742.105 7        44.500    22313103.026 7  92868251.14007     -2910.554 7        42.250    22313103.286 7  92868263.14007     -2910.533 7        42.500
R18  21008256.418 8 112143568.11308      -343.756 8        48.750    21008256.726 8 112143583.10908      -343.634 8        48.500    21008262.324 8  87222825.30508      -267.237 8        48.000    21008262.323 7  87222827.31607      -267.333 7        47.500
R19  22451145.303 5 120098505.01905      3061.305 5        35.750    22451146.327 5 120098499.01605      3061.253 5        34.250    22451152.765 6  93410027.31406      2381.027 6        40.750    22451152.752 6  93410029.31306      2380.979 6        40.500
S23  40209404.984 6 211301887.52806         5.203 6        38.250
S36  40294805.641 6 211750789.82106          .127 6        36.750    40294768.144 5 158125324.28415          .468 5        32.750
> 2024 03 30 00 06  0.0000000  0 56
C05                                                                                                                                                                                                  40968194.244 5 164962066.86905       -46.525 5        32.250
C06                                                                                                                                  38666311.546 6 201345720.30906     -1153.642 6        40.250    38666309.603 7 155693311.80107      -891.954 7        44.250    38666310.346 7 163609887.41207      -937.395 7        42.750
C09                                                                                                                                  38287596.238 7 199373628.86907      -770.635 7        43.500    38287595.270 7 154168384.33507      -595.757 7        47.500    38287594.541 7 162007430.13707      -626.135 7        44.750
C12                                                                                                                                  26674298.070 5                      2832.844 5        31.500    26674294.795 4 107406353.14404      2190.712 4        28.500    26674299.433 5 112867691.89505      2301.820 5        32.000
C16                                                                                                                                  39665750.548 6 206550005.59006     -1240.445 6        40.250    39665754.847 7 159717597.22207      -959.129 7        42.000    39665752.071 6 167838819.33106     -1007.971 6        36.500
C19  25802095.266 6 135590954.60306      3318.243 6        38.500    25802097.363 6 101252993.11706      2477.848 6        41.750    25802092.761 6 134358289.46106      3287.945 6        40.000                                                                    25802093.770 7 109177122.71107      2671.798 7        43.000    25802095.066 6 103894373.46606      2542.619 6        41.250
C20  22309777.471 8 117238731.65108      1289.706 8        51.250    22309775.584 8  87548454.34808       963.122 8        53.000    22309775.172 8 116172927.16408      1277.994 8        53.250                                                                    22309773.650 8  94400053.01608      1038.446 8        52.500    22309774.477 8  89832317.91008       988.227 8        53.000
C23  23052251.521 8 121140453.98808       835.830 8        49.250    23052246.521 8  90462027.86808       624.236 8        52.250    23052249.410 8 120039163.23208       828.376 8        51.250                                                                    23052244.887 8  97541642.75908       673.054 8        52.250    23052244.909 8  92821889.75908       640.495 8        52.000
C25  24190806.783 7 127123573.04607     -2268.037 7        44.000    24190806.524 7  94929950.48507     -1693.663 7        45.250    24190804.391 7 125967882.06407     -2247.415 7        45.750                                                                    24190807.099 7 102359256.12207     -1826.186 7        47.000    24190805.497 7  97406379.76307     -1737.893 7        46.250
C29  26312733.456 5 138274390.44005     -3201.868 5        31.000    26312733.456 4 103256886.46804     -2390.342 4        29.500    26312730.232 5 137017335.55105     -3172.375 5        33.750                                                                    26312735.087 5 111337847.31305     -2577.985 5        30.000
C32  22961716.635 8 120664734.84008     -2207.437 8        50.000    22961718.782 8  90106863.83908     -1648.443 8        52.250    22961713.470 8 119567788.25208     -2187.367 8        51.250                                                                    22961717.595 8  97158687.89208     -1777.395 8        52.000    22961717.201 8  92457467.30608     -1691.450 8        51.750
C35  24580315.600 7 129170496.63607      -827.788 7        42.500    24580317.165 7  96458545.80007      -618.063 7        43.750    24580313.928 7 127996225.60307      -820.232 7        45.750                                                                    24580316.953 7 104007444.13607      -666.465 7        46.250    24580316.009 7  98974831.54607      -634.300 7        44.500
C37  25202865.884 7 132441974.93707      3347.102 7        42.000    25202869.980 7  98901512.33607      2499.487 7        44.250    25202862.449 7 131237959.83807      3316.569 7        43.000                                                                    25202870.197 7 106641628.38707      2694.941 7        44.750    25202869.052 7 101481547.38207      2564.570 7        44.500
C39  40376209.265 5 212178475.46105     -1443.124 5        34.250    40376209.269 6 158444981.96406     -1077.698 6        37.750    40376205.263 5 210249554.53705     -1429.936 5        34.750                                                                    40376206.647 6 170845010.17406     -1161.999 6        36.500    40376204.107 6 162578320.98906     -1105.455 6        36.000
C44  25375784.042 6 133350673.78606      1753.962 6        37.750    25375789.095 6  99580088.23206      1309.769 6        41.250    25375781.440 6 132138406.81606      1737.869 6        38.750                                                                    25375786.151 6 107373293.05106      1412.211 6        40.750    25375787.814 6 102177814.04306      1343.993 6        41.750
C48  23423212.763 7 123089868.77507      2499.762 7        46.000    23423228.623 8  91917850.65508      1866.709 8        49.500    23423209.306 7 121970855.08707      2477.028 7        47.750                                                                    23423210.659 8  99111339.03208      2012.774 8        50.000    23423228.482 8  94315700.36008      1915.314 8        49.750
C56                                                                                                                                  40072004.277 6 208665442.04806      1947.350 6        37.250                                                                    40072007.977 5 169557781.79205      1582.444 5        33.000
C57                                                                                                                                  23255758.739 7 121098868.06607       437.499 7        43.000                                                                    23255884.926 7  98403303.70307       355.585 7        43.500
E02  25398823.952 7 133471739.13207       543.287 7        45.000    25398824.051 7 108337458.42607       440.970 7        47.750    25398824.485 7  99670471.68807       405.654 7        47.250    25398822.716 8 102270554.43108       416.241 8        48.000    25398823.281 8 100970515.63308       410.946 8        50.750
E07  23546047.161 8 123735386.74508      -497.793 8        50.000    23546046.120 8 100434617.34608      -404.048 8        53.000    23546048.686 8  92399871.36208      -371.733 8        52.750    23546046.877 8  94810286.93708      -381.413 8        53.000    23546047.518 9  93605085.22209      -376.566 9        56.000
E08  26431705.866 7 138899641.60007     -2787.892 7        42.000    26431705.098 7 112743249.62807     -2262.928 7        45.500    26431705.996 7 103723819.83107     -2081.772 7        44.250    26431704.294 7 106429643.53607     -2136.250 7        45.250    26431704.984 7 105076737.25707     -2109.021 7        47.750
E10  27764863.794 6 145905365.85106      2688.003 6        36.500    27764866.460 6 118429711.68406      2181.855 6        39.500    27764868.248 6 108955332.25206      2007.281 6        38.500    27764866.354 6 111797638.82706      2059.692 6        40.750    27764866.838 7 110376495.11207      2033.510 7        42.750
E12  26427227.241 6 138876092.80306      1672.061 6        38.750    26427224.133 7 112724110.68507      1357.203 7        42.500    26427225.716 7 103706197.99107      1248.670 7        43.000    26427224.506 7 106411567.06007      1281.242 7        43.250    26427224.901 7 105058882.10007      1264.955 7        46.250
E18  22394036.469 6 117681473.02206      2169.417 6        38.250    22394037.051 6  95520685.68206      1760.851 6        40.250    22394040.292 6  87879049.52706      1619.986 6        41.000    22394038.009 7  90171535.04107      1662.246 7        42.500    22394038.914 7  89025301.35807      1641.123 7        45.000
E25  27067451.653 6 142240403.28306     -2126.538 6        38.500    27067452.678 6 115454875.36206     -1726.196 6        41.750    27067456.165 6 106218499.23506     -1588.022 6        41.750    27067454.509 7 108989391.18407     -1629.390 7        42.250    27067455.069 7 107603948.78107     -1608.706 7        45.000
E26  27199185.439 5 142932752.73705     -3278.632 5        34.750    27199187.421 6 116016868.18306     -2661.393 6        39.000    27199187.537 6 106735538.98206     -2448.299 6        40.250    27199186.376 6 109519928.41306     -2512.306 6        41.500    27199186.583 7 108127730.26907     -2480.294 7        44.000
E30  26862023.225 6 141160907.84806      2932.544 6        38.500    26862022.881 7 114578668.75807      2380.168 7        42.500    26862024.816 6 105412384.47406      2189.818 6        41.500    26862023.173 7 108162266.27407      2246.948 7        42.250    26862023.840 7 106787331.94807      2218.383 7        45.000
E33  25176648.559 7 132304251.59707     -1450.749 7        45.500    25176648.806 8 107389864.38008     -1177.586 8        49.500    25176648.658 8  98798692.85108     -1083.336 8        49.000    25176647.162 8 101376038.31008     -1111.537 8        50.000    25176647.785 8 100087369.65308     -1097.431 8        52.500
G04  22858139.974 7 120120422.69207     -3298.446 7        43.000    22858139.742 5        30.000    22858139.858 5  93600360.23705     -2570.215 5        30.000    22858140.153 7  93600352.24207     -2570.291 7        42.750    22858142.276 7  89700370.78807     -2463.181 7        46.250    22858140.116 7 120120435.70407     -3298.546 7        43.000
G05  23812049.545 6 125133201.66706      3558.935 6        41.500    23812049.331 6        36.500    23812048.225 6  97506420.33306      2773.195 6        36.500    23812048.901 6  97506390.34706      2773.230 6        39.750
G06  24265740.554 6 127517366.20006     -3705.747 6        38.250    24265740.510 5        30.750    24265742.821 5  99364217.67605     -2887.595 5        30.750    24265743.272 6  99364218.67006     -2887.513 6        36.250    24265742.189 6  95224051.95806     -2767.225 6        40.750
G07  22323196.015 7 117309230.62307      2463.555 7        47.500    22323195.595 7        46.500    22323193.721 7  91409803.81007      1919.654 7        46.500    22323194.092 7  91409791.81507      1919.682 7        44.000
G09  20530060.210 8 107886260.71308     -1176.934 8        51.750    20530059.853 9        56.250    20530060.093 9  84067248.83609      -917.091 9        56.250    20530060.464 8  84067260.83808      -917.048 8        48.500    20530059.243 9  80564479.89809      -878.855 9        55.000
G11  22674420.285 7 119154964.15007     -2121.591 7        45.750    22674420.147 5        34.500    22674419.108 5  92848052.23705     -1653.190 5        34.500    22674419.730 7  92848043.24507     -1653.192 7        44.500    22674422.251 8  88979402.74208     -1584.307 8        48.750    22674420.323 7 119154961.15107     -2121.542 7        45.250
G16  22338154.885 7 117387810.59507       480.092 7        45.500    22338154.063 5        32.000    22338152.725 5  91471020.55205       374.105 5        32.000
G20  21572935.878 8 113366620.74708      1715.540 8        48.500    21572934.823 6        38.500    21572933.427 6  88337646.62406      1336.781 6        38.500
G26  23432768.398 6 123140029.14706     -2205.110 6        39.750    23432767.974 5        35.500    23432771.197 5  95953283.23805     -1718.269 5        35.500    23432771.389 6  95953281.25606     -1718.467 6        39.750    23432769.014 7  91955216.78007     -1646.678 7        44.250
G29  23883096.460 7 125506574.97707     -1097.859 7        42.000    23883096.085 6        36.250    23883095.892 6  97797337.86006      -855.475 6        36.250    23883096.330 6  97797341.85106      -855.247 6        38.500
G30  24487208.764 6 128681160.10506      3686.764 6        36.500    24487208.134 4        29.250    24487210.288 4 100271045.95004      2872.806 4        29.250    24487211.048 5 100271052.96605      2872.508 5        35.500    24487209.840 6  96093091.58706      2753.157 6        41.500
I01  26480774.435 5 103916434.35805     -2877.435 5        34.500
I06  39677296.058 6 155702304.59606         3.294 6        37.000
I09  39349013.659 6 154414155.61506      -703.877 6        38.250
J02  42702574.078 6 224403554.04106         3.893 6        40.750    42702575.151 6 174859927.06106         3.117 6        40.000    42702575.651 7 167574097.71007         2.998 7        42.750    42702574.376 6 224403565.03106         3.961 6        41.000    42702570.889 6 224403541.87206         3.938 6        41.500
R01  19603373.047 8 104791358.07508     -1858.139 8        50.000    19603372.881 8 104791341.08108     -1858.124 8        50.000    19603378.983 7  81504426.57107     -1445.271 7        45.000    19603378.459 7  81504413.55107     -1445.127 7        45.000
R02  20006678.531 8 106759553.86908      2336.621 8        52.500    20006678.674 8 106759537.87208      2336.639 8        53.000    20006682.929 8  83035255.48008      1817.426 8        50.000    20006682.678 8  83035251.48008      1817.414 8        49.250
R03  24046298.908 5 128721708.04415      4290.762 5        35.500    24046297.562 5 128721714.02215      4290.878 5        33.250    24046301.577 5                      3337.318 5        32.750
R08                                                                                                                                  23743908.163 5  98892661.97405     -3322.515 5        35.000    23743907.394 6  98892669.93606     -3322.170 6        36.000
R09                                                                                                                                  24212316.760 5 100560693.34705     -3392.626 5        33.250    24212315.964 5 100560681.33105     -3392.272 5        33.500    24212302.693 4  97079739.22804     -3274.972 4        29.500
R10  21103586.791 7 112494011.91307     -2507.266 7        45.750    21103586.174 7 112493990.91207     -2507.168 7        45.000
R11  20297398.249 8 108463187.81108      2064.363 8        52.000    20297398.575 8 108463194.82008      2064.346 8        52.500    20297401.840 8  84360277.56808      1605.651 8        50.250    20297401.653 8  84360322.56408      1605.600 8        49.750    20297389.168 8  81382909.62208      1548.967 8        49.750
R12  23824929.325 7 127268549.17807      4693.217 7        43.000    23824929.472 7 127268501.18007      4693.229 7        42.000    23824935.111 6  98986646.05806      3650.163 6        40.000    23824935.227 6  98986643.05706      3650.182 6        40.250    23824921.831 6  95526611.36406      3522.478 6        37.250
R17  22334120.322 7 119514491.90107     -3757.729 7        46.000    22334120.773 7 119514488.90207     -3757.761 7        45.250    22334126.355 7  92955750.38507     -2922.656 7        42.500    22334126.418 7  92955762.39307     -2922.743 7        42.500
R18  21010269.515 8 112154314.76308      -372.811 8        48.500    21010269.846 8 112154329.76808      -372.775 8        48.250    21010275.358 7  87231183.77707      -289.956 7        47.750    21010275.470 7  87231185.77607      -289.918 7        47.500
R19  22434036.437 5 120006976.40405      3040.569 5        35.500    22434036.553 5 120006970.40605      3040.690 5        34.500    22434042.151 6  93338838.47706      2364.938 6        40.000    22434042.719 6  93338840.47106      2364.958 6        40.000
S23  40209374.224 6 211301728.71806         5.249 6        38.250    40209341.721 5 157790095.58815         3.753 5        32.250
S36  40294802.100 6 211750771.79606          .380 6        37.000    40294764.701 5 158125308.74915         1.098 5        32.750
> 2024 03 30 00 06 30.0000000  0 56
C05                                                                                                                                                                                                  40968540.965 5 164963461.22705       -46.581 5        32.500
C06                                                                                                                                  38672962.799 6 201380354.92006     -1155.339 6        40.500    38672960.811 7 155720093.51107      -893.289 7        44.500    38672961.254 7 163638030.90007      -938.782 7        42.500
C09                                                                                                                                  38292042.310 7 199396779.69507      -772.796 7        43.750    38292041.234 8 154186286.05008      -597.614 8        48.250    38292040.550 7 162026242.10207      -627.962 7        45.000
C12                                                                                                                                  26657996.641 4                      2823.250 4        26.500    26658000.775 4 107340747.09204      2182.344 4        28.000    26658004.657 4 112798749.85304      2294.236 4        29.750
C16                                                                                                                                  39672900.145 6 206587233.86106     -1241.559 6        40.500    39672904.118 7 159746384.49207      -959.912 7        42.000    39672901.395 6 167869070.38906     -1009.036 6        36.500
C19  25783163.775 6 135491469.65406      3314.000 6        38.500    25783165.930 6 101178702.37906      2474.907 6        41.500    25783161.919 6 134259708.89006      3283.990 6        40.250                                                                    25783162.463 7 109097017.92207      2668.562 7        43.000    25783163.634 6 103818144.69506      2539.537 6        41.500
C20  22302454.639 8 117200251.07608      1275.616 8        51.250    22302452.917 8  87519718.85308       952.603 8        53.000    22302452.403 8 116134796.41208      1264.025 8        53.000                                                                    22302450.948 8  94369068.66008      1027.156 8        52.500    22302451.770 8  89802832.79508       977.458 8        53.000
C23  23047528.727 8 121115635.13808       818.678 8        49.250    23047523.710 8  90443494.32008       611.406 8        52.250    23047526.545 8 120014570.01608       811.226 8        51.000                                                                    23047522.094 8  97521658.75708       659.161 8        52.000    23047522.205 8  92802872.72608       627.283 8        52.000
C25  24203791.006 7 127191806.27507     -2280.843 7        43.750    24203791.507 7  94980903.79107     -1703.179 7        45.750    24203789.214 7 126035494.97107     -2260.085 7        46.250                                                                    24203791.318 7 102414197.10907     -1836.520 7        46.750    24203790.074 7  97458662.29907     -1747.621 7        46.250
C29  26331025.603 4 138370517.72004     -3207.184 4        28.500    26331024.642 5 103328669.78205     -2394.817 5        30.000    26331019.875 5 137112588.98805     -3177.621 5        30.500                                                                    26331025.002 4 111415248.44404     -2582.069 4        29.750
C32  22974352.126 8 120731135.09008     -2219.214 8        50.000    22974354.107 8  90156448.42608     -1657.209 8        52.000    22974349.207 8 119633584.86208     -2199.019 8        51.250                                                                    22974353.234 8  97212153.02008     -1786.876 8        51.750    22974352.594 8  92508345.41008     -1700.422 8        51.750
C35  24585091.623 7 129195592.62707      -845.196 7        42.750    24585092.344 7  96477286.33607      -631.212 7        43.250    24585089.383 7 128021093.44307      -837.613 7        45.750                                                                    24585092.279 7 104027651.31507      -680.652 7        45.750    24585091.563 7  98994060.95707      -647.619 7        44.500
C37  25183776.058 6 132341659.94206      3340.551 6        41.750    25183781.182 7  98826601.80507      2494.641 7        44.500    25183772.954 7 131138556.79107      3310.248 7        42.750                                                                    25183780.840 7 106560855.29807      2689.775 7        44.750    25183779.628 7 101404682.65907      2559.698 7        44.500
C39  40384449.615 5 212221777.41705     -1443.667 5        34.250    40384448.703 6 158477317.82706     -1078.034 6        36.500    40384444.849 5 210292462.80405     -1430.414 5        35.500                                                                    40384446.001 5 170879876.67405     -1162.513 5        35.750    40384444.645 6 162611500.39406     -1106.246 6        36.000
C44  25365813.138 6 133298281.04106      1739.207 6        36.500    25365818.955 6  99540963.77406      1298.517 6        41.500    25365812.418 6 132086490.40106      1722.958 6        40.000                                                                    25365816.879 6 107331106.70806      1400.091 6        41.000    25365817.330 7 102137668.95807      1332.441 7        42.000
C48  23408970.300 7 123015024.18307      2489.932 7        46.750    23408986.438 8  91861960.31508      1859.314 8        50.750    23408967.179 8 121896690.90608      2467.312 8        48.750                                                                    23408968.282 8  99051074.63408      2004.870 8        51.000    23408985.993 8  94258351.99008      1907.872 8        50.750
C56                                                                                                                                  40060790.243 6 208607046.98806      1945.917 6        37.500                                                                    40060793.577 5 169510331.05705      1581.008 5        32.250
C57                                                                                                                                  23253289.813 7 121086015.37107       419.187 7        42.250                                                                    23253416.698 7  98392859.85207       340.792 7        44.000
E02  25395767.115 7 133455674.04307       527.783 7        46.000    25395766.950 8 108324418.61808       428.337 8        48.500    25395767.272 8  99658475.04908       394.103 8        48.000    25395765.432 8 102258244.84908       404.332 8        48.500    25395766.207 8 100958362.52308       399.214 8        51.250
E07  23548921.838 8 123750493.97708      -509.292 8        50.000    23548920.662 8 100446879.72208      -413.442 8        53.250    23548923.407 8  92411152.74708      -380.377 8        53.250    23548921.710 8  94821862.61608      -390.235 8        53.500    23548922.319 9  93616513.75509      -385.309 9        56.250
E08  26447634.935 7 138983347.76007     -2792.512 7        42.000    26447633.733 7 112811192.92607     -2266.704 7        44.750    26447634.895 7 103786327.66507     -2085.334 7        44.250    26447633.064 7 106493782.00407     -2139.675 7        44.750    26447633.691 7 105140060.40807     -2112.491 7        47.500
E10  27749542.634 6 145824852.11206      2679.576 6        36.750    27749545.648 6 118364359.76906      2174.816 6        40.000    27749547.508 6 108895208.53606      2000.849 6        40.000    27749545.176 6 111735946.65906      2053.115 6        41.250    27749545.530 7 110315587.17207      2026.982 7        43.750
E12  26417719.959 6 138826132.17506      1658.647 6        39.000    26417716.963 7 112683558.33207      1346.341 7        42.750    26417718.452 7 103668889.87607      1238.569 7        43.000    26417716.813 7 106373285.66007      1270.922 7        43.000    26417717.543 7 105021087.34307      1254.746 7        46.000
E18  22381747.869 6 117616896.59906      2135.658 6        38.500    22381748.701 6  95468269.72806      1733.498 6        40.500    22381751.773 7  87830826.87407      1594.812 7        42.250    22381749.986 7  90122054.41207      1636.458 7        42.500    22381750.502 7  88976449.71607      1615.637 7        45.250
E25  27079623.365 6 142304368.63206     -2137.831 6        37.000    27079624.694 6 115506795.20506     -1735.210 6        41.250    27079628.799 6 106266265.43906     -1596.324 6        41.000    27079626.721 6 109038403.47806     -1637.897 6        41.750    27079627.335 7 107652338.03307     -1617.110 7        44.250
E26  27217914.839 5 143031175.36105     -3282.645 5        35.000    27217916.200 6 116096756.62806     -2664.595 6        38.500    27217916.906 6 106809036.35106     -2451.406 6        40.500    27217915.222 6 109595343.10306     -2515.366 6        41.250    27217915.840 7 108202186.30207     -2483.391 7        43.750
E30  26845302.044 6 141073037.00106      2925.699 6        38.750    26845301.315 7 114507345.04907      2374.725 7        42.500    26845303.148 6 105346766.68706      2184.669 6        41.500    26845301.795 7 108094936.70207      2241.718 7        42.000    26845302.503 7 106720858.26707      2213.206 7        44.750
E33  25184971.984 7 132347990.48107     -1465.150 7        46.000    25184971.909 8 107425366.68108     -1189.285 8        49.500    25184972.212 8  98831354.93908     -1094.147 8        49.500    25184970.703 8 101409552.45208     -1122.657 8        50.000    25184970.995 8 100120457.76908     -1108.402 8        52.750
G04  22876993.770 7 120219499.05907     -3306.517 7        42.750    22876993.534 5        30.250    22876993.658 5  93677562.59405     -2576.509 5        30.250    22876994.047 7  93677554.59207     -2576.518 7        43.250    22876996.202 7  89774356.39307     -2469.216 7        46.750    22876993.657 7 120219512.05207     -3306.453 7        43.000
G05  23791755.073 6 125026556.65506      3550.660 6        41.250    23791754.859 6        36.250    23791754.187 6  97423320.35506      2766.741 6        36.250    23791754.419 6  97423290.36606      2766.697 6        39.250
G06  24286911.625 6 127628622.04206     -3711.267 6        38.000    24286911.541 5        30.750    24286914.312 5  99450910.46805     -2891.899 5        30.750    24286915.095 6  99450911.46206     -2891.900 6        37.000    24286914.007 6  95307132.53606     -2771.470 6        41.750
G07  22309164.775 7 117235497.93607      2451.870 7        47.500    22309164.360 7        46.750    22309162.910 7  91352349.78907      1910.547 7        46.750    22309163.290 7  91352337.79907      1910.612 7        44.250
G09  20536828.664 8 107921830.09008     -1194.375 8        51.750    20536828.307 9        56.000    20536828.672 9  84094965.23309      -930.681 9        56.000    20536829.043 8  84094977.24008      -930.677 8        48.500    20536827.710 9  80591041.44609      -891.911 9        55.000
G11  22686580.956 7 119218870.19707     -2138.768 7        45.500    22686580.822 5        34.000    22686580.079 5  92897849.16705     -1666.575 5        34.000    22686580.388 7  92897840.15907     -1666.522 7        44.750    22686583.209 8  89027124.79508     -1597.145 8        49.000    22686581.084 7 119218867.19507     -2138.725 7        45.250
G16  22335479.576 7 117373756.53807       456.914 7        44.250    22335478.736 5        31.750    22335478.323 5  91460069.38005       356.043 5        31.750
G20  21563191.452 8 113315413.81508      1698.189 8        48.750    21563190.402 6        38.750    21563188.952 6  88297745.12006      1323.256 6        38.750
G26  23445404.488 6 123206434.44906     -2221.898 6        39.000    23445404.073 5        34.500    23445407.792 5  96005027.58005     -1731.347 5        34.500    23445407.640 6  96005025.56506     -1731.240 6        38.750    23445405.680 7  92004805.08607     -1659.202 7        44.250
G29  23889420.282 7 125539808.52307     -1117.828 7        42.000    23889419.902 5        35.750    23889419.736 5  97823234.14905      -871.036 5        35.750    23889419.759 6  97823238.12706      -870.911 6        37.750
G30  24466172.015 5 128570613.85805      3682.791 5        35.250    24466171.354 4        28.250    24466173.906 4 100184906.10004      2869.704 4        28.250    24466174.367 5 100184913.09705      2869.960 5        35.500    24466173.110 6  96010540.91206      2750.235 6        41.750
I01  26502774.367 5 104002766.11705     -2877.848 5        34.500
I06  39677270.758 6 155702206.80606         3.024 6        37.250
I09  39354397.680 6 154435284.05306      -704.749 6        38.250
J02  42702554.465 6 224403450.27206         3.002 6        41.000    42702555.623 6 174859846.19306         2.386 6        40.250    42702556.065 7 167574020.19507         2.260 7        42.750    42702554.620 6 224403461.26906         2.982 6        41.250    42702551.147 6 224403438.10306         2.958 6        41.750
R01  19613857.530 8 104847404.56108     -1878.210 8        50.000    19613857.490 8 104847387.57208     -1878.249 8        50.000    19613863.453 7  81548018.28507     -1460.866 7        44.750    19613862.889 7  81548005.27607     -1460.800 7        45.000
R02  19993590.620 8 106689714.89008      2319.162 8        52.500    19993590.812 8 106689698.89608      2319.185 8        53.000    19993595.124 8  82980936.21108      1803.806 8        49.750    19993594.901 8  82980932.20908      1803.837 8        49.250
R03  24022251.295 5 128593010.04305      4289.101 5        34.500    24022252.771 5 128593016.05905      4289.364 5        31.750    24022261.315 5 100016802.30715      3336.076 5        33.000    24022261.892 5 100016805.32915      3336.059 5        34.000
R08  23767842.026 4                     -4272.756 4        24.500                                                                    23767848.099 6  98992369.08506     -3324.830 6        36.250    23767847.848 6  98992377.07006     -3324.764 6        36.750
R09                                                                                                                                                                                                  24236837.010 4 100662515.04304     -3396.534 4        27.250
R10  21117760.936 7 112569569.48507     -2529.861 7        45.500    21117760.332 7 112569548.49107     -2529.833 7        44.750
R11  20285878.978 8 108401632.91508      2039.226 8        52.000    20285879.362 8 108401639.92608      2039.235 8        52.500    20285882.824 8  84312401.54808      1586.112 8        50.500    20285882.731 8  84312446.53908      1586.142 8        50.250    20285870.166 8  81336723.29008      1530.095 8        49.750
R12  23798579.761 6 127127798.78006      4690.082 6        40.750    23798580.119 6 127127750.79506      4690.171 6        40.000    23798586.455 6  98877173.61806      3647.936 6        39.750    23798585.950 6  98877170.63206      3647.849 6        40.250    23798573.162 6  95420965.44406      3520.315 6        38.250
R17  22355230.794 7 119627458.76507     -3773.379 7        45.000    22355230.986 7 119627455.76307     -3773.256 7        44.250    22355237.046 7  93043613.46907     -2934.671 7        42.250    22355236.805 7  93043625.46907     -2934.754 7        42.750
R18  21012446.690 8 112165935.07608      -401.949 8        48.750    21012447.057 8 112165950.08208      -401.904 8        48.750    21012452.050 7  87240221.78607      -312.566 7        47.500    21012451.947 7  87240223.79007      -312.531 7        47.250
R19  22417043.193 5 119916071.55505      3019.852 5        35.000    22417042.165 5 119916065.56805      3019.813 5        34.000    22417048.536 6  93268134.82606      2348.605 6        40.750    22417048.997 6  93268136.82806      2348.610 6        40.750
S23  40209342.444 6 211301569.52206         5.213 6        38.250    40209311.632 5 157789974.87915         3.903 5        32.250
S36  40294802.001 6 211750748.12206          .864 6        36.500    40294761.262 5 158125299.64215          .133 5        32.500
> 2024 03 30 00 07  0.0000000  0 56
C05                                                                                                                                                                                                  40968886.232 5 164964855.96205       -46.535 5        32.000
C06                                                                                                                                  38679624.193 6 201415040.84906     -1157.167 6        40.000    38679622.160 7 155746914.85407      -894.733 7        44.500    38679622.040 7 163666216.04307      -940.173 7        42.250
C09                                                                                                                                  38296500.660 7 199419996.84207      -774.935 7        43.250    38296500.135 8 154204238.98208      -599.259 8        48.000    38296499.259 7 162045107.89407      -629.705 7        45.250
C12                                                                                                                                  26641769.154 4                      2813.986 4        29.000    26641768.109 5 107275357.93005      2175.934 5        35.750    26641763.482 4 112730035.72604      2286.708 4        27.250
C16                                                                                                                                  39680056.208 6 206624496.21206     -1242.745 6        40.250    39680059.456 6 159775198.07906      -960.916 6        40.750    39680057.413 6 167899349.09306     -1010.032 6        37.250
C19  25764256.082 6 135392107.23806      3309.952 6        38.500    25764257.737 7 101104503.19307      2471.729 7        42.000    25764253.435 6 134161249.78006      3279.933 6        39.750                                                                    25764254.565 7 109017011.85007      2665.162 7        43.750    25764255.946 7 103742009.87707      2536.239 7        42.000
C20  22295212.587 8 117162193.32308      1261.510 8        51.250    22295210.820 8  87491299.12908       942.030 8        53.500    22295210.512 8 116097084.63808      1250.038 8        53.000                                                                    22295208.632 8  94338424.77208      1015.792 8        52.750    22295209.588 8  89773671.68508       966.607 8        53.000
C23  23042904.215 8 121091333.73108       801.349 8        49.250    23042899.381 8  90425347.16208       598.474 8        52.250    23042902.047 8 119990489.52708       794.113 8        50.500                                                                    23042897.788 8  97502091.38308       645.293 8        52.500    23042897.787 8  92784252.15908       614.073 8        51.750
C25  24216848.985 7 127260422.94407     -2293.522 7        44.750    24216848.556 7  95032143.45507     -1712.756 7        45.750    24216846.682 7 126103487.85407     -2272.771 7        45.750                                                                    24216848.831 7 102469446.85207     -1846.758 7        47.000    24216847.489 7  97511238.65507     -1757.344 7        46.000
C29  26349345.111 4 138466801.68104     -3212.042 4        26.750    26349347.732 5 103400570.07305     -2398.630 5        30.500    26349345.416 5 137207997.65405     -3182.818 5        32.500                                                                    26349347.471 4 111492775.68204     -2586.371 4        29.500
C32  22987055.004 8 120797887.93408     -2230.948 8        50.000    22987056.905 8  90206296.32008     -1665.996 8        52.000    22987051.615 8 119699730.86108     -2210.693 8        50.750                                                                    22987055.620 8  97265902.05308     -1796.340 8        52.000    22987055.288 8  92559493.68508     -1709.432 8        51.500
C35  24589967.333 7 129221213.82707      -862.869 7        43.000    24589967.883 7  96496419.05807      -644.374 7        43.250    24589964.722 7 128046481.71407      -854.931 7        45.250                                                                    24589967.439 7 104048281.37707      -694.709 7        45.750    24589967.072 7  99013692.79307      -661.112 7        44.250
C37  25164723.440 6 132241538.12506      3334.119 6        41.500    25164728.072 7  98751835.56507      2489.708 7        44.500    25164720.672 7 131039345.17207      3303.863 7        42.750                                                                    25164728.397 7 106480237.75807      2684.583 7        45.250    25164727.135 7 101327965.98007      2554.738 7        44.500
C39  40392692.077 5 212265095.95005     -1444.335 5        34.500    40392690.150 5 158509666.06705     -1078.265 5        35.500    40392688.773 5 210335387.50205     -1431.155 5        35.500                                                                    40392688.976 6 170914756.52806     -1162.932 6        36.500    40392689.517 6 162644692.52606     -1106.549 6        36.250
C44  25355930.552 6 133246343.14006      1723.659 6        37.250    25355935.279 6  99502179.21506      1287.120 6        41.250    25355927.968 6 132035024.63706      1707.942 6        38.250                                                                    25355932.939 6 107289286.73806      1387.873 6        40.500    25355933.009 6 102097872.60206      1320.798 6        40.750
C48  23394784.145 7 122940475.63707      2480.086 7        45.250    23394800.359 8  91806290.90508      1851.953 8        49.250    23394781.068 7 121822820.07907      2457.354 7        46.750                                                                    23394782.243 8  98991048.50108      1996.830 8        49.500    23394800.012 8  94201230.33708      1900.249 8        48.750
C56                                                                                                                                  40049584.742 6 208548699.75006      1944.052 6        36.500                                                                    40049588.697 5 169462919.11805      1579.559 5        33.000
C57                                                                                                                                  23250926.614 7 121073707.13907       401.066 7        42.000                                                                    23251053.177 7  98382858.43207       326.034 7        44.500
E02  25392798.012 7 133440073.02707       512.285 7        45.500    25392798.343 8 108311755.47308       415.801 8        49.500    25392798.383 8  99646824.96808       382.502 8        49.000    25392796.641 8 102246290.84508       392.507 8        49.500    25392797.389 8 100946560.48008       387.502 8        52.250
E07  23551862.520 8 123765947.17308      -520.936 8        49.750    23551861.487 8 100459422.90108      -422.845 8        53.250    23551864.049 8  92422692.47008      -389.006 8        53.000    23551862.401 8  94833703.37808      -399.132 8        53.250    23551862.961 9  93628203.99809      -394.061 9        56.250
E08  26463589.420 6 139067191.25106     -2797.152 6        41.250    26463588.719 7 112879247.72507     -2270.330 7        45.250    26463589.550 7 103848938.08607     -2088.701 7        44.250    26463588.005 7 106558025.72607     -2143.160 7        45.000    26463588.538 7 105203487.47907     -2115.923 7        47.500
E10  27734271.247 6 145744597.92706      2670.718 6        37.750    27734273.599 6 118299218.53506      2167.844 6        40.750    27734274.797 6 108835278.68106      1994.393 6        40.250    27734273.355 6 111674453.38406      2046.386 6        41.750    27734273.468 7 110254875.60807      2020.371 7        44.250
E12  26408289.566 6 138776574.70806      1645.370 6        38.500    26408286.561 7 112643333.19607      1335.241 7        43.000    26408287.813 7 103631882.75407      1228.520 7        43.000    26408286.474 7 106335313.13607      1260.533 7        43.000    26408287.003 7 104983597.51807      1244.538 7        46.000
E18  22369652.537 6 117553332.55606      2101.858 6        37.500    22369653.177 6  95416675.53106      1706.038 6        41.500    22369655.944 6  87783360.22006      1569.717 6        41.500    22369652.718 6  90073349.48606      1610.457 6        41.500    22369654.485 7  88928363.92707      1590.087 7        44.500
E25  27091859.245 6 142368666.03506     -2148.688 6        37.000    27091860.453 7 115558984.62007     -1744.169 7        42.000    27091864.285 6 106314279.70206     -1604.621 6        41.500    27091862.270 7 109087670.29807     -1646.543 7        42.250    27091862.750 7 107700978.57407     -1625.599 7        45.000
E26  27236668.395 5 143129720.06405     -3286.970 5        35.250    27236668.503 6 116176744.19406     -2668.113 6        38.750    27236669.343 6 106882624.90006     -2454.439 6        40.500    27236667.620 6 109670851.34306     -2518.516 6        41.000    27236668.256 7 108276734.69507     -2486.475 7        43.750
E30  26828619.462 6 140985369.38606      2918.876 6        39.250    26828618.778 7 114436186.31607      2369.189 7        43.250    26828620.741 6 105281300.64906      2179.595 6        41.750    26828618.950 7 108027762.85907      2236.512 7        42.500    26828619.939 7 106654538.32807      2208.060 7        45.000
E33  25193377.883 7 132392161.73007     -1479.572 7        45.000    25193377.821 8 107461219.91408     -1200.968 8        48.500    25193377.781 8  98864339.88508     -1104.883 8        48.500    25193375.802 8 101443397.88508     -1133.683 8        48.250    25193376.581 8 100153872.95908     -1119.283 8        51.250
G04  22895893.432 7 120318816.52407     -3314.515 7        43.000    22895893.209 4        29.750    22895893.096 4  93754952.80304     -2582.734 4        29.750    22895892.935 7  93754944.80007     -2582.784 7        42.500    22895895.532 7  89848521.99307     -2475.249 7        46.750    22895893.453 7 120318829.52107     -3314.601 7        43.250
G05  23771508.594 6 124920163.31906      3542.318 6        40.750    23771508.393 5        35.750    23771507.887 5  97340416.54305      2760.245 5        35.750    23771508.692 6  97340386.55006      2760.317 6        39.250
G06  24308113.528 6 127740040.92006     -3716.510 6        37.000    24308113.444 5        30.500    24308116.551 5  99537730.33105     -2895.986 5        30.500    24308117.575 6  99537731.32906     -2896.131 6        37.000    24308116.639 7  95390334.90707     -2775.401 7        42.000
G07  22295201.324 7 117162118.06707      2440.112 7        47.500    22295200.913 7        46.750    22295199.222 7  91295170.71007      1901.386 7        46.750    22295199.584 7  91295158.71807      1901.371 7        44.000
G09  20543696.606 8 107957921.05908     -1211.710 8        51.500    20543696.249 9        55.750    20543696.610 9  84123088.06809      -944.190 9        55.750    20543697.125 8  84123100.07308      -944.200 8        48.250    20543695.648 9  80617992.49509      -904.873 9        55.000
G11  22698839.789 7 119283290.33507     -2155.893 7        45.250    22698839.664 5        33.250    22698838.845 5  92948046.64105     -1679.917 5        33.250    22698838.970 7  92948037.64207     -1679.862 7        44.000    22698841.992 8  89075230.70508     -1609.911 8        48.750    22698839.935 7 119283287.33707     -2155.894 7        45.000
G16  22332938.214 7 117360399.05507       433.601 7        44.500    22332937.378 5        32.000    22332936.456 5  91449660.92105       337.874 5        32.000
G20  21553546.596 8 113264729.31308      1680.733 8        48.000    21553545.546 6        38.500    21553544.226 6  88258250.58306      1309.666 6        38.500
G26  23458137.576 6 123273342.89806     -2238.667 6        40.000    23458137.143 5        34.500    23458140.049 5  96057163.91305     -1744.416 5        34.500    23458140.397 6  96057161.89906     -1744.259 6        38.500    23458137.615 7  92054769.04407     -1671.653 7        44.250
G29  23895859.360 7 125573642.98907     -1137.822 7        42.000    23895858.989 6        36.500    23895858.023 6  97849598.66306      -886.613 6        36.500    23895858.837 6  97849602.67406      -886.589 6        38.000
G30  24445158.251 5 128460187.31705      3678.714 5        35.250    24445157.563 4        28.000    24445160.486 4 100098859.53604      2866.523 4        28.000    24445161.238 5 100098866.56205      2866.580 5        35.250    24445159.417 6  95928079.63206      2747.147 6        41.500
I01  26524778.586 5 104089116.68105     -2878.855 5        34.250
I06  39677247.461 6 155702115.64006         2.863 6        37.000
I09  39359787.237 6 154456435.21306      -705.414 6        38.000
J02  42702540.617 6 224403376.35706         1.942 6        41.000    42702541.819 6 174859788.55206         1.440 6        40.000    42702542.037 7 167573964.94807         1.488 7        42.750    42702540.450 6 224403387.36406         1.812 6        41.250    42702537.294 6 224403364.18206         1.932 6        41.500
R01  19624455.012 8 104904054.14708     -1898.402 8        50.000    19624454.990 8 104904037.15408     -1898.317 8        49.750    19624461.087 7  81592079.06407     -1476.599 7        44.750    19624460.371 7  81592066.05307     -1476.504 7        45.000
R02  19980601.978 8 106620403.19108      2301.614 8        53.000    19980602.072 8 106620387.19908      2301.567 8        53.250    19980606.206 8  82927027.07408      1790.111 8        50.250    19980606.071 8  82927023.07708      1790.126 8        49.500
R03  23998218.698 5 128464358.21105      4287.915 5        34.000    23998218.882 5 128464364.24005      4287.651 5        32.500    23998225.995 5  99916739.76405      3334.571 5        34.000    23998225.951 5  99916742.75405      3334.875 5        33.250
R08  23791801.941 5                     -4277.688 5        30.250                                                                    23791806.476 6                     -3327.228 6        36.250    23791805.698 6                     -3327.406 6        36.500
R09  24261382.368 4                     -4373.455 4        27.500                                                                                                                                    24261387.827 4                     -3401.342 4        29.250    24261369.307 4  97276487.56904     -3282.958 4        24.750
R10  21132061.560 7 112645802.24207     -2552.247 7        45.500    21132061.551 7 112645781.25207     -2552.310 7        45.000
R11  20274501.542 8 108340832.85908      2014.097 8        52.250    20274501.766 8 108340839.87008      2014.068 8        52.500    20274504.709 8  84265112.63008      1566.478 8        50.250    20274504.472 8  84265157.63008      1566.460 8        50.000    20274492.355 8  81291103.33908      1511.172 8        50.250
R12  23772248.254 7 126987140.17407      4687.081 7        42.250    23772248.625 6 126987092.18706      4687.020 6        41.750    23772254.827 6  98767772.54406      3645.449 6        40.750    23772254.867 6  98767769.55606      3645.488 6        41.000    23772240.903 6  95315388.40706      3518.005 6        38.000
R17  22376428.028 7 119740888.70607     -3788.687 7        45.250    22376428.015 7 119740885.71907     -3788.731 7        44.250    22376433.892 7  93131836.68707     -2946.778 7        42.500    22376433.624 7  93131848.69107     -2946.717 7        42.750
R18  21014787.589 8 112178428.20208      -431.027 8        49.500    21014787.616 8 112178443.20808      -431.035 8        49.000    21014792.744 7  87249938.65407      -335.200 7        47.500    21014792.743 7  87249940.65807      -335.248 7        47.500
R19  22400165.304 5 119825794.55005      2998.454 5        34.750    22400166.311 5 119825788.53705      2998.797 5        33.250    22400172.566 6  93197919.38606      2332.403 6        40.750    22400172.722 6  93197921.37806      2332.336 6        41.500
S23  40209312.985 6 211301409.39806         5.233 6        38.250    40209280.925 5 157789855.27715         4.361 5        32.000
S36  40294796.448 6 211750729.88906          .399 6        36.500    40294757.913 5 158125287.50105          .419 5        32.250
> 2024 03 30 00 07 30.0000000  0 56
C05                                                                                                                                                                                                  40969233.329 5 164966250.98605       -46.436 5        32.250
C06                                                                                                                                  38686294.740 6 201449777.86706     -1158.774 6        40.500    38686293.012 7 155773775.69507      -896.019 7        44.500    38686293.146 7 163694442.72207      -941.574 7        42.500
C09                                                                                                                                  38300971.943 7 199443280.24907      -777.191 7        43.750    38300971.534 8 154222243.19008      -600.983 8        48.000    38300970.703 7 162064027.58307      -631.540 7        45.250
C12                                                                                                                                                                                                  26625582.258 6 107210187.96906      2168.459 6        37.750    26625579.321 4 112661552.09304      2279.327 4        29.250
C16                                                                                                                                  39687218.481 6 206661792.37806     -1243.807 6        40.250    39687221.681 6 159804037.82806      -961.802 6        40.750    39687220.331 6 167929655.25706     -1010.493 6        37.500
C19  25745370.976 6 135292868.98506      3305.857 6        38.500    25745373.212 7 101030396.73207      2468.736 7        42.250    25745369.751 6 134062913.68206      3275.741 6        40.500                                                                    25745370.066 7 108937105.76207      2661.893 7        43.750    25745371.425 7 103665970.21607      2533.027 7        42.250
C20  22288051.086 8 117124559.37308      1247.369 8        51.250    22288049.280 8  87463195.85208       931.461 8        53.250    22288048.806 8 116059792.81508      1236.055 8        53.250                                                                    22288047.261 8  94308122.10708      1004.386 8        52.750    22288048.159 8  89744835.27508       955.779 8        52.750
C23  23038378.642 8 121067550.41808       784.143 8        49.500    23038373.397 8  90407586.90908       585.559 8        52.250    23038375.969 8 119966922.43208       776.991 8        50.750                                                                    23038371.786 8  97482941.19408       631.385 8        52.250    23038372.170 8  92766028.59608       600.807 8        52.000
C25  24229978.192 7 127329421.22707     -2306.361 7        43.750    24229978.559 7  95083668.04507     -1722.242 7        45.250    24229975.831 7 126171858.87707     -2285.293 7        45.000                                                                    24229979.197 7 102525003.83407     -1856.986 7        47.250    24229977.734 7  97564107.38807     -1767.238 7        46.000
C29  26367700.076 5 138563239.73405     -3216.910 5        30.000    26367701.663 5 103472585.41405     -2402.170 5        32.750    26367697.805 5 137303559.02605     -3187.748 5        34.000                                                                    26367700.079 5 111570427.02005     -2589.904 5        30.000
C32  22999824.205 8 120864992.16608     -2242.646 8        49.500    22999826.365 8  90256406.60408     -1674.714 8        52.000    22999821.214 8 119766225.06208     -2222.282 8        51.250                                                                    22999825.349 8  97319934.02408     -1805.790 8        52.000    22999825.084 8  92610911.19708     -1718.434 8        51.750
C35  24594942.031 7 129247359.35707      -880.212 7        42.500    24594943.368 7  96515943.30507      -657.288 7        43.000    24594940.225 7 128072389.56807      -872.307 7        45.500                                                                    24594943.197 7 104069333.62007      -708.756 7        45.500    24594942.494 7  99033726.37507      -674.484 7        44.250
C37  25145708.352 6 132141611.59506      3327.482 6        41.250    25145713.016 7  98677215.16507      2484.858 7        44.750    25145704.739 7 130940327.06707      3297.310 7        43.000                                                                    25145713.086 7 106399777.47507      2679.346 7        45.250    25145711.690 7 101251398.94707      2549.660 7        44.250
C39  40400937.006 5 212308430.93905     -1444.714 5        33.250    40400935.571 5 158542026.66405     -1079.175 5        34.250    40400936.103 6 210378328.53106     -1431.616 6        37.000                                                                    40400935.811 6 170949649.66206     -1163.297 6        36.750    40400937.939 6 162677897.30106     -1106.919 6        37.250
C44  25346133.599 6 133194860.89606      1708.564 6        37.750    25346138.182 6  99463734.70506      1275.848 6        41.000    25346131.130 6 131984010.38906      1692.887 6        39.000                                                                    25346135.913 6 107247833.52106      1375.562 6        40.500    25346137.057 6 102058425.21506      1309.051 6        41.000
C48  23380654.640 7 122866225.23707      2470.000 7        45.750    23380670.957 8  91750844.26808      1844.513 8        50.250    23380651.573 8 121749244.66908      2447.604 8        48.000                                                                    23380652.676 8  98931262.52608      1988.817 8        50.500    23380670.700 8  94144337.25708      1892.585 8        50.000
C56                                                                                                                                  40038389.234 6 208490400.72906      1942.473 6        37.000                                                                    40038393.064 5 169415546.40205      1578.330 5        33.500
C57                                                                                                                                  23248667.430 7 121061943.96007       383.022 7        42.500                                                                    23248794.310 7  98373299.96107       311.208 7        44.500
E02  25389917.607 7 133424936.40407       496.743 7        45.000    25389917.983 8 108299469.26108       403.256 8        49.250    25389918.327 8  99635521.65908       370.923 8        49.000    25389916.295 8 102234692.66208       380.619 8        49.500    25389916.984 8 100935109.73508       375.774 8        52.250
E07  23554868.903 8 123781746.16408      -532.405 8        50.000    23554868.005 9 100472246.77409      -432.108 9        54.000    23554870.486 8  92434490.44208      -397.545 8        53.500    23554868.771 9  94845809.12209      -407.967 9        54.000    23554869.385 9  93640155.85609      -402.752 9        56.750
E08  26479570.105 6 139151171.11906     -2801.603 6        41.000    26479569.667 7 112947413.19807     -2274.036 7        45.750    26479570.539 7 103911650.32707     -2092.114 7        44.000    26479568.650 7 106622373.94207     -2146.733 7        45.000    26479569.330 7 105267017.70807     -2119.423 7        47.500
E10  27719048.744 6 145664604.95106      2662.037 6        38.000    27719050.989 6 118234289.25606      2160.625 6        40.500    27719051.757 6 108775543.78506      1987.848 6        40.250    27719050.986 7 111613160.17907      2039.678 7        42.000    27719051.188 7 110194361.55507      2013.767 7        44.250
E12  26398936.009 6 138727421.68706      1631.596 6        39.000    26398932.490 7 112603436.19607      1324.346 7        42.250    26398934.516 7 103595177.49707      1218.435 7        43.000    26398933.141 7 106297650.36307      1250.290 7        43.500    26398933.602 7 104946413.50407      1234.349 7        46.250
E18  22357749.744 6 117490784.71006      2067.817 6        36.750    22357751.524 6  95365906.20006      1678.490 6        41.500    22357753.254 6  87736652.43606      1544.177 6        40.750    22357751.700 6  90025423.22006      1584.619 6        41.500    22357752.041 7  88881046.90007      1564.420 7        44.250
E25  27104157.812 6 142433293.82306     -2159.778 6        37.750    27104158.765 7 115611442.17407     -1752.980 7        42.000    27104162.409 6 106362540.62006     -1612.838 6        41.500    27104160.426 7 109137190.19807     -1654.865 7        42.500    27104161.031 7 107749868.98307     -1633.846 7        45.000
E26  27255444.291 5 143228385.11905     -3290.845 5        35.500    27255443.308 6 116256829.42806     -2671.222 6        38.500    27255444.985 6 106956303.31406     -2457.425 6        40.750    27255442.688 6 109746451.81606     -2521.561 6        41.000    27255443.566 7 108351374.13807     -2489.496 7        43.750
E30  26811976.244 6 140897906.80006      2911.904 6        39.250    26811974.732 7 114365193.97107      2363.579 7        43.000    26811977.509 7 105215987.69007      2174.522 7        42.000    26811975.284 7 107960746.08007      2231.242 7        42.750    26811976.323 7 106588373.45807      2202.887 7        45.500
E33  25201865.273 7 132436764.39007     -1493.851 7        45.000    25201865.207 8 107497423.34208     -1212.636 8        49.250    25201865.537 8  98897647.02908     -1115.600 8        49.000    25201863.473 8 101477573.93208     -1144.706 8        49.250    25201864.315 8 100187614.55408     -1130.156 8        52.250
G04  22914838.422 7 120418373.27407     -3322.504 7        43.250    22914838.212 5        30.250    22914838.265 5  93832529.49205     -2588.963 5        30.250    22914838.037 7  93832521.49607     -2589.000 7        42.500    22914840.719 7  89922866.32807     -2481.100 7        47.000    22914838.474 7 120418386.27307     -3322.496 7        43.500
G05  23751310.897 6 124814023.96106      3533.579 6        41.000    23751310.696 5        35.750    23751310.453 5  97257710.58705      2753.432 5        35.750    23751310.771 6  97257680.60606      2753.602 6        39.250
G06  24329347.578 6 127851620.06806     -3721.966 6        38.000    24329347.453 5        30.750    24329349.961 5  99624675.07405     -2900.224 5        30.750    24329350.225 6  99624676.06406     -2900.132 6        37.000    24329349.594 7  95473656.95707     -2779.451 7        43.000
G07  22281305.014 7 117089093.25307      2428.235 7        47.750    22281304.599 7        46.500    22281302.957 7  91238268.28507      1892.131 7        46.500    22281302.899 7  91238256.30307      1892.023 7        43.500
G09  20550663.367 8 107994532.68608     -1229.000 8        51.500    20550663.010 9        55.750    20550663.483 9  84151616.61309      -957.663 9        55.750    20550663.966 8  84151628.61208      -957.651 8        48.000    20550662.660 9  80645332.35109      -917.792 9        55.000
G11  22711196.085 7 119348222.42407     -2172.948 7        45.750    22711195.969 5        33.750    22711194.716 5  92998643.06805     -1693.205 5        33.750    22711195.235 7  92998634.07107     -1693.274 7        44.000    22711198.413 8  89123718.93908     -1622.641 8        49.250    22711196.052 7 119348219.42507     -2172.941 7        45.000
G16  22330529.575 7 117347739.12807       410.316 7        45.250    22330528.739 5        32.000    22330527.491 5  91439795.99105       319.724 5        32.000
G20  21544001.470 8 113214569.67908      1663.220 8        49.000    21544000.415 6        38.750    21543999.051 6  88219165.13306      1296.016 6        38.750
G26  23470965.060 6 123340752.43806     -2255.255 6        40.500    23470964.613 5        35.000    23470967.855 5  96109690.67905     -1757.332 5        35.000    23470968.651 6  96109688.68306     -1757.268 6        39.250    23470965.609 7  92105107.16307     -1684.129 7        45.250
G29  23902411.481 7 125608077.20607     -1157.764 7        42.000    23902411.097 6        37.000    23902411.383 6  97876430.49306      -902.152 6        37.000    23902411.830 6  97876434.48906      -902.240 6        39.250
G30  24424168.455 6 128349882.61406      3675.009 6        36.250    24424167.700 4        29.000    24424170.467 4 100012907.86704      2863.636 4        29.000    24424171.517 5 100012914.88105      2863.376 5        35.750    24424168.565 6  95845709.30406      2744.198 6        41.250
I01  26546789.370 5 104175486.01905     -2879.494 5        34.250
I06  39677226.426 6 155702031.19406         2.682 6        37.000
I09  39365183.377 6 154477609.09206      -706.056 6        38.250
J02  42702531.955 6 224403332.29606          .997 6        40.750    42702533.444 6 174859754.17306          .827 6        40.000    42702533.640 7 167573932.00707          .648 7        42.250    42702531.896 6 224403343.29506          .916 6        41.000    42702528.463 6 224403320.12106          .923 6        41.500
R01  19635165.174 8 104961305.15308     -1918.396 8        50.250    19635165.175 8 104961288.15808     -1918.434 8        50.000    19635171.021 7  81636607.59907     -1492.080 7        44.750    19635170.332 7  81636594.59407     -1492.121 7        45.250
R02  19967712.007 8 106551621.29108      2283.917 8        52.500    19967712.276 8 106551605.29708      2283.894 8        53.000    19967716.543 8  82873530.00308      1776.392 8        49.750    19967716.535 8  82873526.00508      1776.357 8        49.500
R03  23974194.647 5 128335754.07605      4285.938 5        34.000    23974193.690 5 128335760.11405      4285.778 5        33.250    23974201.640 5  99816714.34505      3333.255 5        35.000    23974202.489 5  99816717.35305      3333.277 5        35.750
R08  23815779.072 5 127532419.15915     -4281.118 5        34.000    23815778.437 5 127532411.20315     -4281.591 5        32.500    23815781.388 5  99192013.24505     -3329.848 5        34.000    23815780.986 5  99192021.20905     -3329.969 5        34.500
R09  24285963.423 4                     -4378.414 4        26.000                                                                                                                                    24285986.156 4 100866585.17404     -3405.976 4        28.000
R10  21146488.700 7 112722706.59507     -2574.583 7        45.500    21146488.490 7 112722685.59707     -2574.645 7        44.750
R11  20263265.124 8 108280789.98308      1988.720 8        52.250    20263265.508 8 108280796.98808      1988.741 8        52.500    20263268.497 8  84218412.61808      1546.773 8        50.500    20263268.514 8  84218457.60908      1546.823 8        50.250    20263256.111 8  81246051.50708      1492.211 8        50.000
R12  23745934.338 7 126846576.52907      4683.807 7        42.000    23745934.785 6 126846528.53606      4683.756 6        41.250    23745941.470 6  98658445.38506      3643.044 6        40.500    23745942.186 6  98658442.39206      3642.927 6        41.750    23745927.368 6  95209882.68506      3515.653 6        38.500
R17  22397711.221 7 119854777.47307     -3803.940 7        45.500    22397711.105 7 119854774.48007     -3803.885 7        44.500    22397717.009 7  93220416.79907     -2958.598 7        43.000    22397717.251 7  93220428.78707     -2958.498 7        43.750
R18  21017291.125 8 112191793.61908      -460.026 8        48.750    21017291.403 8 112191808.62308      -460.083 8        48.750    21017296.731 8  87260333.92008      -357.752 8        48.000    21017296.574 7  87260335.92107      -357.823 7        47.750
R19  22383407.318 5 119736149.41905      2977.457 5        35.750    22383408.163 5 119736143.43205      2977.560 5        34.250    22383413.622 6  93128195.49806      2315.862 6        40.750    22383414.172 6  93128197.47106      2316.001 6        40.750
S23  40209279.649 6 211301248.61406         5.295 6        38.250    40209250.339 5 157789734.13915         4.031 5        32.000
S36  40294794.681 6 211750711.40006          .283 6        36.500    40294754.980 5 158125273.14315          .133 5        32.750
> 2024 03 30 00 08  0.0000000  0 56
C05                                                                                                                                                                                                  40969580.407 5 164967646.40005       -46.337 5        32.000
C06                                                                                                                                  38692975.362 6 201484565.70806     -1160.371 6        40.000    38692973.575 7 155800675.81807      -897.398 7        44.500    38692974.117 7 163722710.66507      -942.992 7        42.750
C09                                                                                                                                  38305455.854 7 199466629.70307      -779.487 7        43.250    38305455.350 8 154240298.49008      -602.707 8        48.250    38305454.756 7 162083000.94107      -633.385 7        45.000
C12                                                                                                                                  26609443.522 3                      2796.329 3        22.250    26609452.288 6 107145238.42806      2161.252 6        36.000    26609456.532 4 112593300.17604      2271.806 4        25.500
C16                                                                                                                                  39694387.078 6 206699122.22906     -1244.885 6        40.000    39694390.541 6 159832903.62506      -962.459 6        40.250    39694389.250 6 167959988.81006     -1011.433 6        37.500
C19  25726511.054 6 135193756.39206      3301.569 6        38.500    25726512.668 7 100956384.13907      2465.490 7        42.250    25726509.761 6 133964702.09406      3271.658 6        41.000                                                                    25726509.411 7 108857300.85407      2658.495 7        43.250    25726511.382 7 103590026.84507      2529.898 7        43.250
C20  22280970.446 8 117087350.35208      1233.252 8        51.250    22280968.564 8  87435409.89208       920.909 8        53.250    22280968.135 8 116022922.05508      1222.033 8        53.250                                                                    22280966.590 8  94278161.59908       992.971 8        52.750    22280967.537 8  89716324.46608       944.938 8        53.250
C23  23033951.477 8 121044285.79208       766.841 8        49.500    23033946.111 8  90390213.98608       572.603 8        52.000    23033949.120 8 119943869.29008       759.818 8        50.750                                                                    23033944.593 8  97464208.64408       617.426 8        52.000    23033944.803 8  92748202.46308       587.582 8        52.000
C25  24243180.738 7 127398799.28307     -2318.901 7        43.500    24243180.582 7  95135476.28707     -1731.671 7        44.750    24243178.346 7 126240606.22707     -2297.900 7        45.250                                                                    24243181.358 7 102580866.63407     -1867.162 7        47.000    24243179.993 7  97617267.13207     -1776.809 7        46.250
C29  26386077.572 4 138659829.72904     -3222.243 4        29.250    26386081.365 5 103544714.15805     -2406.034 5        31.500    26386077.448 5 137399270.83905     -3192.831 5        33.250                                                                    26386080.178 5 111648200.70505     -2594.394 5        32.250
C32  23012660.485 8 120932446.68508     -2254.333 8        49.500    23012662.516 8  90306778.46608     -1683.439 8        51.750    23012657.526 8 119833066.34408     -2233.812 8        51.000                                                                    23012661.450 8  97374248.03208     -1815.189 8        51.500    23012661.100 8  92662597.10308     -1727.335 8        51.500
C35  24600017.739 7 129274028.38307      -897.856 7        42.750    24600018.262 7  96535858.48907      -670.367 7        43.250    24600014.515 7 128098816.13907      -889.513 7        44.500                                                                    24600018.050 7 104090807.38007      -722.819 7        45.500    24600018.014 7  99054161.09307      -687.826 7        45.000
C37  25126730.088 6 132041882.42506      3320.994 6        41.500    25126735.088 7  98602742.15307      2479.914 7        44.500    25126726.770 7 130841504.51407      3290.896 7        42.750                                                                    25126735.341 7 106319476.12007      2674.108 7        45.250    25126733.784 7 101174983.16307      2544.588 7        44.500
C39  40409186.578 5 212351782.21105     -1445.478 5        34.500    40409185.894 5 158574399.40205     -1079.381 5        34.000    40409186.328 6 210421285.71006     -1432.213 6        38.000                                                                    40409186.196 6 170984555.90006     -1163.864 6        37.250    40409188.172 6 162711114.55206     -1107.519 6        37.500
C44  25336423.569 6 133143836.60706      1693.207 6        37.000    25336428.434 6  99425632.39106      1264.210 6        40.750    25336421.512 6 131933450.00706      1677.754 6        39.000                                                                    25336426.724 6 107206749.19206      1363.379 6        40.750    25336426.732 6 102019328.87606      1297.244 6        41.250
C48  23366582.015 7 122792274.26807      2460.069 7        45.750    23366598.050 8  91695621.25708      1837.032 8        50.000    23366579.108 8 121675965.99908      2437.639 8        48.000                                                                    23366580.108 8  98871717.67008      1980.763 8        50.500    23366597.976 8  94087673.63708      1884.937 8        50.250
C56                                                                                                                                  40027202.527 6 208432150.36006      1940.915 6        36.250                                                                    40027206.768 5 169368213.21505      1577.057 5        34.000
C57                                                                                                                                  23246512.899 7 121050726.19207       364.881 7        42.750                                                                    23246639.677 7  98364184.64007       296.479 7        44.000
E02  25387125.754 7 133410264.75807       481.272 7        45.500    25387125.835 8 108287560.50708       390.657 8        48.250    25387126.063 8  99624565.64008       359.468 8        48.000    25387124.339 8 102223450.82708       368.795 8        48.500    25387124.966 8 100924010.80808       364.130 8        51.250
E07  23557941.051 8 123797890.52008      -543.914 8        50.000    23557940.224 8 100485350.94008      -441.507 8        53.250    23557942.679 8  92446546.26008      -406.158 8        53.000    23557940.977 8  94858179.44508      -416.782 8        53.250    23557941.613 9  93652368.92709      -411.480 9        56.250
E08  26495576.895 6 139235286.45406     -2806.140 6        41.750    26495576.122 7 113015688.62107     -2277.706 7        45.000    26495577.432 7 103974463.73907     -2095.473 7        44.750    26495575.180 7 106686825.95707     -2150.147 7        44.250    26495575.946 7 105330650.42207     -2122.812 7        47.500
E10  27703876.367 6 145584875.16106      2653.228 6        38.000    27703878.675 6 118169573.53506      2153.683 6        39.750    27703879.578 6 108716005.36106      1981.321 6        39.750    27703878.820 7 111552068.56807      2032.971 7        42.250    27703879.111 7 110134046.53807      2007.146 7        44.000
E12  26389659.852 6 138678674.77206      1618.007 6        39.500    26389656.722 7 112563868.85707      1313.460 7        42.500    26389658.340 7 103558775.54707      1208.372 7        43.250    26389656.845 7 106260298.80607      1239.919 7        43.500    26389657.440 7 104909536.75107      1224.141 7        46.500
E18  22346041.167 6 117429256.97306      2033.803 6        37.000    22346042.245 6  95315964.86106      1650.802 6        40.750    22346044.963 6  87690706.41106      1518.766 6        40.750    22346042.560 6  89978278.58706      1558.457 6        41.000    22346043.647 7  88834501.57307      1538.594 7        44.000
E25  27116518.575 6 142498250.43206     -2170.669 6        37.750    27116519.175 6 115664166.67006     -1761.806 6        41.000    27116523.123 6 106411047.11406     -1620.855 6        41.250    27116521.140 6 109186962.09306     -1663.201 6        41.750    27116521.901 7 107799008.17707     -1642.030 7        44.500
E26  27274242.214 5 143327168.62605     -3294.580 5        35.000    27274242.023 6 116337010.80206     -2674.163 6        38.500    27274242.738 6 107030070.20006     -2460.311 6        40.750    27274240.164 6 109822143.04706     -2524.510 6        40.500    27274241.440 7 108426103.19907     -2492.399 7        43.500
E30  26795371.276 6 140810651.17106      2905.144 6        38.750    26795371.021 7 114294369.62007      2358.011 7        43.750    26795373.087 7 105150829.28807      2169.418 7        42.500    26795371.242 7 107893887.89507      2226.003 7        43.250    26795372.111 7 106522365.16507      2197.716 7        46.000
E33  25210434.789 7 132481797.43907     -1508.281 7        45.750    25210434.392 8 107533976.16308     -1224.248 8        48.750    25210435.004 8  98931275.64308     -1126.304 8        49.250    25210433.289 8 101512079.80408     -1155.724 8        49.500    25210433.719 8 100221681.79708     -1141.013 8        52.500
G04  22933828.428 7 120518167.49707     -3330.413 7        42.750    22933828.232 4        29.750    22933828.325 4  93910291.21404     -2595.128 4        29.750    22933828.084 7  93910283.21207     -2595.045 7        42.500    22933831.146 7  89997387.97707     -2487.013 7        46.750    22933828.351 7 120518180.50607     -3330.409 7        42.500
G05  23731162.499 6 124708141.58306      3525.017 6        41.000    23731162.307 5        35.250    23731161.528 5  97175204.92405      2746.768 5        35.250    23731161.716 6  97175174.93206      2746.836 6        38.500
G06  24350609.871 6 127963356.56306     -3726.899 6        37.250    24350609.742 5        31.000    24350613.099 5  99711742.44905     -2904.080 5        31.000    24350613.448 6  99711743.46106     -2904.214 6        37.250    24350612.606 7  95557096.52707     -2783.267 7        42.750
G07  22267476.624 7 117016425.16607      2416.291 7        47.500    22267476.209 7        46.500    22267474.657 7  91181643.84307      1882.822 7        46.500    22267474.987 7  91181631.84907      1882.949 7        43.750
G09  20557729.434 8 108031664.00108     -1246.365 8        51.500    20557729.077 9        56.000    20557729.430 9  84180550.10509      -971.194 9        56.000    20557729.832 8  84180562.11008      -971.239 8        48.250    20557728.695 9  80673060.28109      -930.735 9        55.000
G11  22723648.995 7 119413664.29307     -2189.920 7        45.000    22723648.875 5        33.750    22723648.408 5  93049636.74205     -1706.434 5        33.750    22723648.574 7  93049627.74107     -1706.422 7        44.250    22723651.345 8  89172587.88008     -1635.286 8        49.000    22723649.109 7 119413661.28907     -2189.983 7        44.500
G16  22328252.853 7 117335777.37207       387.066 7        45.000    22328252.022 5        32.500    22328251.368 5  91430475.16405       301.609 5        32.500
G20  21534556.710 8 113164936.20408      1645.576 8        48.750    21534555.660 6        39.000    21534554.331 6  88180489.72106      1282.263 6        39.000
G26  23483887.822 6 123408660.98006     -2271.802 6        39.750    23483887.371 5        34.500    23483890.513 5  96162606.36505     -1770.234 5        34.500    23483890.701 6  96162604.36206     -1770.344 6        38.750    23483888.433 7  92155818.03107     -1696.564 7        44.500
G29  23909077.575 7 125643109.90307     -1177.622 7        42.000    23909077.200 6        37.250    23909078.111 6  97903728.69306      -917.626 6        37.250    23909078.393 6  97903732.70006      -917.775 6        39.250
G30  24403201.482 6 128239701.73506      3670.455 6        37.000    24403200.691 4        28.750    24403204.115 4  99927052.69104      2860.093 4        28.750    24403205.626 5  99927059.68505      2860.301 5        35.500    24403201.793 6  95763431.44206      2740.915 6        40.750
I01  26568803.092 5 104261874.20005     -2880.012 5        34.250
I06  39677206.094 6 155701953.41106         2.536 6        37.250
I09  39370584.811 6 154498805.57906      -706.987 6        37.500
J02  42702529.312 6 224403318.13006          .088 6        40.750    42702530.560 6 174859743.13206         -.044 6        39.750    42702530.930 7 167573921.41507          .001 7        42.750    42702529.146 6 224403329.14006         -.039 6        41.000    42702526.129 6 224403305.96006         -.043 6        41.500
R01  19645987.332 8 105019155.95708     -1938.355 8        50.250    19645987.333 8 105019138.96908     -1938.340 8        50.000    19645993.255 7  81681602.66807     -1507.609 7        44.500    19645992.589 7  81681589.66007     -1507.593 7        45.000
R02  19954922.134 8 106483371.38908      2266.107 8        53.000    19954922.429 8 106483355.39308      2266.121 8        53.000    19954926.554 8  82820446.73308      1762.537 8        49.750    19954926.165 8  82820442.73608      1762.555 8        49.750
R03  23950179.029 5 128207199.77905      4284.507 5        35.500    23950179.400 5 128207205.79805      4284.390 5        33.750    23950187.408 5  99716727.64705      3332.337 5        35.250    23950186.670 5  99716730.65105      3332.209 5        35.000
R08  23839773.266 5 127660905.87605     -4284.747 5        33.500    23839772.189 5 127660897.85905     -4284.413 5        32.250    23839774.563 5  99291947.26505     -3332.089 5        30.250    23839773.714 5  99291955.27305     -3332.365 5        31.500
R09  24310569.223 3                     -4386.629 3        21.000                                                                                                                                    24310612.781 4 100968815.75604     -3408.929 4        25.750
R10  21161041.694 7 112800279.01807     -2596.826 7        45.750    21161041.198 7 112800258.02707     -2596.835 7        45.000
R11  20252171.198 8 108221506.87208      1963.447 8        52.250    20252171.390 8 108221513.88408      1963.405 8        52.750    20252174.687 8  84172303.54008      1527.138 8        50.500    20252174.490 8  84172348.53808      1527.131 8        50.500    20252162.055 8  81201569.75308      1473.182 8        49.750
R12  23719638.640 7 126706111.63907      4680.645 7        42.000    23719639.225 6 126706063.67006      4680.417 6        41.250    23719645.571 6  98549194.99506      3640.489 6        39.000    23719645.553 6  98549192.00206      3640.331 6        40.000    23719631.741 6  95104451.07606      3513.449 6        38.250
R17  22419078.740 7 119969120.80207     -3818.961 7        44.500    22419078.686 7 119969117.80907     -3818.976 7        43.750    22419084.702 7  93309350.47407     -2970.282 7        42.500    22419084.546 7  93309362.47507     -2970.378 7        43.000
R18  21019958.444 8 112206030.70308      -489.066 8        49.000    21019958.649 8 112206045.70808      -489.079 8        49.000    21019963.736 7  87271407.17107      -380.422 7        47.750    21019963.772 7  87271409.17107      -380.418 7        47.500
R19  22366768.768 6 119647139.39506      2956.286 6        36.000    22366768.414 5 119647133.39305      2956.292 5        34.750    22366774.017 6  93058965.49206      2299.449 6        41.000    22366773.986 6  93058967.47906      2299.465 6        40.750
S23  40209249.309 6 211301088.15906         5.341 6        38.250
S36  40294790.353 6 211750693.33806          .580 6        36.250
> 2024 03 30 00 08 30.0000000  0 55
C05                                                                                                                                                                                                  40969927.047 5 164969042.24305       -46.402 5        32.750
C06                                                                                                                                  38699666.068 6 201519404.32906     -1162.043 6        40.250    38699663.910 7 155827615.24807      -898.701 7        43.750    38699664.550 7 163751019.88807      -944.336 7        42.750
C09                                                                                                                                  38309952.280 7 199490044.92907      -781.596 7        43.250    38309952.005 7 154258404.64107      -604.396 7        47.750    38309951.210 7 162102027.74207      -635.079 7        44.500
C12                                                                                                                                  26593374.097 4                      2785.036 4        28.750    26593376.563 5 107080511.68505      2153.863 5        34.250    26593376.063 4                      2263.861 4        27.250
C16                                                                                                                                  39701562.235 6 206736485.55006     -1246.038 6        40.250    39701565.886 6 159861795.34506      -963.426 6        39.750    39701564.630 6 167990349.57406     -1012.391 6        38.250
C19  25707674.442 6 135094770.95106      3297.372 6        38.250    25707676.450 7 100882466.51707      2462.295 7        42.500    25707673.253 6 133866616.53906      3267.467 6        41.250                                                                    25707673.175 7 108777598.35007      2654.971 7        43.000    25707674.891 7 103514180.95107      2526.425 7        43.250
C20  22273970.882 8 117050567.29108      1218.984 8        51.000    22273969.035 8  87407942.01808       910.301 8        52.750    22273968.391 8 115986473.39308      1207.900 8        53.250                                                                    22273966.972 8  94248544.06908       981.538 8        52.500    22273967.901 8  89688140.04108       934.048 8        53.000
C23  23029623.112 8 121021540.32208       749.568 8        49.250    23029617.844 8  90373228.74508       559.675 8        52.000    23029621.099 8 119921330.59908       742.699 8        51.500                                                                    23029616.478 8  97445894.12208       603.491 8        52.250    23029616.603 8  92730774.13208       574.324 8        52.000
C25  24256455.174 7 127468555.20807     -2331.531 7        43.500    24256455.197 7  95187566.69307     -1741.048 7        45.250    24256452.881 7 126309727.99707     -2310.271 7        45.750                                                                    24256455.155 7 102637033.70607     -1877.297 7        47.000    24256453.813 7  97670716.41907     -1786.458 7        45.500
C29  26404490.315 5 138756569.15305     -3227.264 5        30.250    26404489.711 5 103616954.55505     -2410.121 5        31.500    26404484.703 5 137495130.83605     -3197.931 5        30.250                                                                    26404489.160 5 111726094.80205     -2598.606 5        33.250
C32  23025563.308 8 121000250.29008     -2265.914 8        49.500    23025565.168 8  90357411.02308     -1692.055 8        51.750    23025559.807 8 119900253.56308     -2245.368 8        51.000                                                                    23025564.013 8  97428843.14308     -1824.505 8        51.750    23025563.601 8  92714550.52008     -1736.242 8        51.500
C35  24605192.251 7 129301219.84507      -915.120 7        43.000    24605192.976 7  96556163.78807      -683.309 7        43.500    24605189.421 7 128125760.41307      -906.844 7        45.250                                                                    24605192.308 7 104112701.79607      -736.804 7        45.500    24605192.186 7  99074996.09207      -701.152 7        44.750
C37  25107790.482 6 131942352.61306      3314.370 6        41.500    25107795.061 7  98528418.01507      2474.960 7        44.500    25107786.833 7 130742879.53007      3284.222 7        43.250                                                                    25107795.162 7 106239335.28807      2668.670 7        45.250    25107794.079 7 101098720.12007      2539.556 7        44.750
C39  40417440.477 5 212395149.51005     -1445.744 5        35.000    40417439.861 5 158606784.05205     -1079.806 5        35.000    40417437.960 6 210464258.77806     -1432.580 6        37.750                                                                    40417439.895 6 171019475.02006     -1164.078 6        38.000    40417439.983 6 162744344.02706     -1107.807 6        36.500
C44  25326800.874 6 133093271.55706      1677.851 6        36.750    25326806.535 6  99387872.89506      1252.901 6        41.000    25326800.158 6 131883344.63606      1662.494 6        40.750                                                                    25326804.029 6 107166034.57806      1350.893 6        40.750    25326803.823 6 101980584.34806      1285.552 6        40.500
C48  23352566.948 7 122718624.22107      2449.982 7        45.000    23352582.773 8  91640622.87108      1829.536 8        49.000    23352564.082 7 121602985.49007      2427.714 7        47.750                                                                    23352565.122 8  98812415.06308      1972.679 8        49.750    23352582.641 8  94031240.51208      1877.239 8        49.250
C56                                                                                                                                  40016025.451 6 208373949.08706      1939.187 6        36.500                                                                    40016030.180 5 169320919.93405      1575.704 5        34.750
C57                                                                                                                                  23244463.438 7 121040054.13607       346.593 7        43.250                                                                    23244590.033 7  98355512.78607       281.508 7        43.750
E02  25384422.144 7 133396058.06007       465.837 7        45.500    25384422.511 8 108276029.09008       378.083 8        49.250    25384422.430 8  99613956.72408       347.854 8        48.500    25384420.800 8 102212565.15708       356.953 8        49.250    25384421.566 8 100913263.51508       352.405 8        52.000
E07  23561078.887 8 123814380.13008      -555.380 8        50.000    23561077.837 8 100498735.37508      -450.861 8        53.250    23561080.582 8  92458859.95008      -414.769 8        53.250    23561078.818 8  94870814.35408      -425.552 8        53.500    23561079.440 9  93664843.22509      -420.150 9        56.500
E08  26511608.994 6 139319536.30306     -2810.600 6        41.000    26511608.463 7 113084073.23707     -2281.299 7        45.250    26511609.849 7 104037377.57607     -2098.871 7        45.000    26511607.508 7 106751381.04407     -2153.535 7        44.500    26511608.359 8 105394384.88508     -2126.203 8        48.000
E10  27688754.274 6 145505410.35706      2644.528 6        37.250    27688757.101 6 118105072.96806      2146.337 6        39.500    27688758.688 6 108656664.84006      1974.632 6        40.750    27688756.651 7 111491180.04307      2026.240 7        42.000    27688757.551 7 110073932.01607      2000.439 7        44.250
E12  26380461.183 6 138630335.51906      1604.384 6        39.000    26380458.107 7 112524632.54707      1302.326 7        43.000    26380459.582 7 103522678.18207      1198.249 7        43.750    26380458.069 7 106223259.75207      1229.467 7        43.500    26380458.660 7 104872968.54107      1213.850 7        46.500
E18  22334528.809 6 117368753.01006      1999.630 6        37.750    22334527.450 6  95266854.52106      1623.035 6        38.000    22334531.179 6  87645524.89206      1493.303 6        40.000    22334529.849 6  89931918.44706      1532.240 6        41.250    22334530.167 7  88788730.74407      1512.766 7        43.750
E25  27128941.235 6 142563534.08606     -2181.542 6        38.000    27128942.045 6 115717156.51806     -1770.766 6        40.750    27128946.534 6 106459797.71406     -1629.057 6        41.250    27128944.448 6 109236984.46406     -1671.687 6        41.250    27128945.155 7 107848394.66207     -1650.384 7        44.250
E26  27293062.612 5 143426068.82205     -3298.480 5        34.750    27293062.130 6 116417286.92306     -2677.577 6        38.750    27293063.064 6 107103924.20906     -2463.259 6        40.500    27293060.754 6 109897923.68106     -2527.384 6        41.000    27293061.542 7 108500920.51907     -2495.309 7        43.750
E30  26778806.696 6 140723604.36906      2898.044 6        38.000    26778806.557 7 114223714.80407      2352.353 7        43.750    26778808.368 7 105085826.89307      2164.111 7        43.000    26778806.814 7 107827189.77907      2220.579 7        43.750    26778807.687 7 106456514.90907      2192.355 7        46.250
E33  25219085.863 7 132527259.70407     -1522.607 7        45.250    25219085.805 8 107570877.40308     -1235.897 8        49.000    25219086.091 8  98965224.79008     -1136.955 8        49.000    25219084.139 8 101546914.56808     -1166.699 8        49.250    25219084.798 8 100256073.75308     -1151.829 8        52.250
G04  22952863.893 7 120618197.30907     -3338.164 7        43.500    22952863.710 5        30.500    22952863.249 5  93988236.51305     -2601.168 5        30.500    22952863.602 7  93988228.52407     -2601.219 7        43.000    22952865.868 7  90072085.54907     -2492.811 7        46.500    22952864.044 7 120618210.32607     -3338.306 7        43.750
G05  23711063.526 7 124602518.64707      3516.500 7        42.000    23711063.339 6        36.000    23711061.965 6  97092901.31406      2740.132 6        36.000    23711062.635 6  97092871.32306      2739.974 6        38.500
G06  24371902.530 6 128075247.61606     -3732.218 6        38.250    24371902.405 5        31.500    24371904.891 5  99798930.25205     -2908.224 5        31.500    24371905.199 6  99798931.25806     -2908.113 6        36.750    24371904.434 7  95640651.49307     -2787.059 7        42.500
G07  22253716.337 7 116944114.75507      2404.382 7        47.500    22253715.917 7        46.750    22253714.566 7  91125298.09807      1873.543 7        46.750    22253715.076 7  91125286.10607      1873.586 7        44.250
G09  20564894.065 8 108069313.99808     -1263.658 8        51.500    20564893.708 9        56.000    20564894.038 9  84209887.77609      -984.669 9        56.000    20564894.377 8  84209899.78008      -984.682 8        48.000    20564893.107 9  80701175.54809      -943.635 9        55.000
G11  22736198.876 7 119479613.50707     -2206.696 7        45.000    22736198.756 5        33.500    22736198.053 5  93101025.72205     -1719.502 5        33.500    22736197.950 7  93101016.72707     -1719.612 7        44.000    22736201.026 8  89221835.66008     -1647.887 8        48.750    22736198.883 7 119479610.51107     -2206.702 7        45.000
G16  22326108.947 7 117324514.19007       363.771 7        44.000    22326108.125 5        32.000    22326108.280 5  91421698.68205       283.455 5        32.000
G20  21525212.200 8 113115830.50008      1628.040 8        48.500    21525211.150 6        39.000    21525209.888 6  88142225.49206      1268.599 6        39.000
G26  23496904.563 6 123477065.96206     -2288.486 6        40.000    23496904.098 5        34.750    23496907.715 5  96215908.89605     -1783.234 5        34.750    23496907.773 6  96215906.89206     -1783.235 6        39.500    23496905.742 7  92206899.60207     -1708.873 7        45.500
G29  23915858.482 7 125678739.36407     -1197.599 7        42.500    23915858.116 6        37.750    23915857.883 6  97931491.86506      -933.193 6        37.750    23915858.097 6  97931495.87406      -933.261 6        38.750
G30  24382259.603 6 128129646.66506      3666.306 6        37.500    24382258.848 4        29.500    24382261.848 4  99841295.52304      2856.864 4        29.500    24382261.995 6  99841302.51606      2856.961 6        36.250    24382259.517 6  95681247.50706      2737.810 6        41.500
I01  26590821.223 5 104348281.16305     -2880.818 5        33.000
I06  39677188.440 6 155701882.32206         2.191 6        37.500
I09  39375991.762 6 154520024.65706      -707.707 6        38.000
J02  42702532.214 6 224403333.77106        -1.041 6        40.750    42702533.775 6 174859755.30306         -.811 6        40.000    42702534.060 7 167573933.08607         -.723 7        42.750    42702532.177 6 224403344.76806        -1.056 6        40.750    42702528.727 6 224403321.58706        -1.042 6        41.250
R01  19656921.366 8 105077605.40008     -1958.262 8        50.250    19656921.322 8 105077588.41108     -1958.292 8        49.750    19656927.311 7  81727063.33407     -1523.129 7        45.000    19656926.967 7  81727050.32507     -1523.103 7        45.000
R02  19942232.022 8 106415655.54608      2248.290 8        52.500    19942232.398 8 106415639.54808      2248.288 8        52.500    19942236.733 8  82767778.79208      1748.663 8        49.500    19942236.536 8  82767774.79308      1748.644 8        49.000
R03  23926174.138 6 128078698.39906      4282.414 6        37.500    23926175.149 6 128078704.42306      4282.459 6        36.000    23926180.845 5  99616782.37105      3330.947 5        35.750    23926181.668 6  99616785.38706      3330.686 6        36.250
R08  23863783.018 5 127789485.60305     -4287.366 5        31.500    23863782.772 5 127789477.59805     -4287.604 5        30.500                                                                    23863783.993 4  99391961.66204     -3334.818 4        28.000
R10  21175718.923 7 112878516.10207     -2618.919 7        45.500    21175718.288 7 112878495.10407     -2618.981 7        44.750
R11  20241220.011 8 108162985.93708      1937.961 8        52.500    20241220.217 8 108162992.94408      1937.960 8        52.750    20241223.013 8  84126787.26108      1507.344 8        50.500    20241222.888 8  84126832.26008      1507.314 8        50.250    20241210.622 8  81157659.87808      1454.121 8        50.000
R12  23693361.937 7 126565748.93807      4677.002 7        42.250    23693362.675 7 126565700.93507      4677.070 7        42.000    23693369.440 6  98440024.08206      3637.687 6        40.000    23693368.707 6  98440021.08006      3637.670 6        40.250    23693355.159 6  94999096.17806      3510.429 6        38.250
R17  22440530.258 7 120083914.04907     -3833.909 7        45.500    22440530.929 7 120083911.06207     -3833.811 7        44.500    22440536.659 7  93398634.09707     -2981.779 7        42.000    22440536.475 7  93398646.09407     -2981.856 7        42.750
R18  21022788.337 8 112221138.82608      -518.081 8        48.750    21022788.502 8 112221153.82608      -518.051 8        48.500    21022794.103 8  87283157.90608      -402.950 8        48.000    21022793.670 7  87283159.90407      -402.913 7        47.750
R19  22350249.557 6 119558769.31806      2934.964 6        36.500    22350248.850 5 119558763.35205      2934.909 5        35.000    22350254.300 6  92990233.36306      2282.728 6        40.750    22350254.770 6  92990235.35906      2282.684 6        41.000
S23  40209219.376 6 211300926.42706         5.404 6        38.250    40209189.234 5 157789493.76215         3.822 5        32.000
S36  40294785.626 6 211750675.20306          .555 6        36.500    40294747.990 5 158125242.58015          .148 5        32.750
