     2.11           Observation data    M (MIXED)           RINEX VERSION / TYPE
gl_Rinex            RinexArchive        02/02/2018 00:05:06 PGM / RUN BY / DATE 
TRDS                                                        MARKER NAME         
10331M001                                                   MARKER NUMBER       
                    Norwegian Mapping Authority             OBSERVER / AGENCY   
5547R50473          TRIMBLE NETR9       5.20                REC # / TYPE / VERS 
30318098            TRM55971.00     NONE                    ANT # / TYPE        
  2820171.1098   513485.9023  5678935.7406                  APPROX POSITION XYZ 
         5.546         0.007         0.018                  ANTENNA: DELTA H/E/N
    30.000                                                  INTERVAL            
     1     1                                                WAVELENGTH FACT L1/2
     0                                                      RCV CLOCK OFFS APPL 
    14    C1    C2    C5    P1    P2    L1    L2    L5    D1# / TYPES OF OBSERV 
          D2    D5    S1    S2    S5                        # / TYPES OF OBSERV 
  2018     2     1     0     0    0.0000000     GPS         TIME OF FIRST OBS   
  2018     2     1    23    59   30.0000000     GPS         TIME OF LAST OBS    
                                                            END OF HEADER       
 18  2  1  0  0  0.0000000  0 20G15G16G21G27G30G08G10G13G26G20G07R06 0.000000002
                                R13R21R04R05R12R11R20R22
  24236245.742    24236247.152           0.000    24236246.177    24236247.500  
 127362289.44018  99243378.71651         0.000        2293.062        1786.802  
         0.000          45.200          23.200           0.000  
  21119353.719           0.000           0.000    21119353.350    21119355.766  
 110982860.19619  86480229.61755         0.000       -1784.992       -1390.903  
         0.000          49.300          38.000           0.000  
  21756232.172           0.000           0.000    21756231.607    21756234.426  
 114329596.63619  89088169.94955         0.000       -1440.242       -1122.267  
         0.000          49.600          38.600           0.000  
  20759442.742    20759446.938    20759444.887    20759442.738    20759446.922  
 109091615.47519  85006476.40457  81464534.18319      1755.809        1368.163  
         0.000          52.400          43.200          54.300  
  24355256.750    24355260.359    24355260.688    24355256.623    24355260.113  
 127987744.95016  99730708.43351  95575266.73516      2000.191        1558.591  
         0.000          39.200          14.800          40.500  
  23690890.547    23690893.223    23690892.832    23690890.425    23690892.871  
 124496458.01118  97010247.09952  92968145.71718      3426.098        2669.686  
         0.000          45.800          27.600          47.400  
  23880867.234           0.000           0.000    23880867.525           0.000  
 125494696.62313         0.000           0.000        3671.629           0.000  
         0.000          30.100           0.000           0.000  
  24137928.531           0.000           0.000    24137928.699    24137932.289  
 126845590.47717  98840803.06251         0.000        1539.680        1199.750  
         0.000          42.000          22.000           0.000  
  22837288.734    22837294.723    22837293.152    22837288.757    22837295.043  
 120010882.87518  93514897.37554  89618405.98119     -3316.531       -2584.310  
         0.000          45.900          34.000          49.100  
  22172594.367           0.000           0.000    22172593.754    22172597.754  
 116517825.21318  90793089.08753         0.000       -1607.590       -1252.667  
         0.000          45.400          30.400           0.000  
  23494924.453    23494926.445           0.000    23494924.631    23494926.660  
 123466751.00417  96207812.40553         0.000         658.074         512.785  
         0.000          44.600          28.200           0.000  
  22893676.672    22893679.012           0.000    22893675.918    22893678.297  
 122165039.20516  95017229.70053         0.000        4290.629        3337.156  
         0.000          39.000          31.900           0.000  
  22451797.836    22451801.504           0.000    22451797.008    22451801.582  
 119891392.75714  93248819.30554         0.000        3321.035        2583.027  
         0.000          33.500          33.800           0.000  
  19171158.078    19171158.777           0.000    19171156.285    19171159.430  
 102588760.74219  79791245.80358         0.000        -371.094        -288.628  
         0.000          50.300          48.100           0.000  
  22291299.797    22291300.227           0.000    22291298.371    22291301.066  
 119368918.74018  92842505.18956         0.000       -2861.789       -2225.836  
         0.000          45.800          41.700           0.000  
  20937846.906    20937849.117           0.000    20937845.746    20937848.477  
 111924782.91417  87052654.47455         0.000         917.070         713.277  
         0.000          44.700          36.000           0.000  
  20538209.898           0.000           0.000    20538208.562           0.000  
 109711433.66519         0.000           0.000       -1136.492           0.000  
         0.000          49.200           0.000           0.000  
  22275651.289    22275654.523           0.000    22275652.125    22275654.594  
 119034328.06618  92582255.21756         0.000       -4137.434       -3218.004  
         0.000          46.800          41.100           0.000  
  22055136.320    22055140.598           0.000    22055135.434    22055139.590  
 117938686.17317  91730133.01357         0.000       -3682.496       -2864.164  
         0.000          42.300          43.000           0.000  
  21255724.133    21255726.195           0.000    21255722.812    21255726.383  
 113464531.80019  88250200.01358         0.000        3347.121        2603.316  
         0.000          49.800          45.200           0.000  
 18  2  1  0  0 30.0000000  0 19G15G16G21G27G30G08G13G26G20G07R06R13 0.000000000
                                R21R04R05R12R11R20R22
  24223196.383    24223199.492           0.000    24223196.817    24223199.430  
 127293719.12907  99189947.26542         0.000        2278.410        1775.385  
         0.000          44.700          26.700           0.000  
  21129597.031           0.000           0.000    21129596.662    21129598.551  
 111036686.33909  86522172.06245         0.000       -1803.309       -1405.176  
         0.000          49.800          38.300           0.000  
  21764488.180           0.000           0.000    21764487.614    21764489.785  
 114372982.60409  89121977.19345         0.000       -1452.105       -1131.511  
         0.000          49.800          38.800           0.000  
  20749462.289    20749466.332    20749464.492    20749462.285    20749466.234  
 109039167.88309  84965608.15047  81425368.76409      1740.766        1356.441  
         0.000          52.700          43.200          54.200  
  24343883.383    24343888.227    24343888.246    24343883.256    24343887.801  
 127927985.50805  99684142.66041  95530641.16106      1983.746        1545.776  
         0.000          38.200          14.800          40.900  
  23671346.352    23671349.449    23671349.352    23671346.230    23671349.730  
 124393756.60507  96930220.03543  92891453.13508      3420.715        2665.492  
         0.000          44.100          28.900          46.800  
  24129190.609           0.000           0.000    24129190.777    24129195.719  
 126799676.39206  98805025.87341         0.000        1521.262        1185.399  
         0.000          40.500          21.300           0.000  
  22856250.039    22856256.590    22856254.527    22856250.061    22856256.934  
 120110526.64608  93592541.82144  89692815.25408     -3326.434       -2592.026  
         0.000          45.000          33.100          48.500  
  22181826.453           0.000           0.000    22181825.840    22181828.023  
 116566334.24708  90830888.32743         0.000       -1626.160       -1267.138  
         0.000          46.000          31.700           0.000  
  23491221.969    23491225.898           0.000    23491222.147    23491225.992  
 123447304.02207  96192658.94042         0.000         638.430         497.478  
         0.000          43.300          27.900           0.000  
  22869578.586    22869581.043           0.000    22869577.316    22869580.914  
 122036448.94705  94917215.06644         0.000        4282.078        3330.505  
         0.000          38.500          33.500           0.000  
  22433194.414    22433195.734           0.000    22433191.426    22433195.133  
 119792036.08304  93171541.97344         0.000        3302.859        2568.891  
         0.000          35.200          33.100           0.000  
  19173295.438    19173294.797           0.000    19173293.547    19173295.852  
 102600195.02709  79800139.13148         0.000        -391.098        -304.187  
         0.000          50.700          47.600           0.000  
  22307390.727    22307391.977           0.000    22307389.605    22307392.066  
 119455085.20708  92909523.51446         0.000       -2882.477       -2241.926  
         0.000          45.200          41.000           0.000  
  20932778.734    20932780.805           0.000    20932777.809    20932779.812  
 111897691.48408  87031583.32944         0.000         889.078         691.505  
         0.000          45.000          35.500           0.000  
  20544669.656           0.000           0.000    20544668.555           0.000  
 109745943.95908         0.000           0.000       -1164.145           0.000  
         0.000          48.200           0.000           0.000  
  22298913.672    22298915.266           0.000    22298913.547    22298915.309  
 119158627.85408  92678932.78646         0.000       -4149.141       -3227.109  
         0.000          46.400          40.600           0.000  
  22075817.602    22075820.496           0.000    22075816.527    22075819.695  
 118049274.35407  91816146.05146         0.000       -3689.977       -2869.982  
         0.000          42.000          41.600           0.000  
  21236942.633    21236945.961           0.000    21236941.949    21236946.172  
 113364282.30808  88172228.20547         0.000        3336.312        2594.910  
         0.000          48.900          44.500           0.000  
 18  2  1  0  1  0.0000000  0 20G15G16G21G27G30G08G10G13G26G20G07R06 0.000000002
                                R13R21R04R05R12R11R20R22
  24210233.375    24210234.844           0.000    24210233.810    24210235.602  
 127225590.96607  99136860.42342         0.000        2263.496        1763.763  
         0.000          44.700          27.000           0.000  
  21139945.664           0.000           0.000    21139945.295    21139946.891  
 111091066.08209  86564545.88545         0.000       -1821.859       -1419.631  
         0.000          50.200          38.700           0.000  
  21772812.727           0.000           0.000    21772812.161    21772813.512  
 114416726.65808  89156063.45846         0.000       -1464.188       -1140.925  
         0.000          48.900          39.200           0.000  
  20739567.656    20739571.875    20739570.680    20739567.652    20739571.953  
 108987174.18409  84925093.58247  81386542.32409      1725.512        1344.555  
         0.000          52.100          43.200          54.300  
  24332606.086    24332609.168    24332608.969    24332605.959    24332609.098  
 127868718.04805  99637960.16541  95486382.98206      1967.316        1532.974  
         0.000          37.000          14.800          40.100  
  23651833.648    23651838.469    23651837.281    23651833.527    23651837.672  
 124291218.68707  96850320.37843  92814882.61908      3415.160        2661.164  
         0.000          44.100          28.100          46.900  
  23839006.836           0.000    23839014.492    23839007.127           0.000  
 125274747.27804         0.000    93549396.64804      3659.879           0.000  
         0.000          32.300           0.000          32.600  
  24120559.844           0.000           0.000    24120560.011    24120562.020  
 126754316.49106  98769680.48341         0.000        1502.734        1170.962  
         0.000          39.200          18.600           0.000  
  22875269.875    22875275.289    22875273.309    22875269.897    22875275.715  
 120210469.40908  93670419.28744  89767447.80308     -3336.430       -2599.815  
         0.000          46.000          34.600          48.200  
  22191163.938           0.000           0.000    22191163.324    22191166.680  
 116615401.74008  90869122.73743         0.000       -1644.945       -1281.776  
         0.000          46.400          31.900           0.000  
  23487636.047    23487638.754           0.000    23487636.225    23487639.016  
 123428447.96408  96177965.91743         0.000         618.668         482.079  
         0.000          45.600          29.300           0.000  
  22845530.766    22845532.590           0.000    22845530.035    22845533.750  
 121908124.13306  94817406.86844         0.000        4273.031        3323.469  
         0.000          40.100          34.400           0.000  
  22414689.758    22414694.270           0.000    22414688.766    22414693.598  
 119693231.15805  93094693.70144         0.000        3284.223        2554.395  
         0.000          36.900          34.900           0.000  
  19175543.695    19175544.160           0.000    19175542.324    19175545.047  
 102612230.25909  79809499.87348         0.000        -411.266        -319.873  
         0.000          50.300          48.200           0.000  
  22323598.859    22323597.504           0.000    22323596.590    22323597.664  
 119541872.19808  92977024.50246         0.000       -2903.172       -2258.023  
         0.000          46.000          39.100           0.000  
  20927867.844    20927871.090           0.000    20927866.188    20927869.273  
 111871440.91107  87011166.23344         0.000         860.918         669.603  
         0.000          44.500          35.300           0.000  
  20551286.711           0.000           0.000    20551285.633           0.000  
 109781288.53209         0.000           0.000       -1192.105           0.000  
         0.000          49.300           0.000           0.000  
  22322240.062    22322241.914           0.000    22322239.844    22322242.215  
 119283277.73408  92775882.63546         0.000       -4160.781       -3236.163  
         0.000          46.800          40.900           0.000  
  22096540.875    22096543.254           0.000    22096539.121    22096542.547  
 118160087.60606  91902334.12046         0.000       -3697.508       -2875.839  
         0.000          41.800          41.400           0.000  
  21218224.086    21218226.336           0.000    21218223.543    21218226.781  
 113264359.60609  88094510.54347         0.000        3325.215        2586.278  
         0.000          49.900          43.900           0.000  
 18  2  1  0  1 30.0000000  0 20G15G16G21G27G30G08G10G13G26G20G07R06 0.000000002
                                R13R21R04R05R12R11R20R22
  24197352.117    24197354.512           0.000    24197352.552    24197354.344  
 127157906.85707  99084119.59442         0.000        2248.730        1752.258  
         0.000          44.200          24.700           0.000  
  21150398.242           0.000           0.000    21150397.873    21150399.527  
 111145997.07609  86607349.24145         0.000       -1840.293       -1433.995  
         0.000          50.500          38.600           0.000  
  21781204.203           0.000           0.000    21781203.638    21781205.340  
 114460826.41409  89190426.90045         0.000       -1475.980       -1150.115  
         0.000          49.100          38.100           0.000  
  20729759.672    20729764.395    20729762.977    20729759.668    20729764.496  
 108935635.03509  84884933.20647  81348055.29809      1710.305        1332.705  
         0.000          51.400          42.600          54.500  
  24321424.148    24321425.520    24321423.645    24321424.022    24321425.754  
 127809943.89905  99592162.17841  95442493.23506      1950.977        1520.241  
         0.000          36.400          15.600          39.700  
  23632352.133    23632357.047    23632355.871    23632352.011    23632357.094  
 124188845.55407  96770549.12142  92738435.15208      3409.609        2656.838  
         0.000          42.700          27.600          47.200  
  23818127.992           0.000    23818133.277    23818128.283           0.000  
 125165034.30614         0.000    93467468.13804      3653.730           0.000  
         0.000          32.600           0.000          33.800  
  24112033.492           0.000           0.000    24112033.660    24112036.078  
 126709511.73806  98734767.73741         0.000        1484.020        1156.379  
         0.000          39.000          19.600           0.000  
  22894344.016    22894350.496    22894348.527    22894344.038    22894350.441  
 120310707.95708  93748527.20544  89842301.23908     -3346.227       -2607.449  
         0.000          46.200          34.200          48.700  
  22200605.711           0.000           0.000    22200605.098    22200609.039  
 116665025.50808  90907790.60743         0.000       -1663.492       -1296.228  
         0.000          45.600          30.500           0.000  
  23484160.195    23484163.160           0.000    23484160.373    23484162.695  
 123410182.92308  96163733.44143         0.000         598.801         466.598  
         0.000          45.200          29.700           0.000  
  22821534.258    22821535.895           0.000    22821533.059    22821536.586  
 121780068.50006  94717808.14044         0.000        4263.879        3316.350  
         0.000          40.400          34.300           0.000  
  22396290.430    22396293.137           0.000    22396288.520    22396293.332  
 119594980.22604  93018276.35744         0.000        3265.633        2539.937  
         0.000          35.700          35.000           0.000  
  19177905.766    19177905.453           0.000    19177903.902    19177906.227  
 102624865.55509  79819327.33448         0.000        -431.207        -335.383  
         0.000          50.500          47.600           0.000  
  22339919.570    22339919.574           0.000    22339918.543    22339919.809  
 119629275.51008  93045004.84046         0.000       -2923.715       -2274.000  
         0.000          46.000          39.400           0.000  
  20923115.586    20923117.352           0.000    20923114.094    20923115.820  
 111846031.72308  86991403.52044         0.000         832.797         647.731  
         0.000          45.500          34.900           0.000  
  20558057.359           0.000           0.000    20558057.078           0.000  
 109817464.99008         0.000           0.000       -1219.750           0.000  
         0.000          47.700           0.000           0.000  
  22345631.391    22345633.055           0.000    22345630.605    22345633.402  
 119408272.81608  92873100.96146         0.000       -4172.312       -3245.132  
         0.000          45.900          40.500           0.000  
  22117303.922    22117308.223           0.000    22117302.496    22117306.910  
 118271123.11906  91988695.13046         0.000       -3704.898       -2881.588  
         0.000          41.400          41.600           0.000  
  21199567.773    21199569.129           0.000    21199566.477    21199569.625  
 113164764.93609  88017048.00947         0.000        3314.215        2577.723  
         0.000          50.000          44.700           0.000  
 18  2  1  0  2  0.0000000  0 20G15G16G21G27G30G08G10G13G26G20G07R06 0.000000002
                                R13R21R04R05R12R11R20R22
  24184557.891    24184559.113           0.000    24184558.325    24184559.883  
 127090670.09807  99031727.32242         0.000        2233.812        1740.633  
         0.000          44.100          24.800           0.000  
  21160955.484           0.000           0.000    21160955.115    21160958.176  
 111201478.34308  86650581.38545         0.000       -1858.418       -1448.118  
         0.000          48.400          38.400           0.000  
  21789663.547           0.000           0.000    21789662.982    21789664.625  
 114505280.97308  89225066.81645         0.000       -1487.746       -1159.283  
         0.000          48.300          38.300           0.000  
  20720038.484    20720043.863    20720042.527    20720038.480    20720043.602  
 108884552.30509  84845128.46947  81309909.11209      1695.230        1320.959  
         0.000          51.300          42.400          54.600  
  24310332.719    24310335.719    24310335.309    24310332.592    24310335.555  
 127751665.49203  99546750.44541  95398973.62806      1934.164        1507.141  
         0.000          31.900          14.800          41.200  
  23612903.086    23612908.141    23612906.590    23612902.964    23612908.047  
 124086638.94107  96690907.59843  92662112.02708      3404.105        2652.550  
         0.000          43.100          28.200          48.000  
  23797284.148    23797303.570    23797288.191    23797284.439           0.000  
 125055499.43403  97445959.10744  93385672.72104      3648.465        2842.960  
         0.000          30.100          32.200          33.700  
  24103612.805           0.000           0.000    24103612.972    24103616.328  
 126665264.51306  98700289.39741         0.000        1465.504        1141.951  
         0.000          40.500          21.300           0.000  
  22913475.070    22913481.645    22913478.469    22913475.093    22913481.320  
 120411240.26908  93826864.06544  89917374.04308     -3355.895       -2614.983  
         0.000          45.400          34.400          48.100  
  22210155.695           0.000           0.000    22210155.082    22210156.855  
 116715204.05508  90946890.77043         0.000       -1681.738       -1310.445  
         0.000          46.700          30.900           0.000  
  23480797.758    23480798.812           0.000    23480797.936    23480798.906  
 123392509.69608  96149962.09143         0.000         579.266         451.376  
         0.000          46.000          29.200           0.000  
  22797587.188    22797588.918           0.000    22797586.316    22797589.750  
 121652286.79006  94618422.36044         0.000        4254.844        3309.323  
         0.000          40.300          34.400           0.000  
  22377996.641    22378000.191           0.000    22377994.496    22377998.602  
 119497288.38405  92942293.85244         0.000        3247.195        2525.596  
         0.000          37.300          35.100           0.000  
  19180378.500    19180378.727           0.000    19180376.684    19180379.430  
 102638100.54909  79829621.22648         0.000        -451.090        -350.848  
         0.000          50.000          47.700           0.000  
  22356356.211    22356356.641           0.000    22356354.855    22356356.965  
 119717291.61808  93113461.80446         0.000       -2944.000       -2289.778  
         0.000          47.500          40.500           0.000  
  20918519.250    20918521.391           0.000    20918518.395    20918520.023  
 111821465.65008  86972296.59544         0.000         804.906         626.038  
         0.000          45.400          35.400           0.000  
  20564985.984           0.000           0.000    20564985.656           0.000  
 109854472.47708         0.000           0.000       -1247.391           0.000  
         0.000          48.700           0.000           0.000  
  22369086.328    22369088.227           0.000    22369085.496    22369088.598  
 119533609.22208  92970584.79346         0.000       -4183.539       -3253.864  
         0.000          45.800          41.100           0.000  
  22138110.469    22138113.879           0.000    22138108.598    22138112.305  
 118382379.10906  92075227.51046         0.000       -3712.316       -2887.357  
         0.000          41.800          41.500           0.000  
  21180971.906    21180973.777           0.000    21180970.965    21180973.594  
 113065500.63009  87939842.44647         0.000        3303.348        2569.270  
         0.000          50.100          44.300           0.000  
 18  2  1  0  2 30.0000000  0 20G15G16G21G27G30G08G10G13G26G20G07R06 0.000000002
                                R13R21R04R05R12R11R20R22
  24171848.547    24171850.496           0.000    24171848.981    24171850.656  
 127023883.21607  98979685.64442         0.000        2218.602        1728.780  
         0.000          43.800          24.700           0.000  
  21171617.328           0.000           0.000    21171616.959    21171620.078  
 111257508.22109  86694241.00245         0.000       -1876.844       -1462.476  
         0.000          49.500          38.300           0.000  
  21798190.539           0.000           0.000    21798189.974    21798191.617  
 114550090.08209  89259982.99145         0.000       -1499.633       -1168.545  
         0.000          49.200          38.900           0.000  
  20710406.352    20710409.809    20710408.648    20710406.348    20710410.414  
 108833927.52009  84805680.59747  81272104.87509      1679.699        1308.857  
         0.000          51.800          43.200          54.600  
  24299336.188    24299339.891    24299341.004    24299336.061           0.000  
 127693884.80403  99501737.41545  95355825.60707      1917.473        1494.135  
         0.000          31.000          36.100          42.800  
  23593486.438    23593491.738    23593489.402    23593486.316    23593490.695  
 123984600.98007  96611397.49643  92585914.86808      3398.375        2648.084  
         0.000          43.200          28.900          48.000  
  23776476.344    23776489.203    23776479.613    23776476.634           0.000  
 124946145.78013  97360748.33443  93304012.53004      3641.699        2837.688  
         0.000          31.000          31.600          34.700  
  24095302.227           0.000           0.000    24095302.394    24095302.000  
 126621577.19407  98666247.35441         0.000        1446.820        1127.392  
         0.000          43.200          21.700           0.000  
  22932660.430    22932667.512    22932664.812    22932660.452    22932667.441  
 120512064.06008  93905428.01844  89992664.51608     -3365.633       -2622.571  
         0.000          45.300          33.200          48.700  
  22219810.258           0.000           0.000    22219809.645    22219810.949  
 116765935.62708  90986421.86843         0.000       -1700.324       -1324.928  
         0.000          47.500          31.500           0.000  
  23477546.039    23477548.594           0.000    23477546.217    23477548.422  
 123375428.90007  96136652.39743         0.000         559.477         435.956  
         0.000          44.700          28.700           0.000  
  22773693.797    22773694.543           0.000    22773692.715    22773695.352  
 121524783.10306  94519252.88744         0.000        4245.332        3301.925  
         0.000          40.500          33.700           0.000  
  22359808.414    22359811.777           0.000    22359806.105    22359810.117  
 119400159.73105  92866749.36944         0.000        3228.094        2510.740  
         0.000          38.200          35.600           0.000  
  19182963.875    19182964.172           0.000    19182962.387    19182964.688  
 102651935.09809  79840381.41748         0.000        -471.258        -366.534  
         0.000          50.500          48.200           0.000  
  22372907.414    22372907.539           0.000    22372905.402    22372908.098  
 119805917.12608  93182392.78546         0.000       -2964.355       -2305.610  
         0.000          47.900          41.400           0.000  
  20914081.555    20914082.383           0.000    20914080.699    20914082.562  
 111797743.65208  86953846.19645         0.000         776.520         603.960  
         0.000          45.500          36.000           0.000  
  20572069.664           0.000           0.000    20572068.469           0.000  
 109892308.96808         0.000           0.000       -1275.121           0.000  
         0.000          48.200           0.000           0.000  
  22392605.266    22392607.164           0.000    22392604.434    22392606.926  
 119659282.85708  93068330.93546         0.000       -4194.750       -3262.583  
         0.000          46.800          40.900           0.000  
  22158954.805    22158960.586           0.000    22158954.410    22158958.918  
 118493854.08006  92161930.25947         0.000       -3719.461       -2892.914  
         0.000          41.300          42.000           0.000  
  21162439.672    21162440.230           0.000    21162437.789    21162440.371  
 112966568.98109  87862895.61247         0.000        3292.070        2560.499  
         0.000          50.300          44.500           0.000  
 18  2  1  0  3  0.0000000  0 20G15G16G21G27G30G08G10G13G26G20G07R06 0.000000002
                                R13R21R04R05R12R11R20R22
  24159226.703    24159227.809           0.000    24159227.138    24159227.934  
 126957548.79907  98927996.50942         0.000        2203.660        1717.138  
         0.000          44.600          26.100           0.000  
  21182384.156           0.000           0.000    21182383.787    21182385.676  
 111314084.91609  86738326.73145         0.000       -1894.934       -1476.572  
         0.000          49.500          38.700           0.000  
  21806784.289           0.000           0.000    21806783.724    21806786.305  
 114595251.99809  89295174.08746         0.000       -1511.234       -1177.585  
         0.000          49.000          39.300           0.000  
  20700860.352    20700862.953    20700862.520    20700860.348    20700863.184  
 108783761.76409  84766590.40547  81234643.44909      1664.637        1297.120  
         0.000          52.700          43.600          54.800  
  24288438.500    24288441.008    24288440.082    24288438.373           0.000  
 127636603.87604  99457102.79145  95313050.72407      1900.777        1481.125  
         0.000          32.000          37.000          42.700  
  23574101.180    23574106.750    23574104.180    23574101.058    23574105.496  
 123882733.02807  96532019.87842  92509844.63708      3392.754        2643.704  
         0.000          43.600          27.600          48.300  
  23755706.289    23755706.652    23755706.406    23755706.580           0.000  
 124836975.38704  97275680.63843  93222489.33804      3635.984        2833.235  
         0.000          33.100          30.600          34.700  
  24087094.844           0.000           0.000    24087095.011    24087094.910  
 126578450.80107  98632642.38041         0.000        1428.180        1112.867  
         0.000          43.500          22.200           0.000  
  22951901.969    22951908.367    22951905.988    22951901.991    22951908.453  
 120613176.54108  93984216.94344  90068170.56208     -3375.129       -2629.971  
         0.000          46.300          33.000          47.900  
  22229568.031           0.000           0.000    22229567.418    22229569.543  
 116817218.30208  91026382.38543         0.000       -1718.566       -1339.143  
         0.000          46.500          30.200           0.000  
  23474408.906    23474410.770           0.000    23474409.084    23474410.879  
 123358940.98308  96123804.70743         0.000         539.816         420.636  
         0.000          45.100          28.300           0.000  
  22749852.680    22749854.855           0.000    22749851.598    22749853.906  
 121397561.51406  94420302.80844         0.000        4235.961        3294.636  
         0.000          40.600          34.300           0.000  
  22341724.500    22341727.254           0.000    22341722.945    22341727.070  
 119303597.80405  92791645.69344         0.000        3209.371        2496.178  
         0.000          38.600          35.500           0.000  
  19185661.523    19185661.773           0.000    19185659.754    19185662.008  
 102666368.28009  79851607.23548         0.000        -491.047        -381.925  
         0.000          50.500          48.400           0.000  
  22389570.547    22389570.695           0.000    22389569.191    22389571.535  
 119895147.97208  93251794.54646         0.000       -2984.348       -2321.159  
         0.000          48.000          41.600           0.000  
  20909801.469    20909804.949           0.000    20909800.543    20909802.992  
 111774866.45708  86936052.79344         0.000         748.562         582.215  
         0.000          45.400          35.000           0.000  
  20579306.672           0.000           0.000    20579306.648           0.000  
 109930972.69408         0.000           0.000       -1302.512           0.000  
         0.000          48.500           0.000           0.000  
  22416185.461    22416188.156           0.000    22416184.914    22416187.660  
 119785289.29408  93166335.88546         0.000       -4205.738       -3271.130  
         0.000          46.600          40.800           0.000  
  22179841.031    22179846.789           0.000    22179840.590    22179845.473  
 118605545.11206  92248801.09847         0.000       -3726.465       -2898.362  
         0.000          40.900          42.300           0.000  
  21143966.672    21143970.094           0.000    21143966.082    21143970.023  
 112867971.64509  87786208.79647         0.000        3281.008        2551.895  
         0.000          49.500          44.900           0.000  
 18  2  1  0  3 30.0000000  0 19G15G16G21G27G30G08G13G26G20G07R06R13 0.000000002
                                R21R04R05R12R11R20R22
  24146689.508    24146692.477           0.000    24146689.942    24146692.555  
 126891669.38707  98876661.93942         0.000        2188.445        1705.282  
         0.000          43.200          24.300           0.000  
  21193254.414           0.000           0.000    21193254.045    21193254.938  
 111371206.63509  86782837.15345         0.000       -1913.004       -1490.652  
         0.000          49.700          38.500           0.000  
  21815445.883           0.000           0.000    21815445.317    21815447.078  
 114640764.67409  89330638.51245         0.000       -1522.785       -1186.586  
         0.000          49.300          38.900           0.000  
  20691401.125    20691404.910    20691403.844    20691401.121    20691405.129  
 108734056.48309  84727859.02047  81197525.87309      1649.293        1285.163  
         0.000          53.000          43.000          54.300  
  24277631.883    24277635.328    24277635.621    24277631.756           0.000  
 127579824.47004  99412859.10545  95270650.42707      1884.293        1468.280  
         0.000          32.300          36.600          43.400  
  23554749.562    23554754.441    23554751.918    23554749.441    23554753.645  
 123781036.88107  96452776.13343  92433902.71908      3387.008        2639.227  
         0.000          43.700          28.500          48.000  
  24078993.891           0.000           0.000    24078994.058    24078996.184  
 126535887.44106  98599476.18641         0.000        1409.453        1098.275  
         0.000          41.800          21.300           0.000  
  22971197.367    22971203.930    22971201.797    22971197.389    22971204.086  
 120714575.29308  94063228.92044  90143890.35708     -3384.605       -2637.355  
         0.000          46.500          32.700          48.000  
  22239431.297           0.000           0.000    22239430.684    22239433.043  
 116869050.20008  91066770.90743         0.000       -1736.734       -1353.300  
         0.000          45.700          31.000           0.000  
  23471383.938    23471386.902           0.000    23471384.115    23471387.199  
 123343046.60508  96111419.48643         0.000         519.961         405.164  
         0.000          46.000          29.300           0.000  
  22726065.227    22726065.266           0.000    22726064.191    22726066.359  
 121270626.44406  94321575.57544         0.000        4226.480        3287.263  
         0.000          39.700          34.100           0.000  
  22323749.047    22323750.859           0.000    22323746.410    22323750.586  
 119207606.36805  92716985.67544         0.000        3190.141        2481.220  
         0.000          37.700          34.200           0.000  
  19188469.875    19188470.645           0.000    19188468.387    19188471.156  
 102681399.76509  79863298.40148         0.000        -510.844        -397.323  
         0.000          50.300          47.800           0.000  
  22406347.523    22406345.840           0.000    22406344.480    22406346.844  
 119984980.13808  93321663.97246         0.000       -3004.316       -2336.691  
         0.000          47.400          41.200           0.000  
  20905680.344    20905681.242           0.000    20905679.207    20905681.047  
 111752835.65708  86918917.73544         0.000         720.348         560.270  
         0.000          45.000          35.200           0.000  
  20586699.922           0.000           0.000    20586698.609           0.000  
 109970461.98809         0.000           0.000       -1329.902           0.000  
         0.000          49.100           0.000           0.000  
  22439825.688    22439828.359           0.000    22439825.844    22439829.531  
 119911624.08807  93264596.19646         0.000       -4216.543       -3279.533  
         0.000          44.100          40.000           0.000  
  22200769.445    22200773.207           0.000    22200767.926    22200772.293  
 118717450.81106  92335838.86146         0.000       -3733.621       -2903.928  
         0.000          41.600          41.700           0.000  
  21125560.297    21125562.242           0.000    21125559.023    21125562.523  
 112769710.36209  87709783.38047         0.000        3269.895        2543.251  
         0.000          49.800          44.900           0.000  
 18  2  1  0  4  0.0000000  0 19G15G16G21G27G30G08G13G26G20G07R06R13 0.000000002
                                R21R04R05R12R11R20R22
  24134237.992    24134242.824           0.000    24134238.427    24134243.852  
 126826247.76107  98825684.04841         0.000        2173.062        1693.295  
         0.000          42.100          23.600           0.000  
  21204226.969           0.000           0.000    21204226.600    21204228.664  
 111428871.99609  86827771.17745         0.000       -1931.184       -1504.818  
         0.000          49.300          37.600           0.000  
  21824172.867           0.000           0.000    21824172.302    21824174.355  
 114686628.75208  89366376.75445         0.000       -1534.621       -1195.809  
         0.000          48.600          38.600           0.000  
  20682029.766    20682033.949    20682033.258    20682029.762    20682034.707  
 108684813.19509  84689487.63447  81160753.30609      1633.773        1273.070  
         0.000          52.500          43.000          54.300  
  24266923.273    24266926.109    24266927.000    24266923.147    24266926.695  
 127523548.91504  99369001.84241  95228626.34007      1867.602        1455.274  
         0.000          35.500          13.900          43.400  
  23535429.297    23535435.668    23535432.156    23535429.175    23535436.250  
 123679514.50607  96373667.78943  92358090.57308      3381.156        2634.667  
         0.000          43.500          28.400          47.400  
  24071003.086           0.000           0.000    24071003.254    24071003.387  
 126493888.80607  98566749.98741         0.000        1390.609        1083.592  
         0.000          43.800          22.000           0.000  
  22990547.305    22990552.883    22990551.430    22990547.327    22990553.613  
 120816257.99708  94142462.16543  90219822.21908     -3394.125       -2644.773  
         0.000          45.800          31.800          48.000  
  22249398.148           0.000           0.000    22249397.535    22249400.773  
 116921429.66108  91107586.06243         0.000       -1755.094       -1367.606  
         0.000          46.000          30.700           0.000  
  23468473.453    23468474.355           0.000    23468473.631    23468474.484  
 123327746.72308  96099497.50443         0.000         500.160         389.735  
         0.000          46.300          30.500           0.000  
  22702331.852    22702332.738           0.000    22702330.441    22702333.125  
 121143982.07306  94223074.43844         0.000        4216.707        3279.661  
         0.000          39.200          33.400           0.000  
  22305879.586    22305881.469           0.000    22305877.559    22305881.430  
 119112190.23505  92642773.13944         0.000        3170.891        2466.248  
         0.000          36.500          33.400           0.000  
  19191390.055    19191391.504           0.000    19191389.059    19191391.762  
 102697028.93509  79875454.40748         0.000        -530.879        -412.906  
         0.000          50.700          48.100           0.000  
  22423232.484    22423233.570           0.000    22423231.902    22423233.285  
 120075410.35008  93391998.56946         0.000       -3024.254       -2352.197  
         0.000          46.400          40.400           0.000  
  20901717.305    20901717.828           0.000    20901716.496    20901718.477  
 111731652.27008  86902441.76144         0.000         692.016         538.234  
         0.000          45.700          34.700           0.000  
  20594246.875           0.000           0.000    20594245.797           0.000  
 110010774.95409         0.000           0.000       -1357.406           0.000  
         0.000          49.500           0.000           0.000  
  22463528.891    22463532.195           0.000    22463529.117    22463532.898  
 120038283.37007  93363108.93946         0.000       -4227.246       -3287.858  
         0.000          44.900          41.700           0.000  
  22221737.719    22221740.965           0.000    22221735.777    22221738.828  
 118829568.84007  92423041.76846         0.000       -3740.797       -2909.509  
         0.000          43.100          41.600           0.000  
  21107216.227    21107219.086           0.000    21107214.531    21107218.664  
 112671787.41109  87633621.09748         0.000        3258.496        2534.386  
         0.000          50.200          45.400           0.000  
 18  2  1  0  4 30.0000000  0 19G15G16G21G27G30G08G13G26G20G07R06R13 0.000000002
                                R21R04R05R12R11R20R22
  24121877.406    24121879.121           0.000    24121877.841    24121879.691  
 126761286.52807  98775064.93442         0.000        2157.723        1681.342  
         0.000          42.400          24.500           0.000  
  21215303.570           0.000           0.000    21215303.201    21215305.383  
 111487078.82909  86873127.11845         0.000       -1949.184       -1518.844  
         0.000          49.500          37.900           0.000  
  21832967.344           0.000           0.000    21832966.778    21832968.422  
 114732841.75709  89402386.89546         0.000       -1546.215       -1204.843  
         0.000          49.300          39.800           0.000  
  20672746.945    20672751.410    20672750.531    20672746.941    20672752.355  
 108636033.06609  84651477.15247  81124326.58309      1618.270        1260.989  
         0.000          52.600          42.600          54.300  
  24256310.672    24256314.562    24256313.848    24256310.545    24256313.859  
 127467779.18405  99325544.81841  95186979.98307      1850.555        1441.991  
         0.000          36.000          15.600          43.200  
  23516144.602    23516149.094    23516146.711    23516144.480    23516149.270  
 123578167.38207  96294695.99742  92282409.28308      3375.340        2630.135  
         0.000          42.800          27.800          47.300  
  24063118.328           0.000           0.000    24063118.496    24063119.449  
 126452456.93007  98534465.42941         0.000        1371.668        1068.832  
         0.000          42.200          22.300           0.000  
  23009950.117    23009956.176    23009954.207    23009950.139    23009956.367  
 120918221.85408  94221914.50944  90295964.05908     -3403.402       -2652.002  
         0.000          46.000          32.500          47.800  
  22259470.578           0.000           0.000    22259469.965    22259471.973  
 116974354.74508  91148826.37443         0.000       -1773.176       -1381.695  
         0.000          46.700          31.400           0.000  
  23465675.203    23465676.270           0.000    23465675.381    23465676.586  
 123313041.12708  96088038.59043         0.000         480.309         374.266  
         0.000          46.700          31.100           0.000  
  22678651.359    22678655.039           0.000    22678651.477    22678653.805  
 121017632.85705  94124802.87344         0.000        4206.613        3271.810  
         0.000          38.800          32.200           0.000  
  22288120.438    22288121.922           0.000    22288117.051    22288121.719  
 119017352.40304  92569010.38844         0.000        3151.574        2451.224  
         0.000          35.300          34.500           0.000  
  19194422.984    19194423.637           0.000    19194421.309    19194423.938  
 102713255.05109  79888074.73648         0.000        -550.789        -428.391  
         0.000          49.600          48.300           0.000  
  22440231.602    22440231.371           0.000    22440229.871    22440231.629  
 120166434.76008  93462795.33746         0.000       -3043.918       -2367.492  
         0.000          47.000          40.900           0.000  
  20897912.312    20897915.066           0.000    20897912.020    20897914.707  
 111711317.15708  86886625.56244         0.000         663.699         516.211  
         0.000          45.100          35.600           0.000  
  20601947.617           0.000           0.000    20601946.609           0.000  
 110051909.97409         0.000           0.000       -1384.840           0.000  
         0.000          49.700           0.000           0.000  
  22487290.953    22487294.961           0.000    22487290.051    22487294.984  
 120165262.66007  93461870.52146         0.000       -4237.934       -3296.171  
         0.000          44.000          41.500           0.000  
  22242743.227    22242745.062           0.000    22242741.660    22242744.359  
 118941896.92707  92510408.08846         0.000       -3747.629       -2914.822  
         0.000          42.700          41.300           0.000  
  21088935.609    21088937.953           0.000    21088933.914    21088937.812  
 112574204.75409  87557723.48548         0.000        3247.113        2525.533  
         0.000          50.900          46.600           0.000  
 18  2  1  0  5  0.0000000  0 19G15G16G21G27G30G08G13G26G20G07R06R13 0.000000002
                                R21R04R05R12R11R20R22
  24109604.133    24109605.965           0.000    24109604.567    24109605.949  
 126696788.23707  98724806.58342         0.000        2142.203        1669.249  
         0.000          43.000          24.200           0.000  
  21226483.500           0.000           0.000    21226483.131    21226484.316  
 111545825.80609  86918903.97445         0.000       -1967.223       -1532.901  
         0.000          50.000          38.700           0.000  
  21841827.945           0.000           0.000    21841827.380    21841829.141  
 114779402.51009  89438668.01645         0.000       -1557.805       -1213.874  
         0.000          49.100          38.700           0.000  
  20663554.039    20663557.684    20663556.441    20663554.035    20663557.984  
 108587717.66009  84613828.77747  81088246.90109      1602.758        1248.902  
         0.000          53.400          43.500          54.500  
  24245794.242    24245798.734    24245797.582    24245794.115    24245798.602  
 127412516.99404  99282483.36541  95145712.72906      1833.676        1428.838  
         0.000          35.200          13.900          41.700  
  23496892.148    23496897.379    23496895.230    23496892.027    23496896.934  
 123476997.32007  96215862.17942  92206860.17608      3369.355        2625.472  
         0.000          43.300          27.600          47.500  
  24055342.117           0.000           0.000    24055342.285    24055344.586  
 126411593.57307  98502623.82341         0.000        1352.543        1053.930  
         0.000          42.700          21.800           0.000  
  23029406.430    23029412.547    23029410.625    23029406.452    23029413.207  
 121020464.74108  94301584.25043  90372314.22008     -3412.660       -2659.216  
         0.000          46.600          31.600          48.000  
  22269644.492           0.000           0.000    22269643.879    22269646.297  
 117027823.21308  91190490.11443         0.000       -1791.332       -1395.843  
         0.000          46.700          30.800           0.000  
  23462988.023    23462990.824           0.000    23462988.201    23462990.992  
 123298930.57908  96077043.35243         0.000         460.406         358.758  
         0.000          45.800          29.200           0.000  
  22655031.570    22655031.117           0.000    22655030.137    22655031.809  
 120891583.08605  94026764.20543         0.000        4196.598        3264.020  
         0.000          38.700          31.800           0.000  
  22270471.281    22270471.266           0.000    22270467.918    22270470.992  
 118923097.10405  92495700.75844         0.000        3131.996        2435.997  
         0.000          37.200          35.400           0.000  
  19197565.578    19197566.957           0.000    19197564.559    19197567.684  
 102730077.91009  79901159.18548         0.000        -570.766        -443.929  
         0.000          50.000          48.100           0.000  
  22457338.930    22457340.180           0.000    22457338.207    22457340.199  
 120258049.02208  93534050.83046         0.000       -3063.672       -2382.856  
         0.000          46.800          40.200           0.000  
  20894268.211    20894270.609           0.000    20894266.672    20894269.898  
 111691831.21408  86871469.80444         0.000         635.371         494.178  
         0.000          45.300          35.700           0.000  
  20609801.594           0.000           0.000    20609800.422           0.000  
 110093865.14709         0.000           0.000       -1412.176           0.000  
         0.000          49.200           0.000           0.000  
  22511113.125    22511116.078           0.000    22511112.504    22511117.203  
 120292557.92907  93560877.90947         0.000       -4248.355       -3304.276  
         0.000          44.300          42.300           0.000  
  22263788.047    22263791.527           0.000    22263787.207    22263790.023  
 119054433.63607  92597936.64646         0.000       -3754.629       -2920.267  
         0.000          42.900          41.000           0.000  
  21070719.750    21070721.668           0.000    21070717.961    21070721.297  
 112476964.32009  87482092.04048         0.000        3235.605        2516.582  
         0.000          51.200          46.200           0.000  
 18  2  1  0  5 30.0000000  0 19G15G16G21G27G30G08G13G26G20G07R06R13 0.000000002
                                R21R04R05R12R11R20R22
  24097418.859    24097420.715           0.000    24097419.294    24097420.969  
 126632755.47807  98674910.96342         0.000        2126.535        1657.040  
         0.000          43.100          25.200           0.000  
  21237764.523           0.000           0.000    21237764.154    21237766.688  
 111605110.93909  86965100.16245         0.000       -1985.113       -1546.842  
         0.000          50.200          38.000           0.000  
  21850753.562           0.000           0.000    21850752.997    21850755.109  
 114826309.98908  89475219.30746         0.000       -1569.465       -1222.960  
         0.000          48.900          39.200           0.000  
  20654447.852    20654452.434    20654451.098    20654447.848    20654452.559  
 108539867.88809  84576543.24547  81052514.93009      1587.176        1236.760  
         0.000          52.900          42.800          54.400  
  24235375.039    24235379.590    24235378.285    24235374.912    24235379.867  
 127357764.69704  99239819.44741  95104826.50007      1816.332        1415.324  
         0.000          35.000          15.600          42.400  
  23477674.688    23477679.215    23477676.703    23477674.566    23477679.238  
 123376005.68007  96137167.41142  92131444.35308      3363.336        2620.781  
         0.000          42.100          26.800          47.000  
  24047674.438           0.000           0.000    24047674.605    24047675.793  
 126371300.07207  98471226.33641         0.000        1333.586        1039.158  
         0.000          42.300          21.500           0.000  
  23048915.297    23048921.027    23048919.398    23048915.319    23048921.898  
 121122983.65908  94381469.09644  90448870.51508     -3421.934       -2666.442  
         0.000          47.500          33.300          48.300  
  22279921.875           0.000           0.000    22279921.262    22279923.855  
 117081833.24308  91232575.86543         0.000       -1809.363       -1409.893  
         0.000          46.400          30.900           0.000  
  23460417.047    23460418.207           0.000    23460417.225    23460419.195  
 123285415.60208  96066512.18643         0.000         440.574         343.305  
         0.000          47.100          28.400           0.000  
  22631466.758    22631467.504           0.000    22631465.254    22631467.703  
 120765836.76806  93928961.52644         0.000        4186.531        3256.191  
         0.000          39.000          33.800           0.000  
  22252928.969    22252930.641           0.000    22252926.473    22252929.875  
 118829428.12805  92422847.17144         0.000        3112.512        2420.842  
         0.000          37.100          35.800           0.000  
  19200820.812    19200822.145           0.000    19200819.910    19200822.895  
 102747496.39009  79914706.87048         0.000        -590.562        -459.326  
         0.000          49.800          47.600           0.000  
  22474557.656    22474556.957           0.000    22474556.043    22474557.824  
 120350249.63008  93605762.37746         0.000       -3083.109       -2397.974  
         0.000          47.400          40.800           0.000  
  20890781.477    20890783.242           0.000    20890781.066    20890783.234  
 111673195.24608  86856975.14944         0.000         607.008         472.117  
         0.000          45.100          35.900           0.000  
  20617808.414           0.000           0.000    20617807.336           0.000  
 110136637.86708         0.000           0.000       -1439.410           0.000  
         0.000          48.900           0.000           0.000  
  22534992.688    22534996.133           0.000    22534992.891    22534997.000  
 120420164.56708  93660127.44547         0.000       -4258.750       -3312.361  
         0.000          45.100          42.400           0.000  
  22284870.734    22284874.871           0.000    22284869.215    22284873.793  
 119167176.36606  92685625.43147         0.000       -3761.535       -2925.638  
         0.000          41.600          42.100           0.000  
  21052567.688    21052569.043           0.000    21052566.039    21052569.047  
 112380067.77509  87406728.05948         0.000        3224.129        2507.656  
         0.000          51.100          45.400           0.000  
 18  2  1  0  6  0.0000000  0 19G15G16G21G27G30G08G13G26G20G07R06R13 0.000000002
                                R21R04R05R12R11R20R22
  24085323.828    24085324.980           0.000    24085324.263    24085324.414  
 126569191.00607  98625380.22842         0.000        2111.074        1644.993  
         0.000          44.300          26.800           0.000  
  21249148.445           0.000           0.000    21249148.076    21249149.848  
 111664933.04709  87011714.75945         0.000       -2003.023       -1560.797  
         0.000          49.700          37.600           0.000  
  21859745.055           0.000           0.000    21859744.489    21859747.426  
 114873562.95708  89512039.80045         0.000       -1580.855       -1231.835  
         0.000          48.800          38.500           0.000  
  20645430.805    20645435.656    20645434.895    20645430.801    20645435.863  
 108492485.84109  84539622.17647  81017132.23509      1571.711        1224.710  
         0.000          52.100          42.100          54.700  
  24225055.789    24225058.285    24225056.727    24225055.662    24225058.215  
 127303523.82505  99197553.76941  95064321.96907      1799.586        1402.275  
         0.000          38.500          15.600          42.600  
  23458491.148    23458496.039    23458493.445    23458491.027    23458495.523  
 123275195.10807  96058613.73543  92056163.75008      3357.301        2616.079  
         0.000          42.300          28.500          46.700  
  24040114.219           0.000           0.000    24040114.386    24040117.918  
 126331578.82106  98440274.69141         0.000        1314.570        1024.341  
         0.000          41.400          21.500           0.000  
  23068476.445    23068482.234    23068480.512    23068476.468    23068482.695  
 121225776.87908  94461567.67644  90525631.65508     -3431.051       -2673.546  
         0.000          47.300          32.800          48.200  
  22290303.305           0.000           0.000    22290302.692    22290304.992  
 117136383.67608  91275082.68443         0.000       -1827.223       -1423.810  
         0.000          46.600          31.800           0.000  
  23457959.305    23457959.328           0.000    23457959.483    23457960.043  
 123272496.54608  96056445.38643         0.000         420.762         327.866  
         0.000          46.100          28.200           0.000  
  22607958.078    22607960.301           0.000    22607957.699    22607960.242  
 120640398.39705  93831398.36544         0.000        4176.129        3248.100  
         0.000          38.000          33.100           0.000  
  22235495.922    22235499.801           0.000    22235494.199    22235498.965  
 118736350.11505  92350453.13945         0.000        3092.719        2405.448  
         0.000          37.500          36.100           0.000  
  19204188.219    19204188.684           0.000    19204186.117    19204189.125  
 102765510.70709  79928718.02848         0.000        -610.379        -474.739  
         0.000          50.100          48.200           0.000  
  22491884.281    22491882.926           0.000    22491882.480    22491883.578  
 120443033.29508  93677927.43746         0.000       -3102.398       -2412.977  
         0.000          45.700          39.200           0.000  
  20887454.719    20887455.828           0.000    20887453.273    20887456.125  
 111655410.86107  86843142.88244         0.000         578.699         450.099  
         0.000          44.700          34.600           0.000  
  20625968.289           0.000           0.000    20625967.375           0.000  
 110180227.09908         0.000           0.000       -1466.574           0.000  
         0.000          48.200           0.000           0.000  
  22558929.852    22558934.660           0.000    22558930.289    22558934.398  
 120548079.09208  93759616.50047         0.000       -4268.844       -3320.212  
         0.000          45.500          42.000           0.000  
  22305992.531    22305996.785           0.000    22305991.176    22305995.332  
 119280123.84406  92773473.46946         0.000       -3768.211       -2930.831  
         0.000          41.100          41.500           0.000  
  21034480.633    21034482.152           0.000    21034479.266    21034481.945  
 112283517.77909  87331633.63248         0.000        3212.625        2498.708  
         0.000          51.200          45.500           0.000  
 18  2  1  0  6 30.0000000  0 19G15G16G21G27G30G08G13G26G20G07R06R13 0.000000002
                                R21R04R05R12R11R20R22
  24073318.055    24073319.453           0.000    24073318.489    24073319.285  
 126506097.34008  98576216.38042         0.000        2095.312        1632.711  
         0.000          46.300          26.500           0.000  
  21260634.172           0.000           0.000    21260633.803    21260635.223  
 111725290.02309  87058746.14045         0.000       -2020.789       -1574.641  
         0.000          49.700          37.600           0.000  
  21868803.672           0.000           0.000    21868803.107    21868805.277  
 114921160.56009  89549128.84545         0.000       -1592.285       -1240.742  
         0.000          50.200          38.900           0.000  
  20636504.359    20636508.777    20636507.746    20636504.355    20636508.246  
 108445572.59609  84503066.40847  80982099.61909      1556.039        1212.498  
         0.000          52.800          42.600          54.800  
  24214830.648    24214832.359    24214832.535    24214830.522    24214832.488  
 127249796.37006  99155688.12441  95024200.74707      1782.355        1388.848  
         0.000          39.500          15.600          43.100  
  23439342.289    23439347.109    23439344.375    23439342.168    23439346.723  
 123174566.75107  95980202.06043  91981019.24408      3351.387        2611.470  
         0.000          43.100          28.600          47.000  
  24032666.117           0.000           0.000    24032666.285    24032668.938  
 126292431.25507  98409770.12141         0.000        1295.449        1009.441  
         0.000          42.100          23.300           0.000  
  23088088.883    23088094.777    23088094.109    23088088.905    23088095.602  
 121328841.62808  94541877.81644  90602595.56108     -3439.891       -2680.434  
         0.000          47.900          33.000          47.900  
  22300786.945           0.000           0.000    22300786.332    22300788.633  
 117191472.29908  91318008.88344         0.000       -1845.152       -1437.781  
         0.000          47.100          32.800           0.000  
  23455613.680    23455614.160           0.000    23455613.858    23455615.004  
 123260174.09108  96046843.48842         0.000         400.820         312.328  
         0.000          45.900          27.200           0.000  
  22584509.383    22584511.793           0.000    22584509.191    22584511.852  
 120515272.23906  93734078.06844         0.000        4165.789        3240.058  
         0.000          39.400          33.500           0.000  
  22218176.867    22218179.059           0.000    22218174.605    22218179.723  
 118643866.33705  92278521.29444         0.000        3072.891        2390.026  
         0.000          37.600          35.100           0.000  
  19207664.852    19207665.996           0.000    19207663.457    19207666.559  
 102784119.97309  79943191.89048         0.000        -630.121        -490.094  
         0.000          49.100          48.000           0.000  
  22509318.227    22509318.066           0.000    22509316.824    22509318.254  
 120536395.59108  93750542.52545         0.000       -3121.586       -2427.900  
         0.000          45.700          38.800           0.000  
  20884286.547    20884288.500           0.000    20884285.598    20884288.445  
 111638478.33407  86829973.15744         0.000         550.375         428.069  
         0.000          44.900          35.700           0.000  
  20634281.164           0.000           0.000    20634280.203           0.000  
 110224630.55209         0.000           0.000       -1493.551           0.000  
         0.000          49.000           0.000           0.000  
  22582924.953    22582926.781           0.000    22582924.547    22582927.508  
 120676296.86108  93859341.35246         0.000       -4278.855       -3327.999  
         0.000          45.900          41.100           0.000  
  22327152.922    22327155.277           0.000    22327150.746    22327154.078  
 119393273.47506  92861478.78746         0.000       -3774.879       -2936.017  
         0.000          41.100          40.400           0.000  
  21016458.094    21016460.203           0.000    21016457.152    21016460.578  
 112187316.20709  87256810.16648         0.000        3200.902        2489.591  
         0.000          50.700          45.600           0.000  
 18  2  1  0  7  0.0000000  0 19G15G16G21G27G30G08G13G26G20G07R06R13 0.000000002
                                R21R04R05R12R11R20R22
  24061400.352    24061403.168           0.000    24061400.786    24061402.695  
 126443476.58007  98527421.01943         0.000        2079.438        1620.341  
         0.000          44.800          28.000           0.000  
  21272221.445           0.000           0.000    21272221.076    21272222.320  
 111786180.08209  87106192.90745         0.000       -2038.629       -1588.542  
         0.000          49.100          37.500           0.000  
  21877926.289           0.000           0.000    21877925.724    21877927.543  
 114969101.16109  89586485.16646         0.000       -1603.707       -1249.642  
         0.000          49.400          39.100           0.000  
  20627666.812    20627670.645    20627669.895    20627666.809    20627670.523  
 108399129.38909  84466876.88847  80947418.00009      1540.199        1200.155  
         0.000          53.100          43.300          54.800  
  24204704.641    24204707.992    24204707.371    24204704.514    24204706.891  
 127196584.30105  99114224.19041  94984464.44507      1765.008        1375.331  
         0.000          38.900          16.300          43.400  
  23420227.453    23420232.766    23420230.629    23420227.332    23420232.004  
 123074122.56807  95901933.88642  91906012.23008      3345.031        2606.518  
         0.000          43.900          27.800          47.100  
  24025325.688           0.000           0.000    24025325.855    24025329.035  
 126253858.87507  98379713.71141         0.000        1276.141         994.395  
         0.000          42.300          23.900           0.000  
  23107752.703    23107758.645    23107757.742    23107752.725    23107759.305  
 121432175.34108  94622397.54344  90679760.30508     -3448.922       -2687.472  
         0.000          48.100          32.700          47.400  
  22311371.609           0.000           0.000    22311370.996    22311373.707  
 117247097.09208  91361352.86143         0.000       -1863.133       -1451.792  
         0.000          45.700          31.400           0.000  
  23453380.930    23453384.086           0.000    23453381.108    23453384.602  
 123248448.35107  96037706.55542         0.000         380.848         296.764  
         0.000          44.600          25.900           0.000  
  22561121.656    22561123.598           0.000    22561120.457    22561122.859  
 120390462.89206  93637004.15744         0.000        4155.098        3231.743  
         0.000          39.000          33.300           0.000  
  22200971.680    22200973.637           0.000    22200968.387    22200972.094  
 118551981.13805  92207055.06544         0.000        3052.730        2374.346  
         0.000          38.900          34.700           0.000  
  19211254.789    19211254.500           0.000    19211252.289    19211255.203  
 102803323.38809  79958127.88548         0.000        -650.023        -505.574  
         0.000          49.800          47.900           0.000  
  22526860.125    22526860.320           0.000    22526858.301    22526860.645  
 120630332.85508  93823604.85945         0.000       -3140.766       -2442.818  
         0.000          45.600          38.600           0.000  
  20881279.109    20881280.477           0.000    20881278.066    20881280.727  
 111622398.68807  86817466.76844         0.000         521.719         405.781  
         0.000          44.900          35.500           0.000  
  20642745.336           0.000           0.000    20642744.305           0.000  
 110269846.11208         0.000           0.000       -1520.723           0.000  
         0.000          48.900           0.000           0.000  
  22606974.047    22606978.289           0.000    22606974.016    22606977.797  
 120804813.62808  93959298.82046         0.000       -4288.836       -3335.761  
         0.000          45.100          41.000           0.000  
  22348349.234    22348351.496           0.000    22348348.324    22348350.930  
 119506623.45806  92949639.91046         0.000       -3781.605       -2941.249  
         0.000          41.800          40.400           0.000  
  20998502.727    20998504.742           0.000    20998501.359    20998504.367  
 112091464.72109  87182259.02548         0.000        3189.191        2480.482  
         0.000          51.400          45.600           0.000  
 18  2  1  0  7 30.0000000  0 19G15G16G21G27G30G08G13G26G20G07R06R13 0.000000002
                                R21R04R05R12R11R20R22
  24049575.992    24049577.438           0.000    24049576.427    24049578.277  
 126381332.06908  98478996.77743         0.000        2063.461        1607.892  
         0.000          45.900          28.800           0.000  
  21283909.453           0.000           0.000    21283909.084    21283911.148  
 111847601.32109  87154053.60045         0.000       -2056.215       -1602.245  
         0.000          49.500          37.700           0.000  
  21887113.773           0.000           0.000    21887113.208    21887115.320  
 115017383.99109  89624108.15746         0.000       -1615.148       -1258.557  
         0.000          50.000          39.200           0.000  
  20618918.195    20618922.309    20618921.629    20618918.191    20618922.258  
 108353157.65209  84431054.75947  80913088.45709      1524.484        1187.910  
         0.000          52.100          43.100          54.800  
  24194676.086    24194678.383    24194679.180    24194675.959    24194679.508  
 127143889.58905  99073163.40941  94945114.61607      1747.859        1361.968  
         0.000          38.700          16.900          42.800  
  23401149.156    23401154.188    23401152.332    23401149.035    23401153.121  
 122973864.52207  95823810.73643  91831144.20708      3338.840        2601.693  
         0.000          44.000          29.000          47.300  
  24018095.609           0.000           0.000    24018095.777    24018098.840  
 126215863.48307  98350106.88641         0.000        1256.805         979.328  
         0.000          42.800          22.200           0.000  
  23127466.516    23127472.492    23127472.789    23127466.538    23127472.824  
 121535775.60808  94703125.01243  90757124.13208     -3457.758       -2694.357  
         0.000          47.500          31.000          47.500  
  22322058.102           0.000           0.000    22322057.489    22322059.848  
 117303256.03308  91405113.08443         0.000       -1880.910       -1465.644  
         0.000          46.000          31.400           0.000  
  23451265.867    23451266.887           0.000    23451266.045    23451267.426  
 123237320.06508  96029035.17342         0.000         361.023         281.317  
         0.000          46.800          27.800           0.000  
  22537791.953    22537792.273           0.000    22537791.199    22537793.578  
 120265973.88506  93540179.36344         0.000        4144.305        3223.348  
         0.000          39.500          33.200           0.000  
  22183876.023    22183878.402           0.000    22183874.090    22183877.398  
 118460698.01106  92136057.12644         0.000        3032.586        2358.678  
         0.000          39.600          34.400           0.000  
  19214953.289    19214954.410           0.000    19214952.082    19214954.973  
 102823120.48309  79973525.61448         0.000        -669.801        -520.956  
         0.000          50.500          48.600           0.000  
  22544509.719    22544510.992           0.000    22544507.402    22544510.637  
 120724841.23808  93897111.36146         0.000       -3159.828       -2457.644  
         0.000          46.400          39.000           0.000  
  20878431.445    20878431.922           0.000    20878429.438    20878431.094  
 111607172.64507  86805624.31244         0.000         493.387         383.745  
         0.000          44.900          34.500           0.000  
  20651361.398           0.000           0.000    20651360.180           0.000  
 110315871.38909         0.000           0.000       -1547.637           0.000  
         0.000          49.000           0.000           0.000  
  22631079.883    22631082.930           0.000    22631079.969    22631083.211  
 120933625.25708  94059485.53746         0.000       -4298.723       -3343.451  
         0.000          45.300          40.200           0.000  
  22369581.367    22369586.301           0.000    22369581.207    22369585.504  
 119620171.70506  93037955.24146         0.000       -3788.355       -2946.499  
         0.000          40.900          40.200           0.000  
  20980611.344    20980614.062           0.000    20980610.637    20980614.297  
 111995965.54709  87107981.88048         0.000        3177.363        2471.283  
         0.000          50.600          45.800           0.000  
 18  2  1  0  8  0.0000000  0 20G15G16G21G27G30G08G10G13G26G20G07R06 0.000000002
                                R13R21R04R05R12R11R20R22
  24037841.125    24037842.910           0.000    24037841.560    24037843.117  
 126319665.78808  98430945.17243         0.000        2047.492        1595.448  
         0.000          46.000          28.000           0.000  
  21295697.977           0.000           0.000    21295697.607    21295699.555  
 111909552.22809  87202327.01945         0.000       -2073.961       -1616.073  
         0.000          49.000          37.700           0.000  
  21896366.781           0.000           0.000    21896366.216    21896368.152  
 115066007.54609  89661996.63846         0.000       -1626.484       -1267.390  
         0.000          49.300          39.000           0.000  
  20610260.328    20610264.254    20610263.375    20610260.324    20610263.980  
 108307658.74209  84395601.07347  80879112.01909      1508.703        1175.613  
         0.000          53.300          43.000          55.000  
  24184747.938    24184749.871    24184749.766    24184747.811    24184750.480  
 127091714.25906  99032507.39041  94906152.57607      1730.410        1348.372  
         0.000          39.600          17.800          42.100  
  23382106.914    23382111.652    23382109.750    23382106.793    23382110.703  
 122873794.09707  95745833.75842  91756416.27708      3332.508        2596.759  
         0.000          44.600          27.900          47.000  
  23549992.906    23549992.133    23549993.176    23549993.197           0.000  
 123755962.75802  96433298.79743  92415234.53305      3569.430        2781.374  
         0.000          26.400          31.400          38.300  
  24010975.938           0.000           0.000    24010976.105    24010977.117  
 126178446.76107  98320951.00441         0.000        1237.598         964.362  
         0.000          42.000          21.100           0.000  
  23147231.383    23147236.703    23147237.090    23147231.405    23147237.516  
 121639640.02008  94784058.31743  90834685.18508     -3466.508       -2701.175  
         0.000          46.000          31.200          46.800  
  22332844.977           0.000           0.000    22332844.364    22332849.066  
 117359947.33208  91449288.12443         0.000       -1898.641       -1479.460  
         0.000          45.500          31.100           0.000  
  23449261.336    23449263.691           0.000    23449261.514    23449263.602  
 123226789.24208  96020829.35343         0.000         340.977         265.696  
         0.000          46.700          29.500           0.000  
  22514525.945    22514525.633           0.000    22514523.410    22514526.254  
 120141810.25006  93443607.72544         0.000        4133.176        3214.692  
         0.000          40.500          33.900           0.000  
  22166896.656    22166898.070           0.000    22166894.066    22166896.906  
 118370020.96606  92065530.52544         0.000        3012.305        2342.904  
         0.000          39.500          34.400           0.000  
  19218764.375    19218765.004           0.000    19218762.699    19218765.445  
 102843510.55009  79989384.56048         0.000        -689.625        -536.375  
         0.000          50.100          48.000           0.000  
  22562263.977    22562264.875           0.000    22562263.113    22562265.527  
 120819916.91408  93971059.04846         0.000       -3178.633       -2472.270  
         0.000          46.600          39.500           0.000  
  20875741.891    20875743.820           0.000    20875741.387    20875742.359  
 111592801.03908  86794446.35944         0.000         464.758         361.478  
         0.000          45.000          34.200           0.000  
  20660128.398           0.000           0.000    20660126.992           0.000  
 110362704.94608         0.000           0.000       -1574.648           0.000  
         0.000          48.000           0.000           0.000  
  22655241.188    22655242.051           0.000    22655240.191    22655242.754  
 121062727.57008  94159898.40646         0.000       -4308.301       -3350.901  
         0.000          45.800          40.600           0.000  
  22390851.523    22390856.953           0.000    22390851.012    22390856.293  
 119733916.48806  93126423.46546         0.000       -3794.824       -2951.530  
         0.000          40.500          40.100           0.000  
  20962788.562    20962790.578           0.000    20962786.656    20962790.508  
 111900820.55709  87033980.21248         0.000        3165.508        2462.062  
         0.000          50.300          46.700           0.000  
 18  2  1  0  8 30.0000000  0 19G15G16G21G27G30G08G13G26G20G07R06R13 0.000000002
                                R21R04R05R12R11R20R22
  24026197.031    24026198.875           0.000    24026197.466    24026199.844  
 126258480.24408  98383268.14143         0.000        2031.477        1582.969  
         0.000          45.800          28.500           0.000  
  21307586.891           0.000           0.000    21307586.521    21307589.055  
 111972030.85209  87251011.64345         0.000       -2091.348       -1629.622  
         0.000          49.700          37.700           0.000  
  21905684.039           0.000           0.000    21905683.474    21905685.234  
 115114970.49508  89700149.59146         0.000       -1637.770       -1276.184  
         0.000          48.600          39.200           0.000  
  20601692.000    20601696.383    20601695.199    20601691.996    20601696.824  
 108262633.62709  84360516.57147  80845489.36509      1492.969        1163.352  
         0.000          52.800          42.800          54.700  
  24174917.602    24174921.480    24174920.215    24174917.475    24174921.844  
 127040059.62906  98992257.08041  94867579.37007      1713.168        1334.936  
         0.000          39.800          19.000          42.900  
  23363099.648    23363104.480    23363103.516    23363099.527    23363103.672  
 122773913.14407  95668004.45442  91681829.85508      3326.168        2591.819  
         0.000          43.600          26.800          46.200  
  24003964.617           0.000           0.000    24003964.785    24003967.145  
 126141610.23706  98292247.25741         0.000        1218.102         949.170  
         0.000          41.500          21.100           0.000  
  23167046.391    23167051.793    23167051.605    23167046.413    23167052.641  
 121743765.68708  94865195.18543  90912441.36008     -3475.133       -2707.896  
         0.000          46.100          30.500          47.100  
  22343733.930           0.000           0.000    22343733.317    22343737.258  
 117417168.47707  91493876.02943         0.000       -1916.191       -1493.136  
         0.000          44.500          30.100           0.000  
  23447371.898    23447373.457           0.000    23447372.076    23447373.223  
 123216856.11208  96013089.23443         0.000         321.113         250.218  
         0.000          46.500          29.300           0.000  
  22491320.086    22491319.703           0.000    22491318.113    22491319.715  
 120017975.89606  93347292.14044         0.000        4122.430        3206.334  
         0.000          41.200          34.100           0.000  
  22150029.625    22150031.203           0.000    22150027.176    22150029.781  
 118279953.45506  91995478.04344         0.000        2992.090        2327.181  
         0.000          39.900          34.500           0.000  
  19222685.258    19222686.074           0.000    19222682.945    19222686.562  
 102864492.70409  80005704.03348         0.000        -709.258        -551.645  
         0.000          50.200          48.000           0.000  
  22580123.805    22580123.199           0.000    22580122.168    22580124.512  
 120915555.50608  94045444.55646         0.000       -3197.324       -2486.808  
         0.000          46.600          39.100           0.000  
  20873212.594    20873215.629           0.000    20873212.113    20873213.906  
 111579283.94608  86783933.11144         0.000         436.324         339.363  
         0.000          45.000          34.500           0.000  
  20669045.883           0.000           0.000    20669044.969           0.000  
 110410344.14408         0.000           0.000       -1601.387           0.000  
         0.000          47.800           0.000           0.000  
  22679451.797    22679456.320           0.000    22679452.773    22679456.203  
 121192116.09207  94260533.89146         0.000       -4317.695       -3358.207  
         0.000          44.700          40.500           0.000  
  22412160.586    22412163.527           0.000    22412159.863    22412163.008  
 119847855.41606  93215042.68446         0.000       -3801.137       -2956.440  
         0.000          41.300          40.000           0.000  
  20945030.227    20945033.461           0.000    20945029.098    20945033.508  
 111806031.54209  86960255.44048         0.000        3153.691        2452.871  
         0.000          50.300          46.400           0.000  
 18  2  1  0  9  0.0000000  0 19G15G16G21G27G30G08G13G26G20G07R06R13 0.000000002
                                R21R04R05R12R11R20R22
  24014646.500    24014648.133           0.000    24014646.935    24014648.902  
 126197777.37708  98335967.22342         0.000        2015.398        1570.440  
         0.000          45.800          26.300           0.000  
  21319577.617           0.000           0.000    21319577.248    21319577.965  
 112035034.66909  87300105.50545         0.000       -2108.840       -1643.252  
         0.000          50.300          38.100           0.000  
  21915065.719           0.000           0.000    21915065.153    21915066.738  
 115164270.84209  89738565.44246         0.000       -1649.016       -1284.947  
         0.000          49.800          39.200           0.000  
  20593214.500    20593218.238    20593217.617    20593214.496    20593218.621  
 108218083.10609  84325801.87547  80812221.12409      1477.141        1151.019  
         0.000          53.100          42.900          54.800  
  24165187.375    24165191.207    24165190.984    24165187.248    24165192.027  
 126988926.97305  98952413.45741  94829395.93607      1695.594        1321.242  
         0.000          38.800          16.900          42.000  
  23344128.531    23344133.562    23344132.832    23344128.410    23344132.789  
 122674222.57107  95590323.47043  91607385.59908      3319.863        2586.906  
         0.000          43.600          28.100          46.400  
  23997065.867           0.000           0.000    23997066.035    23997068.805  
 126105354.76707  98263996.29241         0.000        1198.836         934.158  
         0.000          42.100          21.800           0.000  
  23186909.578    23186916.199    23186914.465    23186909.600    23186916.531  
 121848149.67308  94946533.29443  90990390.39708     -3483.758       -2714.616  
         0.000          45.500          31.400          47.500  
  22354723.461           0.000           0.000    22354722.848    22354725.207  
 117474917.22708  91538875.05243         0.000       -1933.781       -1506.843  
         0.000          45.100          29.600           0.000  
  23445594.555    23445595.785           0.000    23445594.733    23445595.820  
 123207520.19608  96005814.49743         0.000         301.324         234.798  
         0.000          46.900          28.000           0.000  
  22468175.234    22468176.238           0.000    22468174.012    22468175.758  
 119894474.07807  93251235.17144         0.000        4111.043        3197.478  
         0.000          42.300          33.600           0.000  
  22133276.789    22133279.262           0.000    22133274.246    22133278.047  
 118190498.46405  91925901.94344         0.000        2971.648        2311.282  
         0.000          38.800          34.600           0.000  
  19226716.727    19226717.402           0.000    19226714.887    19226718.008  
 102886065.70209  80022483.01448         0.000        -728.918        -566.936  
         0.000          50.400          48.100           0.000  
  22598088.414    22598088.301           0.000    22598086.848    22598088.465  
 121011752.97908  94120264.80245         0.000       -3215.871       -2501.233  
         0.000          46.800          38.800           0.000  
  20870844.109    20870846.605           0.000    20870843.020    20870846.574  
 111566621.78207  86774084.75344         0.000         407.816         317.191  
         0.000          44.800          35.400           0.000  
  20678115.414           0.000           0.000    20678114.641           0.000  
 110458786.28608         0.000           0.000       -1628.062           0.000  
         0.000          48.800           0.000           0.000  
  22703719.773    22703722.023           0.000    22703719.414    22703722.656  
 121321786.08308  94361388.26646         0.000       -4326.973       -3365.423  
         0.000          45.600          40.900           0.000  
  22433502.891    22433507.168           0.000    22433502.098    22433506.043  
 119961986.14106  93303811.04946         0.000       -3807.664       -2961.516  
         0.000          39.800          40.800           0.000  
  20927341.047    20927342.496           0.000    20927339.918    20927342.570  
 111711599.94409  86886808.64248         0.000        3141.766        2443.595  
         0.000          51.400          46.100           0.000  
 18  2  1  0  9 30.0000000  0 19G15G16G21G27G30G08G13G26G20G07R06R13 0.000000000
                                R21R04R05R12R11R20R22
  24003187.070    24003188.258           0.000    24003187.505    24003188.594  
 126137559.91207  98289044.54642         0.000        1999.105        1557.745  
         0.000          44.700          26.500           0.000  
  21331665.523           0.000           0.000    21331665.154    21331667.043  
 112098562.62809  87349607.79445         0.000       -2126.363       -1656.906  
         0.000          50.000          37.600           0.000  
  21924511.117           0.000           0.000    21924510.552    21924512.664  
 115213908.40609  89777244.06246         0.000       -1660.191       -1293.656  
         0.000          49.500          39.100           0.000  
  20584827.555    20584831.434    20584830.836    20584827.551    20584831.676  
 108174009.23609  84291458.59947  80779308.81909      1461.098        1138.518  
         0.000          52.000          43.700          54.700  
  24155555.508    24155559.422    24155561.027    24155555.381    24155560.746  
 126938318.88005  98912978.55541  94791604.14607      1678.125        1307.630  
         0.000          38.400          16.300          42.300  
  23325195.289    23325199.875    23325198.652    23325195.168    23325199.195  
 122574725.06307  95512792.94943  91533085.49308      3313.301        2581.793  
         0.000          44.300          29.100          45.700  
  23990277.375           0.000           0.000    23990277.543    23990281.543  
 126069682.68606  98236199.83541         0.000        1179.301         918.936  
         0.000          41.300          21.700           0.000  
  23206822.148    23206828.242    23206826.859    23206822.171    23206828.398  
 121952790.17708  95028071.31343  91068530.99508     -3492.258       -2721.240  
         0.000          45.500          29.800          47.700  
  22365813.203           0.000           0.000    22365812.590    22365814.305  
 117533192.13408  91584284.06943         0.000       -1951.348       -1520.531  
         0.000          46.400          30.400           0.000  
  23443931.133    23443932.469           0.000    23443931.311    23443933.750  
 123198782.78308  95999006.09643         0.000         281.254         219.159  
         0.000          46.800          28.300           0.000  
  22445093.594    22445095.066           0.000    22445092.816    22445094.844  
 119771310.26707  93155441.12944         0.000        4099.797        3188.731  
         0.000          43.100          34.000           0.000  
  22116640.117    22116643.059           0.000    22116637.668    22116642.406  
 118101661.63905  91856806.63444         0.000        2950.809        2295.073  
         0.000          38.300          35.600           0.000  
  19230858.516    19230858.980           0.000    19230856.793    19230859.727  
 102908229.83509  80039721.77748         0.000        -748.672        -582.300  
         0.000          50.900          48.400           0.000  
  22616156.570    22616157.609           0.000    22616154.723    22616157.184  
 121108505.50608  94195516.81046         0.000       -3234.332       -2515.592  
         0.000          47.400          40.000           0.000  
  20868636.305    20868639.293           0.000    20868634.508    20868638.652  
 111554815.75607  86764902.28945         0.000         379.227         294.954  
         0.000          44.700          36.100           0.000  
  20687332.750           0.000           0.000    20687332.586           0.000  
 110508029.70508         0.000           0.000       -1654.820           0.000  
         0.000          48.200           0.000           0.000  
  22728036.070    22728040.055           0.000    22728036.391    22728040.523  
 121451734.19708  94462458.99346         0.000       -4336.246       -3372.636  
         0.000          45.100          40.000           0.000  
  22454882.633    22454885.738           0.000    22454881.277    22454884.891  
 120076307.07706  93392727.37746         0.000       -3813.938       -2966.396  
         0.000          40.200          41.400           0.000  
  20909717.266    20909719.516           0.000    20909716.137    20909719.914  
 111617528.43509  86813641.92748         0.000        3129.703        2434.214  
         0.000          50.300          46.300           0.000  
 18  2  1  0 10  0.0000000  0 19G15G16G21G27G30G08G13G26G20G07R06R13 0.000000000
                                R21R04R05R12R11R20R22
  23991820.195    23991824.137           0.000    23991820.630    23991823.594  
 126077830.72507  98242502.34842         0.000        1982.707        1544.967  
         0.000          44.500          25.900           0.000  
  21343853.719           0.000           0.000    21343853.350    21343855.473  
 112162612.53409  87399516.79445         0.000       -2143.695       -1670.412  
         0.000          49.900          38.100           0.000  
  21934020.492           0.000           0.000    21934019.927    21934022.391  
 115263880.91608  89816183.68345         0.000       -1671.449       -1302.428  
         0.000          48.600          38.500           0.000  
  20576531.117    20576535.852    20576534.504    20576531.113    20576535.824  
 108130413.10509  84257487.60047  80746753.28109      1445.199        1126.129  
         0.000          51.800          43.400          54.800  
  24146024.156    24146030.031    24146031.543    24146024.029    24146030.449  
 126888236.95105  98873953.69341  94754205.26507      1660.562        1293.945  
         0.000          37.400          16.300          43.000  
  23306298.297    23306303.340    23306301.602    23306298.175    23306303.199  
 122475422.23407  95435414.12643  91458930.77908      3306.828        2576.749  
         0.000          43.000          29.500          46.300  
  23983601.531           0.000           0.000    23983601.699    23983604.117  
 126034595.63407  98208859.29041         0.000        1159.777         903.723  
         0.000          42.300          22.200           0.000  
  23226782.891    23226789.242    23226787.391    23226782.913    23226789.727  
 122057684.52108  95109807.16343  91146861.15408     -3500.660       -2727.787  
         0.000          45.300          31.600          48.000  
  22377002.094           0.000           0.000    22377001.481    22377003.547  
 117591991.35208  91630101.64843         0.000       -1968.750       -1534.091  
         0.000          45.900          30.200           0.000  
  23442383.906    23442384.609           0.000    23442384.084    23442384.527  
 123190644.07408  95992664.23543         0.000         261.289         203.602  
         0.000          48.000          28.800           0.000  
  22422076.031    22422077.129           0.000    22422075.652    22422078.898  
 119648488.74607  93059913.29244         0.000        4088.219        3179.726  
         0.000          42.400          35.000           0.000  
  22100120.031    22100122.293           0.000    22100118.758    22100122.086  
 118013445.74505  91788194.31244         0.000        2930.020        2278.904  
         0.000          38.500          35.400           0.000  
  19235110.398    19235111.590           0.000    19235109.098    19235112.387  
 102930983.94809  80057419.43048         0.000        -768.387        -597.634  
         0.000          50.800          48.900           0.000  
  22634325.922    22634328.789           0.000    22634325.246    22634328.152  
 121205809.64108  94271197.76546         0.000       -3252.656       -2529.844  
         0.000          46.800          39.500           0.000  
  20866587.531    20866589.812           0.000    20866586.273    20866589.523  
 111543866.11808  86756385.89044         0.000         350.645         272.724  
         0.000          45.000          35.600           0.000  
  20696701.258           0.000           0.000    20696700.273           0.000  
 110558072.22308         0.000           0.000       -1681.414           0.000  
         0.000          48.200           0.000           0.000  
  22752406.500    22752410.484           0.000    22752406.047    22752410.250  
 121581955.61508  94563742.25846         0.000       -4345.242       -3379.633  
         0.000          45.300          41.800           0.000  
  22476295.227    22476300.516           0.000    22476295.043    22476299.129  
 120190816.31106  93481790.14246         0.000       -3820.156       -2971.233  
         0.000          40.600          41.800           0.000  
  20892163.328    20892164.895           0.000    20892161.703    20892164.969  
 111523818.89009  86740756.74648         0.000        3117.566        2424.774  
         0.000          51.300          46.600           0.000  
 18  2  1  0 10 30.0000000  0 19G15G16G21G27G30G08G13G26G20G07R06R13 0.000000000
                                R21R04R05R12R11R20R22
  23980547.258    23980549.652           0.000    23980547.692    23980550.363  
 126018592.35307  98196342.57042         0.000        1966.398        1532.259  
         0.000          44.300          25.600           0.000  
  21356141.172           0.000           0.000    21356140.803    21356143.277  
 112227183.20109  87449831.56445         0.000       -2161.047       -1683.933  
         0.000          49.800          37.500           0.000  
  21943593.422           0.000           0.000    21943592.857    21943594.734  
 115314188.59709  89855384.47145         0.000       -1682.469       -1311.015  
         0.000          49.300          38.100           0.000  
  20568327.258    20568330.926    20568329.695    20568327.254    20568331.203  
 108087296.47909  84223890.22947  80714555.81009      1429.250        1113.701  
         0.000          52.500          43.300          55.200  
  24136596.672    24136600.047    24136601.723    24136596.545    24136600.152  
 126838683.51706  98835340.69741  94717201.20207      1643.133        1280.363  
         0.000          39.300          16.900          43.600  
  23287439.055    23287444.168    23287441.996    23287438.933    23287444.367  
 122376316.17807  95358188.63043  91384923.00908      3300.227        2571.605  
         0.000          43.700          29.300          47.200  
  23977036.453           0.000           0.000    23977036.621    23977037.633  
 126000095.27607  98181975.94841         0.000        1140.289         888.537  
         0.000          42.600          21.700           0.000  
  23246792.070    23246797.977    23246796.266    23246792.093    23246798.789  
 122162830.73108  95191739.23344  91225379.40108     -3508.953       -2734.249  
         0.000          45.400          32.100          48.500  
  22388290.266           0.000           0.000    22388289.653    22388292.188  
 117651313.18608  91676326.46943         0.000       -1986.059       -1547.578  
         0.000          45.400          30.000           0.000  
  23440948.016    23440948.941           0.000    23440948.193    23440949.223  
 123183104.69308  95986789.40942         0.000         241.340         188.057  
         0.000          47.200          27.900           0.000  
  22399124.273    22399126.332           0.000    22399123.613    22399126.812  
 119526013.92306  92964655.12144         0.000        4076.609        3170.696  
         0.000          41.400          34.200           0.000  
  22083718.102    22083718.648           0.000    22083715.418    22083719.148  
 117925855.36805  91720068.52444         0.000        2909.258        2262.756  
         0.000          38.600          35.700           0.000  
  19239472.719    19239473.863           0.000    19239471.395    19239474.660  
 102954327.79709  80075575.75548         0.000        -788.004        -612.892  
         0.000          50.400          48.300           0.000  
  22652599.367    22652601.859           0.000    22652598.574    22652601.410  
 121303661.81308  94347304.97545         0.000       -3270.816       -2543.968  
         0.000          46.700          38.700           0.000  
  20864701.430    20864702.375           0.000    20864699.586    20864701.805  
 111533773.95008  86748536.42344         0.000         322.148         250.560  
         0.000          46.000          35.700           0.000  
  20706219.078           0.000           0.000    20706218.141           0.000  
 110608911.97608         0.000           0.000       -1707.902           0.000  
         0.000          47.900           0.000           0.000  
  22776826.727    22776829.656           0.000    22776826.105    22776829.820  
 121712447.09908  94665235.59446         0.000       -4354.055       -3386.487  
         0.000          45.400          41.100           0.000  
  22497745.188    22497748.434           0.000    22497744.066    22497747.938  
 120305512.23806  93570998.12546         0.000       -3826.223       -2975.951  
         0.000          41.400          41.800           0.000  
  20874675.469    20874677.387           0.000    20874674.949    20874678.422  
 111430473.73509  86668154.96348         0.000        3105.453        2415.352  
         0.000          50.800          45.700           0.000  
 18  2  1  0 11  0.0000000  0 20G15G16G21G27G30G08G10G13G26G20G07R06 0.000000000
                                R13R21R04R05R12R11R20R22
  23969369.680    23969369.461           0.000    23969370.114    23969369.445  
 125959847.60907  98150567.47941         0.000        1949.898        1519.401  
         0.000          43.800          23.000           0.000  
  21368528.156           0.000           0.000    21368527.787    21368529.207  
 112292272.64309  87500550.57645         0.000       -2178.227       -1697.319  
         0.000          50.500          37.900           0.000  
  21953229.789           0.000           0.000    21953229.224    21953231.863  
 115364830.13408  89894845.41845         0.000       -1693.594       -1319.683  
         0.000          47.700          38.500           0.000  
  20560212.641    20560217.398    20560216.273    20560212.637    20560217.875  
 108044660.47109  84190667.36147  80682717.23209      1413.184        1101.182  
         0.000          51.300          43.400          54.800  
  24127267.945    24127273.598    24127271.941    24127267.818    24127272.246  
 126789660.16606  98797140.72041  94680592.93607      1625.406        1266.550  
         0.000          39.000          15.600          43.800  
  23268618.484    23268622.156    23268620.477    23268618.363    23268622.684  
 122277408.63207  95281117.81743  91311063.48008      3293.551        2566.403  
         0.000          44.100          28.800          47.300  
  23428474.227    23428479.957    23428476.324    23428474.517           0.000  
 123117699.38004  95935686.08345  91938368.34606      3525.008        2746.759  
         0.000          33.100          38.300          41.400  
  23970581.953           0.000           0.000    23970582.121    23970584.773  
 125966182.85606  98155550.71841         0.000        1120.605         873.199  
         0.000          40.800          20.900           0.000  
  23266847.695    23266854.422    23266852.816    23266847.718    23266854.590  
 122268226.14208  95273865.49243  91304083.70508     -3517.289       -2740.745  
         0.000          45.200          31.200          48.800  
  22399677.609           0.000           0.000    22399676.996    22399680.117  
 117711155.53308  91722956.87543         0.000       -2003.375       -1561.071  
         0.000          45.600          30.600           0.000  
  23439627.703    23439629.355           0.000    23439627.881    23439628.852  
 123176164.37508  95981381.39142         0.000         221.316         172.454  
         0.000          46.300          27.700           0.000  
  22376237.125    22376239.957           0.000    22376236.465    22376239.992  
 119403889.85006  92869669.78044         0.000        4064.977        3161.648  
         0.000          40.500          34.100           0.000  
  22067432.180    22067433.711           0.000    22067430.434    22067433.461  
 117838893.84706  91652431.79544         0.000        2888.141        2246.332  
         0.000          39.800          35.100           0.000  
  19243945.492    19243946.355           0.000    19243944.074    19243946.797  
 102978260.58409  80094190.11548         0.000        -807.598        -628.132  
         0.000          50.600          48.600           0.000  
  22670975.031    22670974.777           0.000    22670973.137    22670975.855  
 121402057.83808  94423835.23846         0.000       -3288.957       -2558.078  
         0.000          45.800          39.000           0.000  
  20862973.156    20862975.250           0.000    20862971.734    20862973.789  
 111524539.83508  86741354.35844         0.000         293.566         228.329  
         0.000          45.200          34.900           0.000  
  20715885.602           0.000           0.000    20715884.547           0.000  
 110660546.15709         0.000           0.000       -1734.285           0.000  
         0.000          49.100           0.000           0.000  
  22801294.539    22801299.535           0.000    22801295.680    22801299.977  
 121843204.21707  94766935.48847         0.000       -4362.930       -3393.390  
         0.000          44.900          42.000           0.000  
  22519228.414    22519231.871           0.000    22519227.246    22519231.070  
 120420392.86307  93660349.77347         0.000       -3832.348       -2980.715  
         0.000          42.100          42.100           0.000  
  20857258.969    20857260.348           0.000    20857257.391    20857260.562  
 111337494.79709  86595838.00048         0.000        3093.203        2405.825  
         0.000          52.100          46.100           0.000  
 18  2  1  0 11 30.0000000  0 20G15G16G21G27G30G08G10G13G26G20G07R06 0.000000000
                                R13R21R04R05R12R11R20R22
  23958284.984    23958286.266           0.000    23958285.419    23958285.336  
 125901598.10307  98105178.28642         0.000        1933.430        1506.569  
         0.000          44.100          24.700           0.000  
  21381012.086           0.000           0.000    21381011.717    21381013.430  
 112357878.61809  87551672.08545         0.000       -2195.434       -1710.727  
         0.000          51.100          37.400           0.000  
  21962929.953           0.000           0.000    21962929.388    21962931.383  
 115415803.47209  89934564.90145         0.000       -1704.594       -1328.255  
         0.000          49.000          38.900           0.000  
  20552191.273    20552195.387    20552194.391    20552191.270    20552195.629  
 108002506.23109  84157819.89047  80651238.38709      1397.141        1088.681  
         0.000          51.700          43.100          54.600  
  24118039.992    24118044.164    24118044.363    24118039.865    24118044.703  
 126741168.48105  98759355.01141  94644381.61107      1607.523        1252.616  
         0.000          38.100          16.300          43.600  
  23249834.453    23249839.977    23249836.586    23249834.332    23249839.473  
 122178701.47107  95204203.12343  91237353.59108      3286.992        2561.293  
         0.000          42.900          28.500          47.200  
  23408372.305    23408376.934    23408373.594    23408372.595    23408377.449  
 123012058.97204  95853396.81741  91859481.00307      3517.297        2740.751  
         0.000          34.300          17.800          42.500  
  23964240.812           0.000           0.000    23964240.980    23964244.453  
 125932859.74307  98129584.58241         0.000        1100.953         857.886  
         0.000          42.500          22.300           0.000  
  23286952.312    23286957.223    23286955.816    23286952.335    23286957.859  
 122373868.07208  95356183.85143  91382972.10008     -3525.453       -2747.106  
         0.000          46.400          30.400          48.700  
  22411163.578           0.000           0.000    22411162.965    22411165.969  
 117771515.83208  91769990.89043         0.000       -2020.668       -1574.546  
         0.000          45.400          30.200           0.000  
  23438421.352    23438421.492           0.000    23438421.529    23438421.797  
 123169823.43408  95976440.36442         0.000         201.398         156.934  
         0.000          47.200          27.300           0.000  
  22353419.195    22353421.230           0.000    22353417.527    22353421.102  
 119282120.95506  92774960.63844         0.000        4053.004        3152.336  
         0.000          40.900          34.400           0.000  
  22051266.844    22051267.695           0.000    22051263.645    22051267.398  
 117752564.82506  91585286.99244         0.000        2867.109        2229.974  
         0.000          40.600          35.600           0.000  
  19248527.312    19248528.574           0.000    19248526.105    19248528.922  
 103002781.29909  80113261.73548         0.000        -827.066        -643.274  
         0.000          50.700          48.000           0.000  
  22689449.883    22689450.078           0.000    22689448.668    22689451.035  
 121500993.30308  94500785.01945         0.000       -3306.777       -2571.938  
         0.000          45.800          38.300           0.000  
  20861404.461    20861407.449           0.000    20861404.332    20861406.902  
 111516163.44807  86734839.37044         0.000         264.926         206.053  
         0.000          44.800          35.300           0.000  
  20725698.906           0.000           0.000    20725698.250           0.000  
 110712972.50208         0.000           0.000       -1760.680           0.000  
         0.000          48.000           0.000           0.000  
  22825813.344    22825817.773           0.000    22825813.523    22825817.867  
 121974222.50007  94868838.52946         0.000       -4371.582       -3400.119  
         0.000          44.600          41.100           0.000  
  22540747.594    22540748.984           0.000    22540745.133    22540748.469  
 120535456.06907  93749843.36846         0.000       -3838.391       -2985.415  
         0.000          43.100          41.400           0.000  
  20839908.672    20839911.648           0.000    20839907.730    20839911.648  
 111244883.78509  86523807.20648         0.000        3080.883        2396.242  
         0.000          51.300          46.100           0.000  
 18  2  1  0 12  0.0000000  0 20G15G16G21G27G30G08G10G13G26G20G07R06 0.000000000
                                R13R21R04R05R12R11R20R22
  23947294.055    23947297.070           0.000    23947294.489    23947296.750  
 125843846.64707  98060177.14541         0.000        1916.738        1493.562  
         0.000          42.500          22.800           0.000  
  21393594.547           0.000           0.000    21393594.178    21393595.246  
 112423999.01509  87603194.45145         0.000       -2212.527       -1724.047  
         0.000          49.600          37.700           0.000  
  21972693.539           0.000           0.000    21972692.974    21972694.852  
 115467108.03808  89974542.49145         0.000       -1715.633       -1336.857  
         0.000          48.700          38.200           0.000  
  20544262.000    20544266.078    20544264.707    20544261.996    20544266.473  
 107960834.84709  84125348.67647  80620120.15509      1381.051        1076.143  
         0.000          51.600          43.800          54.700  
  24108911.531    24108918.695    24108918.074    24108911.404    24108917.883  
 126693209.98405  98721984.84141  94608568.50307      1589.602        1238.651  
         0.000          38.300          16.900          43.100  
  23231089.414    23231094.973    23231091.887    23231089.293    23231095.488  
 122080196.29307  95127445.85643  91163794.55008      3280.230        2556.024  
         0.000          42.200          29.300          47.400  
  23388313.164    23388318.484    23388314.629    23388313.455    23388319.480  
 122906650.16705  95771260.10841  91780766.67107      3509.824        2734.928  
         0.000          36.700          19.300          42.300  
  23958013.156           0.000           0.000    23958013.324    23958014.922  
 125900127.68907  98104079.09941         0.000        1081.207         842.499  
         0.000          43.700          22.800           0.000  
  23307100.820    23307106.949    23307104.734    23307100.843    23307107.246  
 122479753.92608  95438692.29643  91462042.68608     -3533.484       -2753.364  
         0.000          45.100          30.100          48.000  
  22422748.516           0.000           0.000    22422747.903    22422750.438  
 117832392.12708  91817426.95143         0.000       -2037.746       -1587.854  
         0.000          46.200          31.000           0.000  
  23437328.820    23437329.805           0.000    23437328.998    23437330.379  
 123164081.85708  95971966.46142         0.000         181.445         141.386  
         0.000          45.000          27.400           0.000  
  22330666.523    22330670.109           0.000    22330666.098    22330669.742  
 119160711.23706  92680530.88844         0.000        4041.004        3143.003  
         0.000          41.800          35.700           0.000  
  22035216.570    22035220.590           0.000    22035215.930    22035218.742  
 117666872.57006  91518637.50744         0.000        2845.969        2213.531  
         0.000          39.500          35.400           0.000  
  19253219.750    19253220.449           0.000    19253218.121    19253220.891  
 103027889.42109  80132790.26148         0.000        -846.750        -658.583  
         0.000          50.500          48.200           0.000  
  22708025.539    22708026.297           0.000    22708024.348    22708026.387  
 121600464.45007  94578151.44545         0.000       -3324.594       -2585.795  
         0.000          44.600          37.700           0.000  
  20859998.586    20860001.199           0.000    20859997.398    20860000.367  
 111508645.50507  86728992.06344         0.000         236.305         183.793  
         0.000          44.000          35.000           0.000  
  20735661.648           0.000           0.000    20735660.195           0.000  
 110766188.51108         0.000           0.000       -1786.938           0.000  
         0.000          48.200           0.000           0.000  
  22850380.367    22850384.234           0.000    22850380.172    22850383.906  
 122105497.63608  94970941.38546         0.000       -4380.047       -3406.703  
         0.000          45.500          40.900           0.000  
  22562298.344    22562299.242           0.000    22562297.129    22562298.750  
 120650699.78307  93839477.39246         0.000       -3844.410       -2990.097  
         0.000          43.600          39.600           0.000  
  20822628.648    20822631.836           0.000    20822627.328    20822631.391  
 111152642.76009  86452064.19748         0.000        3068.574        2386.669  
         0.000          50.400          46.000           0.000  
 18  2  1  0 12 30.0000000  0 20G15G16G21G27G30G08G10G13G26G20G07R06 0.000000000
                                R13R21R04R05R12R11R20R22
  23936400.750    23936402.195           0.000    23936401.185    23936402.684  
 125786595.43707  98015565.82742         0.000        1900.145        1480.632  
         0.000          43.500          25.300           0.000  
  21406273.391           0.000           0.000    21406273.021    21406275.730  
 112490632.05508  87655116.28645         0.000       -2229.531       -1737.297  
         0.000          48.700          36.300           0.000  
  21982519.742           0.000           0.000    21982519.177    21982520.469  
 115518742.29909  90014776.97445         0.000       -1726.438       -1345.276  
         0.000          49.100          38.500           0.000  
  20536424.133    20536428.504    20536427.449    20536424.129    20536428.898  
 107919647.74209  84093254.81147  80589363.51909      1364.922        1063.575  
         0.000          51.400          43.700          54.800  
  24099888.812    24099894.395    24099893.711    24099888.686    24099894.109  
 126645786.53806  98685031.45441  94573154.81807      1571.980        1224.920  
         0.000          39.600          18.600          42.700  
  23212382.523    23212388.777    23212385.664    23212382.402    23212388.129  
 121981894.64407  95050847.16443  91090387.46408      3273.348        2550.661  
         0.000          42.300          30.200          47.300  
  23368299.734    23368305.102    23368300.086    23368300.025    23368306.109  
 122801476.01605  95689306.22941  91702227.52807      3501.797        2728.673  
         0.000          37.600          19.000          42.100  
  23951897.602           0.000           0.000    23951897.769    23951898.723  
 125867988.04207  98079035.21641         0.000        1061.527         827.164  
         0.000          44.000          23.600           0.000  
  23327295.117    23327301.105    23327300.262    23327295.139    23327302.539  
 122585881.37807  95521388.96743  91541293.65409     -3541.508       -2759.616  
         0.000          43.700          30.600          49.200  
  22434431.133           0.000           0.000    22434430.520    22434433.348  
 117893782.73708  91865263.77743         0.000       -2054.809       -1601.150  
         0.000          45.800          31.700           0.000  
  23436349.734    23436351.445           0.000    23436349.912    23436351.352  
 123158939.95008  95967959.79342         0.000         161.492         125.838  
         0.000          45.600          27.500           0.000  
  22307982.773    22307985.465           0.000    22307982.324    22307985.289  
 119039665.20707  92586384.01444         0.000        4028.922        3133.606  
         0.000          42.100          35.100           0.000  
  22019289.375    22019293.020           0.000    22019288.172    22019292.512  
 117581819.60906  91452485.19545         0.000        2824.410        2196.763  
         0.000          39.700          36.700           0.000  
  19258021.594    19258022.340           0.000    19258019.871    19258022.711  
 103053584.05409  80152774.97948         0.000        -866.156        -673.677  
         0.000          50.200          48.000           0.000  
  22726701.391    22726700.480           0.000    22726699.754    22726700.898  
 121700467.59608  94655931.66745         0.000       -3342.141       -2599.443  
         0.000          45.600          38.000           0.000  
  20858752.336    20858755.957           0.000    20858752.090    20858754.965  
 111501986.42107  86723812.77944         0.000         207.785         161.611  
         0.000          44.100          35.200           0.000  
  20745770.930           0.000           0.000    20745770.086           0.000  
 110820191.82808         0.000           0.000       -1813.043           0.000  
         0.000          48.200           0.000           0.000  
  22874994.086    22874997.766           0.000    22874993.938    22874998.023  
 122237025.50408  95073240.79446         0.000       -4388.277       -3413.105  
         0.000          45.400          40.400           0.000  
  22583882.773    22583885.996           0.000    22583881.887    22583884.352  
 120766122.16407  93929250.32246         0.000       -3850.340       -2994.709  
         0.000          42.400          40.900           0.000  
  20805419.305    20805420.754           0.000    20805417.727    20805421.086  
 111060773.91009  86380610.65148         0.000        3056.133        2376.992  
         0.000          51.100          46.300           0.000  
 18  2  1  0 13  0.0000000  0 20G15G16G21G27G30G08G10G13G26G20G07R06 0.000000000
                                R13R21R04R05R12R11R20R22
  23925600.906    23925602.574           0.000    23925601.341    23925602.664  
 125729846.79807  97971346.13242         0.000        1883.215        1467.440  
         0.000          43.300          25.500           0.000  
  21419051.367           0.000           0.000    21419050.998    21419052.828  
 112557775.55109  87707435.86845         0.000       -2246.613       -1750.608  
         0.000          49.500          36.900           0.000  
  21992407.680           0.000           0.000    21992407.114    21992408.699  
 115570704.71409  90055267.16345         0.000       -1737.520       -1353.911  
         0.000          49.800          38.100           0.000  
  20528679.141    20528683.418    20528682.023    20528679.137    20528683.262  
 107878945.98609  84061539.15947  80558969.35309      1348.562        1050.828  
         0.000          52.100          43.800          54.700  
  24090965.438    24090971.734    24090971.336    24090965.311    24090971.848  
 126598900.01805  98648496.57241  94538142.21507      1553.891        1210.824  
         0.000          38.900          19.300          42.200  
  23193715.117    23193721.758    23193718.609    23193714.996    23193721.660  
 121883798.73407  94974408.79743  91017134.04308      3266.273        2545.148  
         0.000          42.500          29.700          47.400  
  23348329.656    23348335.070    23348332.246    23348329.947    23348335.973  
 122696538.79904  95607537.06541  91623865.35907      3493.852        2722.482  
         0.000          35.200          16.900          43.700  
  23945894.328           0.000           0.000    23945894.496    23945896.035  
 125836441.92707  98054453.81641         0.000        1041.617         811.650  
         0.000          43.800          22.600           0.000  
  23347534.789    23347541.977    23347540.320    23347534.811    23347542.562  
 122692247.63907  95604271.74343  91620722.99308     -3549.391       -2765.759  
         0.000          43.300          29.900          48.300  
  22446210.641           0.000           0.000    22446210.028    22446213.148  
 117955684.91408  91913499.24543         0.000       -2071.984       -1614.533  
         0.000          45.000          31.200           0.000  
  23435485.227    23435486.305           0.000    23435485.404    23435486.668  
 123154397.58208  95964420.27542         0.000         141.430         110.205  
         0.000          45.100          27.500           0.000  
  22285368.109    22285370.707           0.000    22285367.660    22285369.641  
 118918987.12407  92492523.28744         0.000        4016.367        3123.841  
         0.000          42.600          34.900           0.000  
  22003484.359    22003484.742           0.000    22003482.379    22003485.875  
 117497410.71207  91386833.86045         0.000        2802.758        2179.923  
         0.000          42.000          36.600           0.000  
  19262932.883    19262933.203           0.000    19262931.184    19262933.602  
 103079864.26909  80173215.17448         0.000        -885.750        -688.917  
         0.000          50.800          47.600           0.000  
  22745473.828    22745475.008           0.000    22745472.660    22745475.426  
 121800998.25107  94734122.20345         0.000       -3359.828       -2613.200  
         0.000          44.600          38.700           0.000  
  20857668.633    20857670.750           0.000    20857667.941    20857670.227  
 111496186.02208  86719301.39044         0.000         179.039         139.253  
         0.000          45.600          35.300           0.000  
  20756027.289           0.000           0.000    20756026.398           0.000  
 110874979.95508         0.000           0.000       -1839.309           0.000  
         0.000          48.000           0.000           0.000  
  22899653.898    22899657.695           0.000    22899653.773    22899657.672  
 122368801.89007  95175733.45546         0.000       -4396.676       -3419.637  
         0.000          43.900          40.200           0.000  
  22605495.977    22605503.773           0.000    22605495.957    22605502.273  
 120881721.06305  94019160.58046         0.000       -3856.160       -2999.236  
         0.000          38.400          40.900           0.000  
  20788278.047    20788280.250           0.000    20788277.246    20788280.625  
 110969278.74809  86309447.76048         0.000        3043.562        2367.215  
         0.000          50.900          45.200           0.000  
 18  2  1  0 13 30.0000000  0 20G15G16G21G27G30G08G10G13G26G20G07R06 0.000000000
                                R13R21R04R05R12R11R20R22
  23914897.781    23914900.410           0.000    23914898.216    23914900.359  
 125673603.63208  97927520.32342         0.000        1866.371        1454.315  
         0.000          45.000          26.400           0.000  
  21431924.992           0.000           0.000    21431924.623    21431926.277  
 112625428.35909  87760152.31945         0.000       -2263.492       -1763.760  
         0.000          49.300          37.200           0.000  
  22002357.547           0.000           0.000    22002356.982    22002359.094  
 115622994.28408  90096012.28045         0.000       -1748.418       -1362.404  
         0.000          47.800          37.900           0.000  
  20521026.500    20521030.402    20521029.676    20521026.496    20521030.738  
 107838731.06709  84030202.84647  80528938.71909      1332.441        1038.266  
         0.000          51.800          43.900          55.000  
  24082148.062    24082150.582    24082150.008    24082147.936    24082151.953  
 126552552.04406  98612381.32841  94503531.77206      1535.945        1196.841  
         0.000          40.400          19.600          41.100  
  23175087.367    23175093.914    23175091.000    23175087.246    23175093.793  
 121785910.29707  94898132.10843  90944035.54108      3259.539        2539.901  
         0.000          42.300          30.600          47.300  
  23328406.734    23328410.812    23328409.066    23328407.025    23328411.879  
 122591841.57704  95525954.75741  91545682.35807      3485.711        2716.138  
         0.000          35.400          16.900          44.100  
  23940004.656           0.000           0.000    23940004.824    23940005.836  
 125805491.51207  98030336.62341         0.000        1021.758         796.175  
         0.000          43.300          23.000           0.000  
  23367820.422    23367827.633    23367826.906    23367820.444    23367827.727  
 122798850.60107  95687338.97143  91700329.07909     -3557.340       -2771.953  
         0.000          43.100          30.400          49.000  
  22458087.266           0.000           0.000    22458086.653    22458090.242  
 118018097.11408  91962132.13643         0.000       -2088.777       -1627.619  
         0.000          46.700          31.900           0.000  
  23434735.188    23434736.312           0.000    23434735.365    23434736.863  
 123150455.11108  95961348.22043         0.000         121.473          94.654  
         0.000          46.300          28.300           0.000  
  22262822.266    22262823.457           0.000    22262821.863    22262823.703  
 118798680.98307  92398951.87544         0.000        4003.902        3114.146  
         0.000          42.900          34.100           0.000  
  21987799.203    21987799.586           0.000    21987796.707    21987799.758  
 117413649.17506  91321686.02145         0.000        2781.199        2163.155  
         0.000          41.700          36.000           0.000  
  19267953.000    19267953.250           0.000    19267951.348    19267953.977  
 103106729.52009  80194110.37948         0.000        -905.180        -704.029  
         0.000          50.700          47.800           0.000  
  22764344.312    22764347.062           0.000    22764343.332    22764346.520  
 121902052.61807  94812720.01046         0.000       -3377.156       -2626.677  
         0.000          44.200          40.600           0.000  
  20856744.336    20856746.688           0.000    20856743.148    20856746.047  
 111491245.15708  86715458.47744         0.000         150.395         116.974  
         0.000          45.600          35.400           0.000  
  20766430.422           0.000           0.000    20766429.180           0.000  
 110930550.70108         0.000           0.000       -1865.305           0.000  
         0.000          48.200           0.000           0.000  
  22924360.125    22924363.336           0.000    22924359.648    22924363.758  
 122500823.05707  95278416.58146         0.000       -4404.699       -3425.877  
         0.000          44.100          39.600           0.000  
  22627148.094    22627153.289           0.000    22627146.996    22627152.230  
 120997495.04006  94109206.99246         0.000       -3861.969       -3003.753  
         0.000          39.700          41.000           0.000  
  20771207.875    20771210.805           0.000    20771207.191    20771211.086  
 110878159.77509  86238577.46648         0.000        3031.059        2357.490  
         0.000          50.100          46.000           0.000  
 18  2  1  0 14  0.0000000  0 20G15G16G21G27G30G08G10G13G26G20G07R06-0.000000002
                                R13R21R04R05R12R11R20R22
  23904292.477    23904295.012           0.000    23904292.911    23904293.531  
 125617867.86708  97884089.88342         0.000        1849.305        1441.017  
         0.000          45.200          24.400           0.000  
  21444895.727           0.000           0.000    21444895.357    21444897.539  
 112693587.94309  87813263.66945         0.000       -2280.484       -1777.001  
         0.000          49.700          37.200           0.000  
  22012370.422           0.000           0.000    22012369.857    22012371.910  
 115675609.28009  90137010.97645         0.000       -1759.301       -1370.884  
         0.000          49.400          38.400           0.000  
  20513466.961    20513470.043    20513470.254    20513466.957    20513470.438  
 107799003.99609  83999246.67347  80499272.38109      1316.070        1025.509  
         0.000          51.000          43.300          55.400  
  24073431.141    24073433.414    24073432.055    24073431.014    24073433.742  
 126506744.34806  98576687.11141  94469324.81206      1517.816        1182.714  
         0.000          39.200          16.900          40.600  
  23156499.414    23156505.762    23156503.270    23156499.293    23156505.605  
 121688230.71106  94822018.14743  90871092.99908      3252.465        2534.388  
         0.000          41.300          30.000          47.000  
  23308528.273    23308531.895    23308531.543    23308528.564    23308533.945  
 122487386.90204  95444561.50841  91467680.57807      3477.629        2709.841  
         0.000          34.800          16.900          43.700  
  23934228.906           0.000           0.000    23934229.074    23934230.965  
 125775137.42207  98006684.10242         0.000        1001.879         780.685  
         0.000          43.600          24.800           0.000  
  23388151.195    23388158.570    23388157.633    23388151.218    23388158.734  
 122905687.51407  95770588.48143  91780109.85808     -3565.074       -2777.980  
         0.000          43.400          28.900          48.800  
  22470060.156           0.000           0.000    22470059.543    22470063.250  
 118081017.11808  92011160.69243         0.000       -2105.785       -1640.872  
         0.000          45.500          31.400           0.000  
  23434098.852    23434100.141           0.000    23434099.029    23434100.527  
 123147112.69708  95958743.76742         0.000         101.352          78.975  
         0.000          45.600          27.300           0.000  
  22240348.820    22240348.953           0.000    22240346.754    22240349.059  
 118678751.57507  92305673.44444         0.000        3991.262        3104.315  
         0.000          42.500          34.800           0.000  
  21972234.812    21972237.496           0.000    21972232.176    21972235.719  
 117330539.14806  91257044.94244         0.000        2759.371        2146.178  
         0.000          40.800          35.400           0.000  
  19273083.102    19273082.977           0.000    19273080.836    19273083.867  
 103134178.79209  80215459.79948         0.000        -924.730        -719.235  
         0.000          51.000          48.300           0.000  
  22783311.484    22783314.492           0.000    22783311.211    22783315.055  
 122003626.64307  94891722.00346         0.000       -3394.449       -2640.127  
         0.000          43.400          40.200           0.000  
  20855981.172    20855982.773           0.000    20855979.492    20855982.461  
 111487163.68608  86712283.98044         0.000         121.699          94.655  
         0.000          45.200          35.300           0.000  
  20776979.609           0.000           0.000    20776978.672           0.000  
 110986901.17108         0.000           0.000       -1891.402           0.000  
         0.000          48.400           0.000           0.000  
  22949108.773    22949114.637           0.000    22949109.328    22949114.871  
 122633084.46107  95381286.52146         0.000       -4412.727       -3432.121  
         0.000          43.000          39.600           0.000  
  22648831.070    22648835.371           0.000    22648830.371    22648834.223  
 121113441.78606  94199387.78446         0.000       -3867.816       -3008.302  
         0.000          40.700          40.600           0.000  
  20754209.680    20754212.211           0.000    20754208.668    20754212.398  
 110787418.61109  86168000.99648         0.000        3018.355        2347.610  
         0.000          50.100          46.300           0.000  
 18  2  1  0 14 30.0000000  0 20G15G16G21G27G30G08G10G13G26G20G07R06 0.000000000
                                R13R21R04R05R12R11R20R22
  23893783.977    23893783.945           0.000    23893784.411    23893783.977  
 125562641.83608  97841056.65342         0.000        1832.312        1427.776  
         0.000          46.300          25.500           0.000  
  21457962.281           0.000           0.000    21457961.912    21457963.566  
 112762252.57709  87866768.55745         0.000       -2297.277       -1790.086  
         0.000          49.700          37.600           0.000  
  22022444.953           0.000           0.000    22022444.388    22022445.855  
 115728549.71108  90178263.27545         0.000       -1770.148       -1379.336  
         0.000          48.900          38.400           0.000  
  20505999.945    20506003.590    20506003.297    20505999.941    20506003.363  
 107759766.33409  83968671.87347  80469971.52909      1299.707        1012.759  
         0.000          51.600          43.400          55.200  
  24064817.422    24064819.930    24064819.719    24064817.295    24064819.555  
 126461478.53805  98541415.13441  94435522.52807      1499.711        1168.606  
         0.000          37.600          15.600          42.000  
  23137951.773    23137957.836    23137956.285    23137951.652    23137957.438  
 121590762.83407  94746069.16743  90798308.56108      3245.371        2528.861  
         0.000          43.000          29.000          47.900  
  23288700.094    23288703.000    23288701.055    23288700.384    23288703.891  
 122383177.75805  95363359.60341  91389862.07407      3469.398        2703.427  
         0.000          38.400          19.600          43.500  
  23928566.266           0.000           0.000    23928566.433    23928569.730  
 125745381.48907  97983497.66942         0.000         981.848         765.076  
         0.000          43.400          24.200           0.000  
  23408526.805    23408532.922    23408532.535    23408526.827    23408533.465  
 123012756.16407  95854018.55943  91860063.67608     -3572.867       -2784.052  
         0.000          44.400          29.800          48.400  
  22482130.305           0.000           0.000    22482129.692    22482131.113  
 118144442.98408  92060583.43843         0.000       -2122.609       -1653.981  
         0.000          45.300          29.100           0.000  
  23433575.922    23433578.301           0.000    23433576.100    23433578.891  
 123144370.24208  95956606.82042         0.000          81.328          63.373  
         0.000          45.900          27.500           0.000  
  22217945.320    22217945.195           0.000    22217943.395    22217945.605  
 118559203.08707  92212691.34244         0.000        3978.402        3094.313  
         0.000          42.100          35.400           0.000  
  21956792.992    21956793.984           0.000    21956790.965    21956794.742  
 117248083.79707  91192912.97645         0.000        2737.570        2129.221  
         0.000          42.000          36.500           0.000  
  19278320.516    19278321.824           0.000    19278319.379    19278322.691  
 103162211.62209  80237263.11948         0.000        -944.215        -734.389  
         0.000          50.300          48.500           0.000  
  22802377.844    22802379.680           0.000    22802376.934    22802379.043  
 122105716.77707  94971125.39446         0.000       -3411.645       -2653.501  
         0.000          43.700          39.900           0.000  
  20855378.375    20855378.430           0.000    20855377.164    20855379.992  
 111483942.31208  86709778.47844         0.000          93.070          72.388  
         0.000          45.000          35.700           0.000  
  20787674.078           0.000           0.000    20787673.211           0.000  
 111044029.01608         0.000           0.000       -1917.258           0.000  
         0.000          48.200           0.000           0.000  
  22973905.680    22973908.984           0.000    22973905.508    22973910.367  
 122765582.12507  95484340.23046         0.000       -4420.598       -3438.243  
         0.000          44.600          39.900           0.000  
  22670546.516    22670550.254           0.000    22670545.160    22670549.762  
 121229559.71806  94289701.71546         0.000       -3873.562       -3012.771  
         0.000          41.300          40.300           0.000  
  20737282.094    20737284.391           0.000    20737281.105    20737284.695  
 110697057.54509  86097720.19248         0.000        3005.672        2337.745  
         0.000          50.500          46.000           0.000  
 18  2  1  0 15  0.0000000  0 20G15G16G21G27G30G08G10G13G26G20G07R06 0.000000000
                                R13R21R04R05R12R11R20R22
  23883372.875    23883373.102           0.000    23883373.310    23883373.578  
 125507927.74708  97798422.33742         0.000        1815.219        1414.456  
         0.000          46.700          27.500           0.000  
  21471124.242           0.000           0.000    21471123.873    21471125.938  
 112831419.98309  87920665.20345         0.000       -2314.016       -1803.129  
         0.000          49.800          37.000           0.000  
  22032579.867           0.000           0.000    22032579.302    22032581.297  
 115781813.12208  90219767.23545         0.000       -1780.836       -1387.664  
         0.000          48.400          38.200           0.000  
  20498626.852    20498630.906    20498630.027    20498626.848    20498630.797  
 107721018.71809  83938478.91547  80441036.61509      1283.383        1000.039  
         0.000          52.300          43.800          55.300  
  24056305.758    24056308.254    24056310.352    24056305.631    24056309.531  
 126416756.02005  98506566.49941  94402125.93607      1481.566        1154.467  
         0.000          37.200          17.400          42.000  
  23119445.359    23119451.176    23119449.238    23119445.238    23119450.672  
 121493507.59407  94670285.85643  90725682.90508      3238.363        2523.400  
         0.000          42.200          28.900          47.600  
  23268918.695    23268920.336    23268918.062    23268918.986    23268920.848  
 122279216.29806  95282350.69741  91312228.52707      3461.238        2697.069  
         0.000          41.600          21.300          43.700  
  23923018.750           0.000           0.000    23923018.918    23923020.691  
 125716224.73407  97960778.13541         0.000         961.922         749.550  
         0.000          43.500          22.500           0.000  
  23428944.273    23428951.461    23428950.699    23428944.296    23428951.051  
 123120053.54708  95937626.86043  91940188.31808     -3580.426       -2789.942  
         0.000          45.200          30.400          48.800  
  22494294.453           0.000           0.000    22494293.840    22494297.020  
 118208371.83908  92110398.12143         0.000       -2139.441       -1667.097  
         0.000          45.400          29.700           0.000  
  23433169.281    23433170.230           0.000    23433169.459    23433171.074  
 123142227.40208  95954937.09043         0.000          61.465          47.895  
         0.000          47.100          28.600           0.000  
  22195613.188    22195613.531           0.000    22195612.012    22195614.367  
 118440039.16806  92120008.35044         0.000        3965.688        3084.424  
         0.000          41.800          34.400           0.000  
  21941475.117    21941476.133           0.000    21941472.762    21941476.656  
 117166286.77106  91129293.03045         0.000        2715.469        2112.031  
         0.000          41.300          37.200           0.000  
  19283668.562    19283668.980           0.000    19283667.191    19283669.633  
 103190826.92009  80259519.45848         0.000        -963.574        -749.447  
         0.000          50.500          47.800           0.000  
  22821539.289    22821539.199           0.000    22821537.371    22821539.598  
 122208318.40707  95050926.70346         0.000       -3428.605       -2666.693  
         0.000          44.700          40.100           0.000  
  20854936.773    20854937.906           0.000    20854935.352    20854937.945  
 111481580.14008  86707941.24044         0.000          64.340          50.042  
         0.000          45.100          35.200           0.000  
  20798512.828           0.000           0.000    20798512.312           0.000  
 111101931.10708         0.000           0.000       -1943.023           0.000  
         0.000          48.700           0.000           0.000  
  22998744.516    22998748.008           0.000    22998744.789    22998749.016  
 122898311.38008  95587574.03646         0.000       -4428.258       -3444.201  
         0.000          45.200          40.100           0.000  
  22692293.727    22692295.047           0.000    22692292.230    22692295.188  
 121345846.33507  94380146.89646         0.000       -3879.039       -3017.030  
         0.000          42.100          40.300           0.000  
  20720425.969    20720428.945           0.000    20720424.555    20720428.945  
 110607078.14809  86027736.19748         0.000        2992.926        2327.831  
         0.000          50.800          46.400           0.000  
 18  2  1  0 15 30.0000000  0 20G15G16G21G27G30G08G10G13G26G20G07R06 0.000000000
                                R13R21R04R05R12R11R20R22
  23873057.719    23873059.410           0.000    23873058.153    23873059.652  
 125453727.99608  97756188.73142         0.000        1798.137        1401.145  
         0.000          45.500          26.000           0.000  
  21484381.680           0.000           0.000    21484381.310    21484382.789  
 112901088.41809  87974952.28045         0.000       -2330.551       -1816.014  
         0.000          50.400          37.300           0.000  
  22042776.797           0.000           0.000    22042776.232    22042778.227  
 115835398.55008  90261522.12545         0.000       -1791.527       -1395.995  
         0.000          48.800          38.100           0.000  
  20491346.609    20491350.477    20491350.277    20491346.605    20491350.613  
 107682762.73309  83908669.06547  80412468.85409      1267.129         987.373  
         0.000          51.800          43.700          55.400  
  24047899.016    24047901.688    24047903.094    24047898.889    24047901.969  
 126372578.44005  98472142.49141  94369136.30607      1463.492        1140.384  
         0.000          38.100          15.600          42.100  
  23100978.875    23100985.562    23100983.398    23100978.754    23100985.242  
 121396467.10607  94594669.91143  90653217.61008      3231.109        2517.748  
         0.000          43.100          30.700          47.600  
  23249180.469    23249184.301    23249182.859    23249180.759    23249184.969  
 122175505.46506  95201537.12541  91234782.18008      3452.867        2690.546  
         0.000          39.700          22.600          45.200  
  23917583.148           0.000           0.000    23917583.316    23917585.793  
 125687668.61306  97938526.62541         0.000         941.973         734.005  
         0.000          41.400          21.300           0.000  
  23449406.836    23449411.910    23449412.285    23449406.858    23449412.031  
 123227577.46908  96021411.68443  92020482.09008     -3587.832       -2795.713  
         0.000          45.800          29.900          48.900  
  22506555.797           0.000           0.000    22506555.184    22506558.012  
 118272801.92708  92160603.35843         0.000       -2155.918       -1679.936  
         0.000          45.500          30.200           0.000  
  23432876.320    23432877.105           0.000    23432876.498    23432877.059  
 123140684.27308  95953734.63443         0.000          41.559          32.383  
         0.000          48.900          29.800           0.000  
  22173354.492    22173356.621           0.000    22173353.434    22173356.305  
 118321264.82707  92027628.31844         0.000        3952.621        3074.261  
         0.000          42.100          34.200           0.000  
  21926280.031    21926282.480           0.000    21926278.238    21926282.484  
 117085151.48206  91066187.80545         0.000        2693.535        2094.972  
         0.000          40.600          37.000           0.000  
  19289124.875    19289125.219           0.000    19289123.246    19289125.992  
 103220023.71309  80282228.08648         0.000        -982.883        -764.464  
         0.000          50.900          48.100           0.000  
  22840793.812    22840794.547           0.000    22840791.918    22840794.121  
 122311427.93607  95131123.00446         0.000       -3445.328       -2679.700  
         0.000          44.300          39.600           0.000  
  20854655.133    20854657.109           0.000    20854653.922    20854656.562  
 111480077.73907  86706772.69844         0.000          35.898          27.921  
         0.000          44.700          35.400           0.000  
  20809497.773           0.000           0.000    20809496.625           0.000  
 111160605.08709         0.000           0.000       -1968.586           0.000  
         0.000          49.000           0.000           0.000  
  23023625.867    23023630.297           0.000    23023626.117    23023630.273  
 123031268.43508  95690985.01946         0.000       -4435.594       -3449.906  
         0.000          45.700          40.100           0.000  
  22714068.992    22714074.160           0.000    22714068.551    22714072.871  
 121462300.20506  94470722.10246         0.000       -3884.500       -3021.278  
         0.000          40.600          40.300           0.000  
  20703642.898    20703644.254           0.000    20703641.250    20703644.586  
 110517482.65909  85958050.80248         0.000        2980.195        2317.930  
         0.000          51.400          46.300           0.000  
 18  2  1  0 16  0.0000000  0 20G15G16G21G27G30G08G10G13G26G20G07R06 0.000000000
                                R13R21R04R05R12R11R20R22
  23862842.234    23862844.477           0.000    23862842.669    23862843.699  
 125400044.91008  97714357.80441         0.000        1780.754        1387.600  
         0.000          45.000          23.800           0.000  
  21497733.188           0.000           0.000    21497732.818    21497735.938  
 112971255.65009  88029628.01845         0.000       -2347.238       -1829.017  
         0.000          49.100          36.400           0.000  
  22053035.062           0.000           0.000    22053034.497    22053036.902  
 115889305.57508  90303527.59245         0.000       -1802.238       -1404.342  
         0.000          48.900          37.900           0.000  
  20484160.211    20484164.312    20484163.855    20484160.207    20484164.508  
 107644999.42609  83879243.12447  80384268.97909      1250.484         974.403  
         0.000          51.600          43.200          55.200  
  24039596.078    24039600.098    24039599.770    24039595.951    24039600.145  
 126328947.42806  98438144.35941  94336554.78106      1445.254        1126.172  
         0.000          39.100          16.300          41.800  
  23082554.969    23082560.363    23082558.297    23082554.847    23082559.812  
 121299642.76107  94519222.40543  90580913.73408      3223.742        2512.007  
         0.000          44.300          30.200          48.300  
  23229493.180    23229496.578    23229495.570    23229493.470    23229497.270  
 122072047.92106  95120920.86141  91157524.93208      3444.301        2683.871  
         0.000          40.600          22.300          45.500  
  23912262.266           0.000           0.000    23912262.433    23912266.434  
 125659714.29406  97916744.05941         0.000         921.785         718.274  
         0.000          40.500          20.900           0.000  
  23469910.648    23469916.145    23469915.898    23469910.671    23469916.430  
 123335325.29608  96105371.02643  92100943.10809     -3595.223       -2801.472  
         0.000          47.300          30.900          49.000  
  22518912.250           0.000           0.000    22518911.637    22518914.230  
 118337731.41408  92211197.78143         0.000       -2172.562       -1692.906  
         0.000          46.700          31.000           0.000  
  23432696.406    23432698.809           0.000    23432696.584    23432698.555  
 123139741.11809  95952999.70543         0.000          21.473          16.732  
         0.000          49.500          31.500           0.000  
  22151169.977    22151171.402           0.000    22151168.801    22151171.906  
 118202884.01206  91935554.34144         0.000        3939.371        3063.955  
         0.000          41.400          35.400           0.000  
  21911212.945    21911213.773           0.000    21911208.809    21911213.172  
 117004682.16206  91003600.62745         0.000        2671.141        2077.554  
         0.000          40.800          36.900           0.000  
  19294688.867    19294690.012           0.000    19294688.012    19294690.453  
 103249801.35509  80305388.48248         0.000       -1002.219        -779.503  
         0.000          50.900          48.000           0.000  
  22860142.812    22860143.148           0.000    22860140.871    22860142.863  
 122415040.99707  95211710.96646         0.000       -3462.176       -2692.803  
         0.000          44.700          39.500           0.000  
  20854534.547    20854536.195           0.000    20854533.715    20854536.188  
 111479435.19708  86706272.96044         0.000           7.102           5.523  
         0.000          45.200          35.500           0.000  
  20820624.680           0.000           0.000    20820624.258           0.000  
 111220048.68208         0.000           0.000       -1994.277           0.000  
         0.000          48.400           0.000           0.000  
  23048550.391    23048552.805           0.000    23048549.961    23048553.531  
 123164449.12908  95794569.96946         0.000       -4443.059       -3455.712  
         0.000          46.500          40.600           0.000  
  22735877.805    22735882.574           0.000    22735875.676    22735881.660  
 121578919.41005  94561425.91146         0.000       -3889.973       -3025.534  
         0.000          38.700          40.600           0.000  
  20686930.836    20686931.371           0.000    20686929.352    20686931.891  
 110428272.95609  85888665.49548         0.000        2967.270        2307.876  
         0.000          51.800          45.900           0.000  
 18  2  1  0 16 30.0000000  0 20G15G16G21G27G30G08G10G13G26G20G07R06-0.000000002
                                R13R21R04R05R12R11R20R22
  23852725.023    23852726.223           0.000    23852725.458    23852726.840  
 125346880.42807  97672930.97441         0.000        1763.570        1374.211  
         0.000          44.300          22.000           0.000  
  21511180.633           0.000           0.000    21511180.264    21511182.328  
 113041919.40609  88084690.66645         0.000       -2363.625       -1841.786  
         0.000          50.000          36.600           0.000  
  22063353.992           0.000           0.000    22063353.427    22063356.363  
 115943531.90809  90345781.88246         0.000       -1812.809       -1412.578  
         0.000          49.000          39.000           0.000  
  20477068.406    20477072.402    20477071.277    20477068.402    20477072.293  
 107607729.74609  83850201.82147  80356437.74609      1234.172         961.692  
         0.000          52.400          43.400          55.300  
  24031399.031    24031401.328    24031400.016    24031398.904    24031401.809  
 126285864.31606  98404573.10041  94304382.34706      1427.004        1111.951  
         0.000          39.900          16.300          41.000  
  23064170.680    23064177.074    23064174.758    23064170.558    23064175.523  
 121203037.04007  94443945.23543  90508773.12008      3216.578        2506.425  
         0.000          44.900          30.200          48.900  
  23209853.578    23209857.762    23209856.789    23209853.869    23209858.957  
 121968846.05406  95040503.89241  91080458.67608      3435.895        2677.320  
         0.000          39.500          22.200          45.700  
  23907059.836           0.000           0.000    23907060.004    23907062.070  
 125632362.59207  97895431.01441         0.000         901.723         702.641  
         0.000          42.000          22.500           0.000  
  23490456.438    23490463.105    23490461.395    23490456.460    23490462.805  
 123443294.37508  96189502.74743  92181569.35208     -3602.547       -2807.179  
         0.000          46.800          30.700          48.500  
  22531361.719           0.000           0.000    22531361.106    22531362.762  
 118403157.78608  92262179.38743         0.000       -2189.156       -1705.836  
         0.000          45.900          28.400           0.000  
  23432631.578    23432632.855           0.000    23432631.756    23432633.137  
 123139397.87709  95952732.25943         0.000           1.559           1.214  
         0.000          49.500          31.900           0.000  
  22129058.742    22129062.254           0.000    22129058.316    22129062.172  
 118084900.79306  91843789.63645         0.000        3926.105        3053.638  
         0.000          40.600          36.100           0.000  
  21896267.117    21896269.098           0.000    21896265.090    21896268.984  
 116924881.76706  90941533.64345         0.000        2648.840        2060.209  
         0.000          41.600          37.700           0.000  
  19300362.281    19300363.238           0.000    19300360.980    19300363.773  
 103280158.57609  80328999.66948         0.000       -1021.574        -794.558  
         0.000          50.900          48.200           0.000  
  22879586.672    22879584.730           0.000    22879584.074    22879584.961  
 122519153.66308  95292687.46246         0.000       -3478.621       -2705.594  
         0.000          45.700          39.200           0.000  
  20854575.328    20854577.895           0.000    20854574.117    20854576.922  
 111479652.19908  86706441.69944         0.000         -21.406         -16.649  
         0.000          45.100          35.600           0.000  
  20831897.164           0.000           0.000    20831896.062           0.000  
 111280258.53408         0.000           0.000       -2019.695           0.000  
         0.000          48.400           0.000           0.000  
  23073513.352    23073516.867           0.000    23073512.852    23073517.078  
 123297848.96207  95898325.37546         0.000       -4450.234       -3461.293  
         0.000          44.200          39.800           0.000  
  22757717.734    22757721.965           0.000    22757716.496    22757720.980  
 121695701.71506  94652256.56646         0.000       -3895.445       -3029.791  
         0.000          40.200          41.100           0.000  
  20670290.750    20670291.496           0.000    20670289.621    20670292.438  
 110339450.80609  85819581.61748         0.000        2954.367        2297.841  
         0.000          51.400          45.600           0.000  
 18  2  1  0 17  0.0000000  0 20G15G16G21G27G30G08G10G13G26G20G07R06-0.000000002
                                R13R21R04R05R12R11R20R22
  23842708.016    23842708.816           0.000    23842708.450    23842708.426  
 125294237.04907  97631910.18542         0.000        1746.070        1360.574  
         0.000          44.400          24.700           0.000  
  21524721.234           0.000           0.000    21524720.865    21524722.988  
 113113077.76009  88140138.71645         0.000       -2380.176       -1854.682  
         0.000          49.500          36.500           0.000  
  22073734.344           0.000           0.000    22073733.778    22073735.129  
 115998076.10709  90388283.86145         0.000       -1823.496       -1420.906  
         0.000          49.500          38.800           0.000  
  20470069.523    20470074.375    20470073.098    20470069.520    20470074.172  
 107570954.92909  83821546.14447  80328976.06209      1217.559         948.747  
         0.000          51.300          43.200          55.200  
  24023302.633    24023306.863    24023305.129    24023302.506    24023306.582  
 126243330.62806  98371429.97641  94272620.20106      1408.617        1097.624  
         0.000          40.100          16.300          40.900  
  23045830.109    23045834.859    23045833.027    23045829.988    23045834.660  
 121106651.54008  94368839.66643  90436796.93208      3209.109        2500.605  
         0.000          45.700          30.900          48.800  
  23190265.094    23190268.574    23190267.391    23190265.384    23190269.125  
 121865902.69106  94960288.28341  91003585.41808      3427.012        2670.399  
         0.000          40.000          20.900          45.400  
  23901971.180           0.000           0.000    23901971.347    23901971.070  
 125605615.03607  97874588.77941         0.000         881.488         686.874  
         0.000          42.900          23.600           0.000  
  23511044.328    23511050.598    23511048.910    23511044.350    23511051.281  
 123551482.25508  96273804.94043  92262358.95208     -3609.859       -2812.877  
         0.000          46.600          30.200          48.600  
  22543905.531           0.000           0.000    22543904.918    22543907.512  
 118469078.89608  92313546.47143         0.000       -2205.605       -1718.654  
         0.000          45.100          29.800           0.000  
  23432678.562    23432681.930           0.000    23432678.740    23432681.766  
 123139654.20608  95952932.00143         0.000         -18.566         -14.467  
         0.000          47.500          30.700           0.000  
  22107025.094    22107026.004           0.000    22107024.176    22107026.930  
 117967319.58006  91752337.58944         0.000        3912.598        3043.132  
         0.000          41.800          35.100           0.000  
  21881449.164    21881450.672           0.000    21881447.324    21881450.398  
 116845753.69006  90879989.62845         0.000        2626.395        2042.751  
         0.000          41.900          36.900           0.000  
  19306143.555    19306144.395           0.000    19306141.570    19306144.695  
 103311094.60809  80353061.03248         0.000       -1040.844        -809.545  
         0.000          50.700          48.500           0.000  
  22899120.219    22899119.637           0.000    22899119.168    22899120.270  
 122623761.43808  95374049.07346         0.000       -3495.156       -2718.455  
         0.000          45.000          40.300           0.000  
  20854777.164    20854778.508           0.000    20854776.191    20854778.266  
 111480728.72708  86707279.01844         0.000         -50.227         -39.065  
         0.000          45.400          35.400           0.000  
  20843310.828           0.000           0.000    20843309.914           0.000  
 111341232.14408         0.000           0.000       -2045.207           0.000  
         0.000          48.200           0.000           0.000  
  23098517.336    23098521.695           0.000    23098517.328    23098521.461  
 123431463.99207  96002248.17746         0.000       -4457.434       -3466.893  
         0.000          43.500          39.500           0.000  
  22779587.211    22779591.113           0.000    22779586.043    22779590.035  
 121812645.20606  94743212.60446         0.000       -3900.848       -3033.993  
         0.000          40.500          41.100           0.000  
  20653724.805    20653725.785           0.000    20653723.555    20653726.047  
 110251018.31009  85750800.75848         0.000        2941.215        2287.612  
         0.000          51.800          45.900           0.000  
 18  2  1  0 17 30.0000000  0 20G15G16G21G27G30G08G10G13G26G20G07R06 0.000000000
                                R13R21R04R05R12R11R20R22
  23832788.906    23832791.406           0.000    23832789.341    23832791.191  
 125242116.78407  97591297.01242         0.000        1728.660        1347.008  
         0.000          43.900          25.800           0.000  
  21538356.508           0.000           0.000    21538356.139    21538357.969  
 113184728.86509  88195970.72544         0.000       -2396.508       -1867.409  
         0.000          49.600          35.500           0.000  
  22084173.102           0.000           0.000    22084172.536    22084174.766  
 116052937.58509  90431033.05345         0.000       -1833.949       -1429.051  
         0.000          49.700          38.100           0.000  
  20463166.359    20463170.566    20463169.523    20463166.355    20463170.891  
 107534676.29509  83793277.07947  80301884.87909      1201.082         935.908  
         0.000          53.200          43.400          55.100  
  24015313.500    24015318.590    24015316.992    24015313.373    24015318.270  
 126201348.12605  98338716.30241  94241269.59106      1390.008        1083.123  
         0.000          36.000          14.800          41.800  
  23027530.773    23027534.879    23027533.773    23027530.652    23027535.148  
 121010487.92708  94293906.99643  90364986.47708      3201.797        2494.907  
         0.000          46.600          31.300          48.800  
  23170722.312    23170729.098    23170727.738    23170722.603    23170729.098  
 121763220.56705  94880276.26441  90926907.22808      3418.352        2663.651  
         0.000          37.100          20.400          45.100  
  23896995.031           0.000           0.000    23896995.199    23896995.859  
 125579473.18207  97854218.50241         0.000         861.340         671.174  
         0.000          43.200          22.600           0.000  
  23531673.867    23531679.562    23531677.312    23531673.889    23531679.941  
 123659886.53608  96358275.77543  92343310.15309     -3617.012       -2818.451  
         0.000          47.700          31.400          49.400  
  22556544.359           0.000           0.000    22556543.746    22556546.164  
 118535492.49608  92365297.30243         0.000       -2221.859       -1731.319  
         0.000          45.600          30.000           0.000  
  23432841.578    23432844.004           0.000    23432841.756    23432845.016  
 123140510.18308  95953598.99343         0.000         -38.480         -29.985  
         0.000          47.400          30.000           0.000  
  22085067.352    22085068.754           0.000    22085066.223    22085068.602  
 117850144.61407  91661201.53744         0.000        3899.047        3032.592  
         0.000          42.300          35.300           0.000  
  21866758.703    21866759.391           0.000    21866756.277    21866758.508  
 116767302.43307  90818971.93045         0.000        2603.715        2025.112  
         0.000          42.100          36.100           0.000  
  19312032.734    19312033.504           0.000    19312031.082    19312033.781  
 103342608.66909  80377571.97048         0.000       -1060.039        -824.475  
         0.000          51.000          48.000           0.000  
  22918744.586    22918747.148           0.000    22918744.145    22918747.238  
 122728860.61607  95455792.82746         0.000       -3511.391       -2731.082  
         0.000          43.700          40.600           0.000  
  20855139.188    20855141.516           0.000    20855138.074    20855140.875  
 111482665.00208  86708785.05545         0.000         -78.758         -61.256  
         0.000          45.600          36.400           0.000  
  20854868.117           0.000           0.000    20854866.594           0.000  
 111402966.81908         0.000           0.000       -2070.430           0.000  
         0.000          48.100           0.000           0.000  
  23123560.102    23123564.531           0.000    23123560.469    23123565.469  
 123565290.15507  96106335.13945         0.000       -4464.234       -3472.182  
         0.000          42.600          38.300           0.000  
  22801485.625    22801488.895           0.000    22801483.543    22801488.496  
 121929748.09406  94834292.63046         0.000       -3905.988       -3037.991  
         0.000          40.000          41.000           0.000  
  20637231.094    20637233.484           0.000    20637230.199    20637233.648  
 110162977.52809  85682324.62048         0.000        2928.168        2277.464  
         0.000          51.700          46.500           0.000  
 18  2  1  0 18  0.0000000  0 20G15G16G21G27G30G08G10G13G26G20G07R06-0.000000002
                                R13R21R04R05R12R11R20R22
  23822971.711    23822973.215           0.000    23822972.146    23822973.879  
 125190521.81408  97551093.13943         0.000        1710.980        1333.232  
         0.000          45.800          28.300           0.000  
  21552084.336           0.000           0.000    21552083.967    21552086.383  
 113256870.16309  88252184.72545         0.000       -2412.883       -1880.168  
         0.000          49.800          36.000           0.000  
  22094672.828           0.000           0.000    22094672.263    22094673.613  
 116108114.49308  90474028.05745         0.000       -1844.555       -1437.315  
         0.000          47.800          38.300           0.000  
  20456357.508    20456361.516    20456360.543    20456357.504    20456361.688  
 107498894.79809  83765395.41347  80275164.96709      1184.430         922.932  
         0.000          52.400          43.900          55.100  
  24007430.039    24007435.668    24007434.328    24007429.912    24007434.164  
 126159918.31304  98306433.34241  94210331.81107      1371.605        1068.783  
         0.000          33.200          13.900          42.100  
  23009273.641    23009278.039    23009277.027    23009273.519    23009277.957  
 120914547.72508  94219148.40743  90293342.82409      3194.293        2489.059  
         0.000          45.300          30.600          49.500  
  23151234.648    23151239.723    23151237.648    23151234.939    23151240.203  
 121660802.12405  94800469.75541  90850425.99908      3409.645        2656.866  
         0.000          38.300          20.400          45.600  
  23892134.742           0.000           0.000    23892134.910    23892137.035  
 125553937.85807  97834320.82941         0.000         840.992         655.319  
         0.000          42.800          22.300           0.000  
  23552341.555    23552348.305    23552346.828    23552341.577    23552349.562  
 123768504.49908  96442913.13243  92424420.92509     -3624.141       -2824.006  
         0.000          46.600          29.900          49.800  
  22569274.820           0.000           0.000    22569274.207    22569277.504  
 118602396.12607  92417430.01043         0.000       -2238.367       -1744.182  
         0.000          44.700          29.900           0.000  
  23433118.883    23433121.309           0.000    23433119.061    23433121.559  
 123141965.32808  95954732.87643         0.000         -58.555         -45.627  
         0.000          46.800          28.200           0.000  
  22063185.961    22063186.473           0.000    22063184.809    22063187.164  
 117733380.14406  91570384.72045         0.000        3885.152        3021.785  
         0.000          41.800          36.000           0.000  
  21852193.703    21852194.625           0.000    21852191.535    21852194.562  
 116689530.55906  90758482.72345         0.000        2581.043        2007.478  
         0.000          41.800          37.100           0.000  
  19318030.023    19318030.391           0.000    19318027.992    19318030.953  
 103374699.65209  80402531.61748         0.000       -1079.367        -839.508  
         0.000          51.100          48.100           0.000  
  22938463.086    22938464.523           0.000    22938461.191    22938464.801  
 122834447.22707  95537915.69146         0.000       -3527.789       -2743.836  
         0.000          43.100          40.500           0.000  
  20855662.680    20855664.750           0.000    20855661.328    20855663.828  
 111485460.45708  86710959.28344         0.000        -107.504         -83.614  
         0.000          45.800          35.600           0.000  
  20866566.609           0.000           0.000    20866565.180           0.000  
 111465459.50408         0.000           0.000       -2095.641           0.000  
         0.000          48.300           0.000           0.000  
  23148643.992    23148646.195           0.000    23148643.656    23148647.391  
 123699323.13207  96210582.98345         0.000       -4471.156       -3477.566  
         0.000          43.800          37.000           0.000  
  22823413.883    22823417.949           0.000    22823412.691    22823416.941  
 122047008.58606  94925495.20746         0.000       -3911.195       -3042.041  
         0.000          40.600          40.000           0.000  
  20620811.836    20620813.754           0.000    20620810.730    20620814.133  
 110075330.14609  85614154.44848         0.000        2914.988        2267.213  
         0.000          51.200          47.100           0.000  
 18  2  1  0 18 30.0000000  0 20G15G16G21G27G30G08G10G13G26G20G07R06-0.000000002
                                R13R21R04R05R12R11R20R22
  23813254.555    23813256.223           0.000    23813254.989    23813256.020  
 125139454.68008  97511300.57142         0.000        1693.332        1319.480  
         0.000          45.800          26.900           0.000  
  21565905.172           0.000           0.000    21565904.803    21565907.160  
 113329500.29409  88308779.61044         0.000       -2429.117       -1892.819  
         0.000          49.700          35.900           0.000  
  22105231.750           0.000           0.000    22105231.185    22105233.238  
 116163605.98308  90517268.18345         0.000       -1854.938       -1445.406  
         0.000          47.900          37.700           0.000  
  20449643.773    20449647.184    20449646.562    20449643.770    20449647.602  
 107463611.70309  83737902.11047  80248817.21109      1167.809         909.981  
         0.000          52.600          43.900          55.200  
  23999653.695    23999657.398    23999657.012    23999653.568    23999655.887  
 126119042.63704  98274582.30441  94179807.87807      1353.465        1054.648  
         0.000          35.600          14.800          43.200  
  22991059.719    22991063.859    22991063.070    22991059.597    22991062.980  
 120818833.40108  94144565.81143  90221867.84709      3186.617        2483.078  
         0.000          46.000          29.400          49.300  
  23131795.055    23131801.570    23131799.672    23131795.345    23131800.844  
 121558650.37605  94720871.01841  90774143.85608      3400.559        2649.786  
         0.000          38.900          20.100          46.000  
  23887391.227           0.000           0.000    23887391.394    23887394.105  
 125529010.50507  97814896.92642         0.000         820.773         639.564  
         0.000          42.800          24.300           0.000  
  23573050.500    23573057.852    23573056.727    23573050.522    23573058.566  
 123877333.82508  96527715.17243  92505689.53509     -3631.125       -2829.448  
         0.000          45.600          29.400          49.000  
  22582099.016           0.000           0.000    22582098.403    22582102.812  
 118669787.93307  92469943.08743         0.000       -2254.520       -1756.768  
         0.000          44.500          28.900           0.000  
  23433510.648    23433513.379           0.000    23433510.826    23433512.797  
 123144019.85908  95956333.81142         0.000         -78.508         -61.175  
         0.000          47.100          27.900           0.000  
  22041382.648    22041382.641           0.000    22041380.840    22041383.969  
 117617030.57607  91479890.66345         0.000        3871.309        3011.018  
         0.000          42.400          36.800           0.000  
  21837757.953    21837760.426           0.000    21837755.457    21837759.281  
 116612441.78407  90698524.81745         0.000        2558.172        1989.689  
         0.000          42.300          37.600           0.000  
  19324134.906    19324134.641           0.000    19324132.688    19324135.414  
 103407366.79409  80427939.39348         0.000       -1098.555        -854.431  
         0.000          50.900          47.400           0.000  
  22958272.008    22958272.695           0.000    22958269.504    22958272.668  
 122940517.20507  95620414.52046         0.000       -3543.777       -2756.271  
         0.000          43.000          40.400           0.000  
  20856346.039    20856346.938           0.000    20856344.711    20856346.742  
 111489115.21407  86713801.82444         0.000        -136.188        -105.924  
         0.000          44.900          34.800           0.000  
  20878406.992           0.000           0.000    20878405.375           0.000  
 111528707.55308         0.000           0.000       -2120.891           0.000  
         0.000          47.300           0.000           0.000  
  23173763.734    23173766.453           0.000    23173763.797    23173767.812  
 123833558.96907  96314988.61245         0.000       -4477.836       -3482.761  
         0.000          43.000          37.500           0.000  
  22845371.227    22845374.988           0.000    22845370.293    22845374.145  
 122164424.62906  95016818.72746         0.000       -3916.496       -3046.164  
         0.000          41.300          40.200           0.000  
  20604467.172    20604468.527           0.000    20604465.898    20604468.906  
 109988078.37909  85546291.96848         0.000        2901.703        2256.880  
         0.000          51.200          46.600           0.000  
 18  2  1  0 19  0.0000000  0 20G15G16G21G27G30G08G10G13G26G20G07R06-0.000000002
                                R13R21R04R05R12R11R20R22
  23803636.977    23803638.586           0.000    23803637.411    23803638.969  
 125088917.04808  97471920.58443         0.000        1675.699        1305.740  
         0.000          46.400          28.100           0.000  
  21579818.750           0.000           0.000    21579818.381    21579820.973  
 113402616.65509  88365753.38545         0.000       -2445.359       -1905.475  
         0.000          49.500          36.300           0.000  
  22115851.773           0.000           0.000    22115851.208    22115853.613  
 116219411.08008  90560752.68445         0.000       -1865.430       -1453.582  
         0.000          48.600          37.800           0.000  
  20443023.867    20443028.039    20443027.465    20443023.863    20443027.988  
 107428827.93609  83710797.88647  80222842.33909      1151.074         896.941  
         0.000          53.000          43.500          55.200  
  23991983.156    23991985.020    23991985.055    23991983.029    23991984.645  
 126078722.46905  98243164.00741  94149698.67807      1334.836        1040.132  
         0.000          37.000          13.900          44.100  
  22972889.555    22972893.871    22972892.602    22972889.433    22972893.578  
 120723346.60508  94070160.52043  90150562.78209      3179.031        2477.167  
         0.000          45.700          30.100          49.800  
  23112407.344    23112413.566    23112412.266    23112407.634    23112413.895  
 121456767.73506  94641481.89341  90698062.64608      3391.551        2642.767  
         0.000          39.600          21.100          45.800  
  23882764.242           0.000           0.000    23882764.410    23882766.770  
 125504691.95107  97795947.39242         0.000         800.426         623.708  
         0.000          44.100          24.700           0.000  
  23593799.992    23593807.766    23593806.090    23593800.014    23593808.820  
 123986371.80208  96612679.77643  92587113.97608     -3638.086       -2834.872  
         0.000          46.600          30.400          48.300  
  22595016.492           0.000           0.000    22595015.879    22595019.059  
 118737665.48708  92522834.69643         0.000       -2270.617       -1769.312  
         0.000          45.300          29.900           0.000  
  23434014.398    23434016.789           0.000    23434014.576    23434017.133  
 123146673.44708  95958401.55442         0.000         -98.469         -76.729  
         0.000          45.400          26.200           0.000  
  22019656.570    22019657.434           0.000    22019655.418    22019658.547  
 117501100.20707  91389722.62145         0.000        3857.227        3000.065  
         0.000          42.400          37.400           0.000  
  21823449.641    21823451.832           0.000    21823447.355    21823451.320  
 116536039.25207  90639100.60445         0.000        2535.211        1971.831  
         0.000          42.100          37.600           0.000  
  19330345.883    19330346.934           0.000    19330344.582    19330347.375  
 103440608.87409  80453794.34248         0.000       -1117.676        -869.303  
         0.000          51.000          47.800           0.000  
  22978169.617    22978170.117           0.000    22978168.191    22978169.668  
 123047066.11007  95703285.82646         0.000       -3559.664       -2768.628  
         0.000          44.700          39.900           0.000  
  20857189.852    20857192.746           0.000    20857188.879    20857191.398  
 111493628.66308  86717312.30644         0.000        -164.820        -128.194  
         0.000          45.000          35.000           0.000  
  20890388.250           0.000           0.000    20890386.516           0.000  
 111592708.14108         0.000           0.000       -2145.918           0.000  
         0.000          46.900           0.000           0.000  
  23198921.711    23198924.898           0.000    23198921.211    23198925.133  
 123967993.31507  96419548.59745         0.000       -4484.461       -3487.914  
         0.000          42.100          38.100           0.000  
  22867358.188    22867361.246           0.000    22867356.246    22867360.586  
 122281994.47506  95108261.95846         0.000       -3921.590       -3050.125  
         0.000          41.700          41.100           0.000  
  20588197.133    20588198.371           0.000    20588195.391    20588197.949  
 109901223.97609  85478738.52548         0.000        2888.383        2246.520  
         0.000          52.700          46.700           0.000  
 18  2  1  0 19 30.0000000  0 20G15G16G21G27G30G08G10G13G26G20G07R06 0.000000000
                                R13R21R04R05R12R11R20R22
  23794120.367    23794122.562           0.000    23794120.802    23794122.066  
 125038911.40908  97432955.15542         0.000        1657.980        1291.933  
         0.000          45.600          27.500           0.000  
  21593824.961           0.000           0.000    21593824.592    21593827.184  
 113476217.26309  88423104.49644         0.000       -2461.391       -1917.967  
         0.000          49.500          35.800           0.000  
  22126530.648           0.000           0.000    22126530.083    22126532.137  
 116275528.09209  90604480.21845         0.000       -1875.785       -1461.651  
         0.000          49.000          36.800           0.000  
  20436500.109    20436504.117    20436503.672    20436500.105    20436504.523  
 107394544.69909  83684083.67547  80197241.20809      1134.379         883.932  
         0.000          52.500          43.700          55.300  
  23984415.531    23984419.012    23984416.984    23984415.404    23984419.305  
 126038959.27305  98212179.78141  94120005.44007      1316.156        1025.576  
         0.000          36.900          16.300          43.100  
  22954762.266    22954767.180    22954766.438    22954762.144    22954767.227  
 120628088.92207  93995933.73843  90079428.80209      3171.441        2471.253  
         0.000          44.300          29.900          49.100  
  23093073.742    23093077.352    23093076.250    23093074.033    23093078.301  
 121355156.79806  94562304.57041  90622184.39108      3382.562        2635.763  
         0.000          41.300          21.800          45.500  
  23878252.227           0.000           0.000    23878252.394    23878255.691  
 125480983.23807  97777473.07142         0.000         780.152         607.911  
         0.000          43.100          24.400           0.000  
  23614589.195    23614595.312    23614594.422    23614589.218    23614596.207  
 124095615.99108  96697805.07443  92668692.37809     -3644.887       -2840.171  
         0.000          46.300          30.100          49.600  
  22608026.039           0.000           0.000    22608025.426    22608027.844  
 118806026.71308  92576103.19843         0.000       -2286.719       -1781.859  
         0.000          46.300          30.000           0.000  
  23434634.562    23434635.980           0.000    23434634.740    23434635.770  
 123149925.90608  95960935.95843         0.000        -118.402         -92.262  
         0.000          46.400          28.200           0.000  
  21998010.406    21998011.715           0.000    21998009.676    21998012.078  
 117385593.10006  91299883.76045         0.000        3843.164        2989.128  
         0.000          41.800          36.100           0.000  
  21809269.617    21809273.027           0.000    21809268.438    21809272.777  
 116460326.97506  90580213.27645         0.000        2512.125        1953.875  
         0.000          41.300          37.300           0.000  
  19336665.461    19336666.277           0.000    19336663.926    19336666.977  
 103474425.31309  80480096.03148         0.000       -1136.801        -884.178  
         0.000          50.500          48.000           0.000  
  22998156.078    22998155.145           0.000    22998154.723    22998155.352  
 123154090.24907  95786526.81145         0.000       -3575.375       -2780.847  
         0.000          44.700          38.800           0.000  
  20858194.867    20858197.926           0.000    20858194.035    20858196.906  
 111499000.71908  86721490.59144         0.000        -193.438        -150.451  
         0.000          45.300          35.400           0.000  
  20902507.711           0.000           0.000    20902507.477           0.000  
 111657458.18208         0.000           0.000       -2170.801           0.000  
         0.000          47.000           0.000           0.000  
  23224117.469    23224119.930           0.000    23224116.449    23224119.715  
 124102621.96707  96524259.68745         0.000       -4490.922       -3492.939  
         0.000          42.300          38.300           0.000  
  22889371.719    22889376.277           0.000    22889370.316    22889375.504  
 122399716.11006  95199823.21746         0.000       -3926.574       -3054.002  
         0.000          40.800          41.500           0.000  
  20572001.367    20572001.949           0.000    20571999.578    20572002.324  
 109814768.86209  85411495.66548         0.000        2875.133        2236.214  
         0.000          52.800          47.300           0.000  
 18  2  1  0 20  0.0000000  0 20G15G16G21G27G30G08G10G13G26G20G07R06 0.000000000
                                R13R21R04R05R12R11R20R22
  23784705.867    23784707.816           0.000    23784706.302    23784709.031  
 124989439.78107  97394405.87042         0.000        1640.086        1277.989  
         0.000          43.700          25.700           0.000  
  21607921.828           0.000           0.000    21607921.459    21607924.285  
 113550300.01608  88480831.26944         0.000       -2477.430       -1930.465  
         0.000          48.800          35.600           0.000  
  22137268.578           0.000           0.000    22137268.013    22137270.652  
 116331955.82808  90648449.88445         0.000       -1886.066       -1469.662  
         0.000          48.800          37.900           0.000  
  20430072.492    20430075.562    20430075.469    20430072.488    20430075.969  
 107360763.05209  83657760.31647  80172014.66809      1117.551         870.819  
         0.000          52.300          44.100          55.600  
  23976951.609    23976958.914    23976957.094    23976951.483    23976960.070  
 125999754.48504  98181630.49141  94090729.11507      1297.328        1010.905  
         0.000          35.400          14.800          42.200  
  22936679.133    22936684.621    22936683.914    22936679.011    22936683.977  
 120533062.77407  93921887.40543  90008467.74209      3163.668        2465.196  
         0.000          44.900          30.400          49.200  
  23073791.641    23073793.047    23073792.262    23073791.931    23073793.910  
 121253820.28707  94483341.08541  90546511.06208      3373.293        2628.540  
         0.000          42.400          22.900          45.200  
  23873857.586           0.000           0.000    23873857.754    23873859.820  
 125457885.62707  97759474.95941         0.000         759.691         591.967  
         0.000          44.400          23.400           0.000  
  23635417.172    23635422.539    23635421.156    23635417.194    23635423.363  
 124205063.85808  96783089.09043  92750422.87508     -3651.660       -2845.449  
         0.000          46.000          29.500          48.600  
  22621125.188           0.000           0.000    22621124.574    22621127.754  
 118874868.90908  92629746.46343         0.000       -2302.797       -1794.387  
         0.000          45.200          29.400           0.000  
  23435367.883    23435368.902           0.000    23435368.061    23435369.031  
 123153776.69908  95963936.59042         0.000        -138.383        -107.831  
         0.000          46.700          27.400           0.000  
  21976445.281    21976446.426           0.000    21976443.285    21976446.742  
 117270513.46706  91210377.39245         0.000        3828.777        2977.938  
         0.000          40.900          36.600           0.000  
  21795222.484    21795223.477           0.000    21795220.082    21795223.930  
 116385307.85906  90521865.12445         0.000        2489.137        1935.995  
         0.000          41.000          36.900           0.000  
  19343091.672    19343092.816           0.000    19343090.699    19343093.305  
 103508814.98209  80506843.51748         0.000       -1155.961        -899.081  
         0.000          51.200          48.100           0.000  
  23018230.164    23018227.637           0.000    23018228.012    23018229.109  
 123261585.28208  95870134.03445         0.000       -3590.898       -2792.921  
         0.000          45.300          38.400           0.000  
  20859360.586    20859361.789           0.000    20859359.941    20859362.273  
 111505230.98908  86726336.38844         0.000        -221.973        -172.645  
         0.000          45.700          35.400           0.000  
  20914770.250           0.000           0.000    20914768.867           0.000  
 111722954.71908         0.000           0.000       -2195.695           0.000  
         0.000          48.000           0.000           0.000  
  23249345.883    23249349.539           0.000    23249346.250    23249349.562  
 124237441.12606  96629118.94045         0.000       -4497.207       -3497.828  
         0.000          41.800          38.400           0.000  
  22911411.680    22911418.305           0.000    22911412.508    22911417.457  
 122517587.82706  95291501.22646         0.000       -3931.523       -3057.852  
         0.000          39.200          40.900           0.000  
  20555879.266    20555882.406           0.000    20555878.230    20555882.055  
 109728715.09109  85344564.96748         0.000        2861.695        2225.763  
         0.000          51.400          46.800           0.000  
 18  2  1  0 20 30.0000000  0 20G15G16G21G27G30G08G10G13G26G20G07R06-0.000000002
                                R13R21R04R05R12R11R20R22
  23775394.750    23775396.723           0.000    23775395.185    23775396.273  
 124940504.47507  97356274.49142         0.000        1622.242        1264.085  
         0.000          44.700          27.000           0.000  
  21622111.094           0.000           0.000    21622110.725    21622112.672  
 113624862.95008  88538932.25644         0.000       -2493.383       -1942.896  
         0.000          48.900          35.400           0.000  
  22148064.828           0.000           0.000    22148064.263    22148067.023  
 116388693.13509  90692660.78245         0.000       -1896.391       -1477.707  
         0.000          49.500          37.900           0.000  
  20423739.445    20423743.359    20423742.398    20423739.441    20423744.094  
 107327484.32309  83631828.84347  80147163.67609      1100.879         857.828  
         0.000          52.900          43.500          55.600  
  23969596.648    23969604.059    23969603.039    23969596.522    23969605.695  
 125961109.53903  98151517.57441  94061870.93106      1279.031         996.648  
         0.000          30.800          14.800          41.300  
  22918640.922    22918646.188    22918644.578    22918640.800    22918645.414  
 120438269.60207  93848022.57743  89937680.61708      3155.809        2459.072  
         0.000          44.200          30.600          48.100  
  23054559.594    23054562.559    23054560.672    23054559.884    23054562.980  
 121152761.07906  94404593.68541  90471044.80607      3364.043        2621.332  
         0.000          41.300          22.300          44.500  
  23869579.383           0.000           0.000    23869579.550    23869580.914  
 125435400.46207  97741954.03342         0.000         739.266         576.051  
         0.000          43.400          24.200           0.000  
  23656283.016    23656288.863    23656285.852    23656283.038    23656289.148  
 124314713.07808  96868530.03943  92832303.77108     -3658.277       -2850.606  
         0.000          46.300          29.300          47.400  
  22634316.820           0.000           0.000    22634316.207    22634318.449  
 118944190.51407  92683763.30043         0.000       -2318.625       -1806.721  
         0.000          44.500          29.800           0.000  
  23436214.133    23436216.711           0.000    23436214.311    23436216.691  
 123158225.98608  95967403.58743         0.000        -158.355        -123.394  
         0.000          46.900          29.100           0.000  
  21954959.008    21954960.832           0.000    21954958.277    21954961.312  
 117155866.02806  91121207.19845         0.000        3814.203        2966.602  
         0.000          41.100          36.700           0.000  
  21781303.703    21781306.035           0.000    21781302.148    21781305.664  
 116310986.26807  90464059.43445         0.000        2465.629        1917.711  
         0.000          42.100          36.500           0.000  
  19349625.234    19349626.027           0.000    19349624.145    19349626.680  
 103543776.98809  80534036.20848         0.000       -1174.914        -913.822  
         0.000          50.700          48.200           0.000  
  23038390.273    23038391.359           0.000    23038388.637    23038391.074  
 123369547.38007  95954104.45745         0.000       -3606.562       -2805.104  
         0.000          43.800          38.800           0.000  
  20860685.922    20860688.273           0.000    20860685.207    20860689.207  
 111512319.37407  86731849.49345         0.000        -250.520        -194.849  
         0.000          44.300          36.300           0.000  
  20927170.633           0.000           0.000    20927169.812           0.000  
 111789195.27208         0.000           0.000       -2220.410           0.000  
         0.000          48.100           0.000           0.000  
  23274609.359    23274614.121           0.000    23274608.930    23274614.305  
 124372446.46206  96734123.06445         0.000       -4503.223       -3502.507  
         0.000          40.800          38.700           0.000  
  22933485.094    22933487.543           0.000    22933483.270    22933486.883  
 122635607.89106  95383294.60046         0.000       -3936.367       -3061.619  
         0.000          39.900          39.500           0.000  
  20539834.125    20539835.879           0.000    20539832.664    20539836.117  
 109643064.90809  85277948.15348         0.000        2848.242        2215.299  
         0.000          50.800          46.900           0.000  
 18  2  1  0 21  0.0000000  0 20G15G16G21G27G30G08G10G13G26G20G07R06 0.000000000
                                R13R21R04R05R12R11R20R22
  23766183.164    23766187.000           0.000    23766183.599    23766187.383  
 124892107.15407  97318562.30142         0.000        1604.285        1250.092  
         0.000          43.800          27.000           0.000  
  21636391.242           0.000           0.000    21636390.873    21636392.117  
 113699903.38808  88597405.29845         0.000       -2509.301       -1955.299  
         0.000          48.900          36.300           0.000  
  22158920.539           0.000           0.000    22158919.974    22158922.379  
 116445738.41909  90737111.64745         0.000       -1906.582       -1485.648  
         0.000          49.100          37.300           0.000  
  20417501.938    20417505.992    20417505.383    20417501.934    20417506.293  
 107294709.20809  83606289.80447  80122688.76109      1084.121         844.770  
         0.000          52.300          43.600          55.300  
  23962350.305    23962355.863    23962355.262    23962350.178    23962358.238  
 125923025.82503  98121842.06141  94033431.82406      1260.176         981.955  
         0.000          31.600          13.900          41.100  
  22900647.250    22900652.586    22900651.293    22900647.129    22900651.859  
 120343711.15807  93774340.68543  89867068.79308      3148.062        2453.036  
         0.000          44.300          31.900          48.200  
  23035380.828    23035385.387    23035383.418    23035381.119    23035385.504  
 121051981.48206  94326064.14341  90395787.31808      3354.699        2614.051  
         0.000          40.000          22.300          45.500  
  23865416.641           0.000           0.000    23865416.808    23865418.699  
 125413528.15207  97724910.69941         0.000         718.895         560.178  
         0.000          43.200          22.600           0.000  
  23677185.602    23677192.461    23677190.535    23677185.624    23677192.555  
 124424560.74608  96954125.57143  92914332.86308     -3664.797       -2855.686  
         0.000          45.300          29.400          47.500  
  22647598.875           0.000           0.000    22647598.262    22647600.445  
 119013988.78008  92738151.54543         0.000       -2334.539       -1819.121  
         0.000          45.300          28.500           0.000  
  23437174.148    23437175.461           0.000    23437174.326    23437176.297  
 123163273.58008  95971336.76342         0.000        -178.164        -138.829  
         0.000          47.000          26.900           0.000  
  21933555.711    21933557.582           0.000    21933555.520    21933557.617  
 117041654.35106  91032375.96145         0.000        3799.703        2955.325  
         0.000          41.600          36.700           0.000  
  21767517.781    21767518.352           0.000    21767515.637    21767519.086  
 116237364.16906  90406797.80245         0.000        2442.395        1899.640  
         0.000          41.900          37.900           0.000  
  19356265.508    19356266.770           0.000    19356264.230    19356267.047  
 103579310.13909  80561673.10048         0.000       -1193.902        -928.591  
         0.000          50.700          48.400           0.000  
  23058635.633    23058637.305           0.000    23058635.453    23058638.473  
 123477972.32807  96038434.92145         0.000       -3621.789       -2816.947  
         0.000          43.400          38.800           0.000  
  20862172.398    20862174.211           0.000    20862171.473    20862173.758  
 111520265.07807  86738029.46644         0.000        -279.062        -217.049  
         0.000          44.700          34.700           0.000  
  20939709.773           0.000           0.000    20939708.227           0.000  
 111856176.43808         0.000           0.000       -2244.949           0.000  
         0.000          47.500           0.000           0.000  
  23299909.734    23299910.926           0.000    23299908.246    23299911.090  
 124507634.02606  96839268.88745         0.000       -4509.184       -3507.143  
         0.000          41.300          36.700           0.000  
  22955582.266    22955586.191           0.000    22955580.887    22955585.254  
 122753774.11706  95475201.62346         0.000       -3941.254       -3065.420  
         0.000          40.600          39.800           0.000  
  20523864.414    20523867.227           0.000    20523863.777    20523867.203  
 109557819.74709  85211646.34248         0.000        2834.805        2204.848  
         0.000          51.000          46.800           0.000  
 18  2  1  0 21 30.0000000  0 20G15G16G21G27G30G08G10G13G26G20G07R06-0.000000002
                                R13R21R04R05R12R11R20R22
  23757076.766    23757079.770           0.000    23757077.200    23757079.754  
 124844250.16008  97281271.12342         0.000        1586.129        1235.945  
         0.000          45.000          26.700           0.000  
  21650760.852           0.000           0.000    21650760.482    21650762.195  
 113775419.31909  88656248.86044         0.000       -2525.129       -1967.633  
         0.000          49.500          35.900           0.000  
  22169834.188           0.000           0.000    22169833.622    22169835.969  
 116503090.62908  90781801.68645         0.000       -1916.879       -1493.672  
         0.000          48.300          37.800           0.000  
  20411361.094    20411365.312    20411364.445    20411361.090    20411365.859  
 107262438.83209  83581144.05647  80098590.75709      1067.230         831.608  
         0.000          51.700          43.900          55.400  
  23955210.742    23955215.762    23955215.301    23955210.615    23955216.215  
 125885504.58304  98092604.70841  94005412.74607      1241.289         967.238  
         0.000          34.800          14.800          42.200  
  22882698.258    22882704.145    22882702.500    22882698.136    22882703.219  
 120249389.50307  93700843.30643  89796633.80208      3140.094        2446.826  
         0.000          43.600          31.400          48.200  
  23016256.484    23016260.984    23016259.285    23016256.775    23016261.980  
 120951484.14906  94247754.53641  90320740.64008      3345.133        2606.597  
         0.000          39.400          20.400          45.200  
  23861371.250           0.000           0.000    23861371.418    23861373.719  
 125392270.00507  97708345.91342         0.000         698.328         544.152  
         0.000          42.200          24.000           0.000  
  23698125.828    23698132.004    23698130.621    23698125.850    23698132.840  
 124534604.45108  97039873.88242  92996508.30508     -3671.465       -2860.882  
         0.000          45.200          27.000          47.000  
  22660971.297           0.000           0.000    22660970.684    22660973.922  
 119084261.42308  92792909.45743         0.000       -2350.410       -1831.488  
         0.000          45.100          29.400           0.000  
  23438247.023    23438250.496           0.000    23438247.201    23438249.758  
 123168918.85508  95975735.68142         0.000        -198.254        -154.484  
         0.000          46.900          27.900           0.000  
  21912235.086    21912236.184           0.000    21912234.355    21912236.781  
 116927882.35606  90943886.66845         0.000        3785.035        2943.916  
         0.000          41.700          36.500           0.000  
  21753861.859    21753863.555           0.000    21753859.598    21753863.844  
 116164445.90207  90350083.60445         0.000        2418.789        1881.280  
         0.000          42.500          37.900           0.000  
  19363012.719    19363013.746           0.000    19363011.043    19363014.164  
 103615413.30309  80589753.35248         0.000       -1213.012        -943.454  
         0.000          50.900          48.700           0.000  
  23078968.906    23078973.324           0.000    23078968.914    23078972.641  
 123586855.85307  96123122.13646         0.000       -3637.129       -2828.878  
         0.000          43.400          39.800           0.000  
  20863819.398    20863822.574           0.000    20863817.719    20863820.758  
 111529067.50207  86744875.83044         0.000        -307.828        -239.422  
         0.000          44.800          34.600           0.000  
  20952386.680           0.000           0.000    20952385.438           0.000  
 111923895.08408         0.000           0.000       -2269.598           0.000  
         0.000          48.000           0.000           0.000  
  23325238.938    23325242.055           0.000    23325238.340    23325242.242  
 124642999.34806  96944552.96245         0.000       -4515.168       -3511.797  
         0.000          39.400          36.500           0.000  
  22977706.070    22977711.875           0.000    22977704.551    22977709.949  
 122872084.56706  95567220.85946         0.000       -3945.992       -3069.105  
         0.000          40.100          40.700           0.000  
  20507972.078    20507974.445           0.000    20507970.828    20507974.398  
 109472981.71509  85145661.19548         0.000        2821.039        2194.141  
         0.000          52.100          46.800           0.000  
 18  2  1  0 22  0.0000000  0 20G15G16G21G27G30G08G10G13G26G20G07R06-0.000000002
                                R13R21R04R05R12R11R20R22
  23748073.281    23748075.488           0.000    23748073.716    23748075.332  
 124796935.45208  97244402.53142         0.000        1568.070        1221.873  
         0.000          45.700          24.700           0.000  
  21665221.898           0.000           0.000    21665221.529    21665222.891  
 113851408.81809  88715461.42744         0.000       -2540.934       -1979.948  
         0.000          49.200          35.700           0.000  
  22180806.906           0.000           0.000    22180806.341    22180808.160  
 116560748.58609  90826729.96245         0.000       -1927.051       -1501.598  
         0.000          49.700          37.500           0.000  
  20405317.188    20405320.551    20405320.105    20405317.184    20405320.781  
 107230674.51909  83556392.65547  80074870.65709      1050.289         818.407  
         0.000          52.300          43.900          55.500  
  23948178.797    23948183.688    23948183.695    23948178.670    23948182.980  
 125848547.43705  98063806.95041  93977814.91207      1222.547         952.634  
         0.000          38.100          15.600          43.200  
  22864795.617    22864800.414    22864799.332    22864795.496    22864799.699  
 120155306.51507  93627531.89443  89726377.02309      3132.000        2440.519  
         0.000          44.000          31.900          49.200  
  22997185.391    22997192.141    22997188.777    22997185.681    22997191.648  
 120851271.99305  94169667.13441  90245906.92707      3335.473        2599.070  
         0.000          38.300          19.900          44.900  
  23857443.422           0.000           0.000    23857443.590    23857444.895  
 125371627.17107  97692260.58141         0.000         677.770         528.132  
         0.000          43.000          23.000           0.000  
  23719103.406    23719109.125    23719108.246    23719103.428    23719110.066  
 124644841.90407  97125773.14842  93078828.45708     -3677.789       -2865.810  
         0.000          44.400          27.400          46.500  
  22674434.320           0.000           0.000    22674433.707    22674435.949  
 119155006.51608  92848035.48843         0.000       -2366.000       -1843.636  
         0.000          45.000          30.200           0.000  
  23439436.305    23439438.520           0.000    23439436.483    23439438.980  
 123175161.52708  95980600.10443         0.000        -218.070        -169.925  
         0.000          47.900          28.000           0.000  
  21890997.781    21890999.324           0.000    21890997.098    21890999.805  
 116814555.17806  90855743.32445         0.000        3769.988        2932.213  
         0.000          41.700          36.300           0.000  
  21740338.180    21740341.684           0.000    21740336.625    21740340.469  
 116092234.36006  90293919.07545         0.000        2395.168        1862.908  
         0.000          41.500          37.300           0.000  
  19369865.828    19369866.316           0.000    19369864.434    19369866.992  
 103652085.99809  80618276.56748         0.000       -1231.969        -958.198  
         0.000          50.900          48.300           0.000  
  23099390.070    23099391.461           0.000    23099387.965    23099391.410  
 123696194.25208  96208163.11146         0.000       -3652.211       -2840.609  
         0.000          45.600          39.800           0.000  
  20865625.898    20865629.543           0.000    20865625.301    20865627.820  
 111538726.91808  86752388.71944         0.000        -336.336        -261.595  
         0.000          45.400          35.400           0.000  
  20965201.461           0.000           0.000    20965200.008           0.000  
 111992348.24208         0.000           0.000       -2294.047           0.000  
         0.000          47.500           0.000           0.000  
  23350604.078    23350606.000           0.000    23350603.953    23350606.586  
 124778538.74806  97049972.48244         0.000       -4520.969       -3516.309  
         0.000          39.700          35.900           0.000  
  22999858.602    22999863.559           0.000    22999857.574    22999862.270  
 122990537.96106  95659351.23646         0.000       -3950.801       -3072.845  
         0.000          41.100          41.200           0.000  
  20492156.227    20492157.605           0.000    20492154.648    20492157.562  
 109388552.85409  85079994.31848         0.000        2807.426        2183.553  
         0.000          51.900          47.300           0.000  
 18  2  1  0 22 30.0000000  0 20G15G16G21G27G30G08G10G13G26G20G07R06-0.000000002
                                R13R21R04R05R12R11R20R22
  23739173.062    23739173.688           0.000    23739173.497    23739173.766  
 124750165.25608  97207958.24242         0.000        1549.988        1207.783  
         0.000          45.800          26.400           0.000  
  21679771.812           0.000           0.000    21679771.443    21679773.742  
 113927869.78009  88775041.38344         0.000       -2556.508       -1992.084  
         0.000          49.200          35.800           0.000  
  22191836.094           0.000           0.000    22191835.528    22191837.934  
 116618710.87208  90871895.38945         0.000       -1937.023       -1509.369  
         0.000          48.800          37.600           0.000  
  20399368.922    20399372.871    20399371.957    20399368.918    20399373.395  
 107199417.19209  83532036.29247  80051529.14909      1033.520         805.340  
         0.000          52.200          43.900          55.300  
  23941253.023    23941257.422    23941259.168    23941252.897    23941258.027  
 125812155.60706  98035449.72741  93950639.22607      1203.645         937.905  
         0.000          39.200          16.300          43.100  
  22846937.234    22846942.301    22846941.160    22846937.113    22846942.195  
 120061463.72107  93554407.65243  89656299.62809      3124.137        2434.392  
         0.000          43.000          31.400          49.300  
  22978172.078    22978177.012    22978173.695    22978172.369    22978177.164  
 120751347.57505  94091804.02641  90171288.07608      3325.992        2591.682  
         0.000          38.100          20.100          45.000  
  23853631.867           0.000           0.000    23853632.035    23853633.691  
 125351600.45107  97676655.30641         0.000         657.375         512.240  
         0.000          43.000          22.300           0.000  
  23740117.648    23740122.734    23740122.066    23740117.671    23740123.957  
 124755270.50207  97211821.38042  93161291.34508     -3684.031       -2870.674  
         0.000          44.400          27.300          46.900  
  22687986.289           0.000           0.000    22687985.676    22687987.625  
 119226221.42708  92903527.62243         0.000       -2381.551       -1855.754  
         0.000          45.600          29.900           0.000  
  23440737.500    23440740.277           0.000    23440737.678    23440741.230  
 123182001.29708  95985929.78443         0.000        -237.898        -185.375  
         0.000          48.400          28.100           0.000  
  21869844.023    21869846.012           0.000    21869843.480    21869846.281  
 116701676.79507  90767949.03144         0.000        3755.043        2920.589  
         0.000          43.000          35.700           0.000  
  21726948.961    21726950.375           0.000    21726947.500    21726950.688  
 116020732.81807  90238306.75745         0.000        2371.543        1844.533  
         0.000          42.500          37.500           0.000  
  19376825.016    19376825.785           0.000    19376823.691    19376826.273  
 103689326.72709  80647241.57948         0.000       -1250.793        -972.839  
         0.000          51.300          48.200           0.000  
  23119892.312    23119893.070           0.000    23119890.512    23119892.410  
 123805983.14908  96293554.44446         0.000       -3667.008       -2852.117  
         0.000          45.500          40.000           0.000  
  20867593.844    20867594.859           0.000    20867593.082    20867595.227  
 111549242.21708  86760567.26944         0.000        -364.664        -283.628  
         0.000          45.400          35.300           0.000  
  20978152.047           0.000           0.000    20978151.461           0.000  
 112061532.90108         0.000           0.000       -2318.273           0.000  
         0.000          47.000           0.000           0.000  
  23376000.859    23376002.734           0.000    23376000.262    23376002.941  
 124914247.98806  97155523.98944         0.000       -4526.324       -3520.474  
         0.000          40.000          35.300           0.000  
  23022036.906    23022040.832           0.000    23022034.516    23022039.445  
 123109132.23506  95751591.20146         0.000       -3955.422       -3076.439  
         0.000          40.900          40.300           0.000  
  20476416.422    20476418.508           0.000    20476415.363    20476418.438  
 109304535.20109  85014647.25748         0.000        2793.758        2172.923  
         0.000          52.200          47.400           0.000  
 18  2  1  0 23  0.0000000  0 20G15G16G21G27G30G08G10G13G26G20G07R06 0.000000000
                                R13R21R04R05R12R11R20R22
  23730378.641    23730378.891           0.000    23730379.075    23730378.582  
 124703941.47708  97171939.72242         0.000        1531.824        1193.629  
         0.000          46.000          25.700           0.000  
  21694411.039           0.000           0.000    21694410.670    21694413.496  
 114004800.16809  88834987.12744         0.000       -2572.055       -2004.198  
         0.000          49.600          35.700           0.000  
  22202923.352           0.000           0.000    22202922.786    22202925.250  
 116676976.42608  90917297.11145         0.000       -1947.145       -1517.255  
         0.000          48.400          37.500           0.000  
  20393517.219    20393522.176    20393520.816    20393517.215    20393522.102  
 107168668.04009  83508075.89747  80028567.11309      1016.598         792.154  
         0.000          52.800          43.600          55.400  
  23934435.125    23934440.660    23934441.035    23934434.998    23934440.656  
 125776330.49005  98007534.10241  93923886.73807      1184.828         923.243  
         0.000          38.600          18.600          43.000  
  22829125.109    22829130.691    22829129.492    22829124.988    22829130.949  
 119967863.74707  93481472.61743  89586403.55709      3116.008        2428.058  
         0.000          43.800          31.100          49.500  
  22959212.438    22959216.797    22959214.406    22959212.728    22959217.113  
 120651713.74105  94014167.25941  90096886.21607      3316.363        2584.179  
         0.000          38.800          21.500          44.900  
  23849938.359           0.000           0.000    23849938.527    23849940.418  
 125332190.83307  97661530.95741         0.000         636.762         496.178  
         0.000          42.200          22.800           0.000  
  23761168.008    23761172.426    23761171.676    23761168.030    23761173.145  
 124865887.83607  97298016.67242  93243895.16908     -3690.246       -2875.516  
         0.000          44.900          27.200          47.300  
  22701626.336           0.000           0.000    22701625.723    22701627.555  
 119297904.28307  92959384.41643         0.000       -2397.113       -1867.880  
         0.000          44.600          28.000           0.000  
  23442152.766    23442154.664           0.000    23442152.943    23442155.090  
 123189438.16908  95991724.74142         0.000        -257.758        -200.850  
         0.000          46.600          27.300           0.000  
  21848776.625    21848777.184           0.000    21848775.754    21848777.875  
 116589251.35607  90680507.02444         0.000        3739.852        2908.773  
         0.000          43.100          35.900           0.000  
  21713694.328    21713694.781           0.000    21713691.668    21713694.977  
 115949945.60507  90183250.07145         0.000        2347.789        1826.058  
         0.000          43.200          38.000           0.000  
  19383891.078    19383890.883           0.000    19383889.262    19383891.562  
 103727134.79109  80676647.84648         0.000       -1269.594        -987.462  
         0.000          51.400          47.500           0.000  
  23140477.820    23140477.992           0.000    23140475.926    23140477.777  
 123916218.52808  96379293.00645         0.000       -3681.867       -2863.674  
         0.000          45.100          38.600           0.000  
  20869721.023    20869723.613           0.000    20869719.766    20869723.203  
 111560613.01008  86769411.20644         0.000        -393.230        -305.846  
         0.000          45.300          35.500           0.000  
  20991240.570           0.000           0.000    20991239.234           0.000  
 112131446.45108         0.000           0.000       -2342.527           0.000  
         0.000          47.800           0.000           0.000  
  23401427.414    23401428.887           0.000    23401427.219    23401429.496  
 125050123.08505  97261204.59044         0.000       -4531.871       -3524.789  
         0.000          38.600          34.300           0.000  
  23044240.336    23044242.336           0.000    23044238.957    23044241.375  
 123227865.54206  95843939.23245         0.000       -3960.039       -3080.030  
         0.000          40.300          38.100           0.000  
  20460755.109    20460756.066           0.000    20460753.414    20460756.609  
 109220930.65709  84949621.51048         0.000        2779.953        2162.186  
         0.000          51.900          46.900           0.000  
 18  2  1  0 23 30.0000000  0 20G15G16G21G27G30G08G10G13G26G20G07R06 0.000000000
                                R13R21R04R05R12R11R20R22
  23721686.352    23721687.738           0.000    23721686.786    23721687.816  
 124658266.07208  97136348.48842         0.000        1513.422        1179.290  
         0.000          45.900          24.700           0.000  
  21709138.750           0.000           0.000    21709138.381    21709140.797  
 114082196.95308  88895296.29644         0.000       -2587.469       -2016.209  
         0.000          47.400          34.700           0.000  
  22214068.742           0.000           0.000    22214068.177    22214069.645  
 116735543.53608  90962933.83545         0.000       -1957.145       -1525.048  
         0.000          48.500          37.600           0.000  
  20387762.453    20387766.848    20387766.566    20387762.449    20387767.219  
 107138427.71609  83484512.00647  80005985.04109       999.590         778.901  
         0.000          52.300          43.600          55.400  
  23927727.859    23927732.270    23927730.438    23927727.733    23927731.633  
 125741073.05706  97980060.82241  93897558.10906      1165.723         908.355  
         0.000          39.900          18.600          41.300  
  22811360.641    22811365.391    22811364.285    22811360.519    22811365.895  
 119874507.73707  93408727.68343  89516689.68909      3107.906        2421.745  
         0.000          43.900          31.900          49.600  
  22940309.516    22940312.270    22940310.020    22940309.806    22940312.844  
 120552372.66005  93936758.66241  90022702.94708      3306.449        2576.454  
         0.000          38.300          21.700          45.600  
  23846362.391           0.000           0.000    23846362.558    23846364.156  
 125313399.06307  97646888.04841         0.000         616.105         480.082  
         0.000          42.200          21.800           0.000  
  23782252.516    23782258.094    23782256.758    23782252.538    23782257.945  
 124976691.04607  97384356.82142  93326637.78908     -3696.434       -2880.338  
         0.000          43.400          25.600          46.700  
  22715356.219           0.000           0.000    22715355.606    22715356.617  
 119370052.26807  93015603.60943         0.000       -2412.543       -1879.904  
         0.000          44.700          28.100           0.000  
  23443681.211    23443683.262           0.000    23443681.389    23443682.711  
 123197471.11808  95997984.14242         0.000        -277.684        -216.377  
         0.000          46.800          26.700           0.000  
  21827792.680    21827795.465           0.000    21827791.973    21827795.594  
 116477282.72207  90593420.37245         0.000        3724.664        2896.961  
         0.000          42.200          36.800           0.000  
  21700572.094    21700572.055           0.000    21700569.363    21700571.473  
 115879874.81407  90128750.58145         0.000        2323.809        1807.407  
         0.000          42.600          36.900           0.000  
  19391062.008    19391062.684           0.000    19391060.660    19391062.938  
 103765508.83809  80706494.33348         0.000       -1288.438       -1002.118  
         0.000          50.900          48.400           0.000  
  23161145.852    23161146.000           0.000    23161143.957    23161145.832  
 124026896.25908  96465375.65245         0.000       -3696.594       -2875.128  
         0.000          45.100          38.600           0.000  
  20872007.547    20872011.777           0.000    20872006.527    20872009.801  
 111572838.45108  86778919.88344         0.000        -421.727        -328.010  
         0.000          45.000          35.800           0.000  
  21004464.477           0.000           0.000    21004463.398           0.000  
 112202084.99008         0.000           0.000       -2366.625           0.000  
         0.000          47.500           0.000           0.000  
  23426880.555    23426886.160           0.000    23426881.930    23426887.238  
 125186159.68404  97367010.70744         0.000       -4537.223       -3528.951  
         0.000          35.500          34.300           0.000  
  23066470.148    23066471.469           0.000    23066468.418    23066470.156  
 123346735.47406  95936393.67045         0.000       -3964.438       -3083.451  
         0.000          41.600          36.600           0.000  
  20445169.898    20445172.289           0.000    20445169.074    20445172.195  
 109137740.93909  84884918.39348         0.000        2766.082        2151.397  
         0.000          52.000          47.500           0.000  
 18  2  1  0 24  0.0000000  0 20G15G16G21G27G30G08G10G13G26G20G07R06 0.000000000
                                R13R21R04R05R12R11R20R22
  23713100.070    23713100.707           0.000    23713100.505    23713101.887  
 124613140.08608  97101185.35342         0.000        1495.020        1164.950  
         0.000          47.200          26.900           0.000  
  21723954.906           0.000           0.000    21723954.537    21723957.129  
 114160057.38008  88955966.72144         0.000       -2603.066       -2028.363  
         0.000          48.300          35.400           0.000  
  22225271.180           0.000           0.000    22225270.614    22225272.961  
 116794410.41408  91008804.13945         0.000       -1967.156       -1532.849  
         0.000          48.200          37.100           0.000  
  20382104.641    20382109.129    20382108.543    20382104.637    20382109.523  
 107108696.53609  83461344.86147  79983783.19309       982.609         765.670  
         0.000          51.700          44.100          55.600  
  23921125.141    23921129.727    23921128.914    23921125.014    23921130.672  
 125706383.81805  97953030.25341  93871653.87806      1146.914         893.699  
         0.000          37.300          15.600          41.600  
  22793642.430    22793647.391    22793645.652    22793642.308    22793647.156  
 119781397.07007  93336173.94343  89447159.00709      3099.641        2415.304  
         0.000          44.300          31.300          49.600  
  22921462.188    22921464.074    22921462.199    22921462.478    22921464.750  
 120453326.27305  93859579.68541  89948739.79507      3296.699        2568.857  
         0.000          38.600          22.200          44.900  
  23842904.992           0.000           0.000    23842905.160    23842905.938  
 125295225.61007  97632726.92041         0.000         595.480         464.011  
         0.000          43.200          22.600           0.000  
  23803374.148    23803378.426    23803376.258    23803374.171    23803378.875  
 125087676.96108  97470839.30242  93409516.82208     -3702.617       -2885.156  
         0.000          45.000          26.300          46.000  
  22729173.023           0.000           0.000    22729172.410    22729175.531  
 119442662.14708  93072182.73143         0.000       -2428.000       -1891.948  
         0.000          45.200          30.200           0.000  
  23445323.352    23445325.590           0.000    23445323.529    23445325.617  
 123206099.50608  96004707.59042         0.000        -297.539        -231.849  
         0.000          47.200          27.000           0.000  
  21806895.539    21806897.832           0.000    21806894.691    21806897.938  
 116365774.32207  90506691.65245         0.000        3709.328        2885.033  
         0.000          42.500          36.100           0.000  
  21687583.805    21687585.125           0.000    21687582.176    21687584.969  
 115810522.77007  90074810.09045         0.000        2299.793        1788.728  
         0.000          42.500          38.000           0.000  
  19398339.008    19398338.812           0.000    19398336.602    19398339.352  
 103804446.92209  80736779.51648         0.000       -1307.301       -1016.789  
         0.000          51.000          47.200           0.000  
  23181893.875    23181895.898           0.000    23181892.707    23181895.824  
 124138011.30907  96551798.45545         0.000       -3711.055       -2886.376  
         0.000          43.200          38.700           0.000  
  20874454.664    20874456.078           0.000    20874453.148    20874455.883  
 111585916.95607  86789092.07644         0.000        -450.086        -350.067  
         0.000          44.700          35.500           0.000  
  21017823.133           0.000           0.000    21017822.172           0.000  
 112273444.78508         0.000           0.000       -2390.539           0.000  
         0.000          48.000           0.000           0.000  
  23452370.859    23452373.883           0.000    23452368.809    23452373.812  
 125322352.93605  97472938.81644         0.000       -4542.426       -3532.998  
         0.000          36.900          35.700           0.000  
  23088723.391    23088726.426           0.000    23088722.293    23088724.664  
 123465739.91006  96028952.57245         0.000       -3969.164       -3087.128  
         0.000          41.500          36.300           0.000  
  20429663.734    20429665.961           0.000    20429662.910    20429666.055  
 109054967.12009  84820538.77748         0.000        2752.184        2140.587  
         0.000          51.500          47.300           0.000  
 18  2  1  0 24 30.0000000  0 20G15G16G21G27G30G08G10G13G26G20G07R06 0.000000000
                                R13R21R04R05R12R11R20R22
  23704616.359    23704619.023           0.000    23704616.794    23704619.113  
 124568565.87008  97066452.18942         0.000        1476.645        1150.632  
         0.000          46.200          27.700           0.000  
  21738860.320           0.000           0.000    21738859.951    21738861.078  
 114238380.04309  89016997.35444         0.000       -2618.352       -2040.274  
         0.000          49.200          34.600           0.000  
  22236530.219           0.000           0.000    22236529.653    22236531.004  
 116853575.63508  91054906.91145         0.000       -1977.043       -1540.553  
         0.000          48.000          37.700           0.000  
  20376545.000    20376548.996    20376548.082    20376544.996    20376549.004  
 107079475.84409  83438575.49447  79961962.55809       965.605         752.420  
         0.000          51.900          43.600          55.700  
  23914630.562    23914638.172    23914635.355    23914630.436    23914637.676  
 125672264.52705  97926443.80341  93846175.16606      1127.797         878.803  
         0.000          38.900          16.900          41.100  
  22775970.242    22775976.012    22775974.414    22775970.121    22775975.906  
 119688533.66707  93263812.84643  89377812.95309      3091.387        2408.873  
         0.000          42.800          31.300          50.000  
  22902669.289    22902673.660    22902671.363    22902669.580    22902673.848  
 120354577.49904  93782632.64541  89874998.85108      3286.727        2561.086  
         0.000          35.700          21.300          45.500  
  23839564.992           0.000           0.000    23839565.160    23839564.590  
 125277671.28707  97619048.23041         0.000         574.902         447.976  
         0.000          42.600          22.000           0.000  
  23824528.586    23824532.137    23824530.988    23824528.608    23824532.902  
 125198843.28707  97557462.38142  93492530.59808     -3708.453       -2889.704  
         0.000          44.600          26.200          47.000  
  22743077.109           0.000           0.000    22743076.496    22743080.730  
 119515732.14107  93129120.36743         0.000       -2443.309       -1903.877  
         0.000          44.300          29.600           0.000  
  23447079.133    23447080.012           0.000    23447079.311    23447080.750  
 123215322.59308  96011894.43943         0.000        -317.301        -247.247  
         0.000          48.300          28.300           0.000  
  21786087.195    21786088.387           0.000    21786085.715    21786088.398  
 116254731.18507  90420324.76044         0.000        3693.691        2872.871  
         0.000          43.000          35.900           0.000  
  21674731.195    21674732.188           0.000    21674729.898    21674732.969  
 115741893.40807  90021431.70945         0.000        2275.535        1769.861  
         0.000          42.400          38.000           0.000  
  19405719.938    19405720.566           0.000    19405718.355    19405721.125  
 103843948.39009  80767502.88148         0.000       -1326.062       -1031.382  
         0.000          51.200          48.100           0.000  
  23202724.750    23202726.305           0.000    23202723.887    23202726.816  
 124249559.53207  96638558.19946         0.000       -3725.457       -2897.578  
         0.000          42.400          39.100           0.000  
  20877061.461    20877062.945           0.000    20877059.195    20877062.586  
 111599848.15107  86799927.44444         0.000        -478.555        -372.209  
         0.000          44.700          35.400           0.000  
  21031317.211           0.000           0.000    21031315.734           0.000  
 112345522.97508         0.000           0.000       -2414.480           0.000  
         0.000          47.700           0.000           0.000  
  23477887.500    23477889.938           0.000    23477885.637    23477890.289  
 125458699.32605  97578985.96345         0.000       -4547.199       -3536.711  
         0.000          37.500          36.200           0.000  
  23111003.836    23111005.297           0.000    23111002.480    23111004.594  
 123584877.27706  96121614.96545         0.000       -3973.426       -3090.442  
         0.000          41.500          37.000           0.000  
  20414235.680    20414238.117           0.000    20414234.645    20414238.164  
 108972611.58409  84756484.47048         0.000        2738.242        2129.744  
         0.000          51.300          47.600           0.000  
 18  2  1  0 25  0.0000000  0 20G15G16G21G27G30G08G10G13G26G20G07R06-0.000000002
                                R13R21R04R05R12R11R20R22
  23696240.258    23696241.480           0.000    23696240.692    23696242.426  
 124524546.22107  97032151.15642         0.000        1457.922        1136.043  
         0.000          44.900          25.800           0.000  
  21753852.609           0.000           0.000    21753852.240    21753852.898  
 114317163.36109  89078386.93044         0.000       -2633.828       -2052.334  
         0.000          49.400          35.200           0.000  
  22247844.977           0.000           0.000    22247844.411    22247846.289  
 116913039.39908  91101242.30745         0.000       -1987.207       -1548.473  
         0.000          47.900          37.700           0.000  
  20371082.008    20371085.852    20371084.996    20371082.004    20371086.129  
 107050767.44109  83416205.32847  79940524.48609       948.305         738.939  
         0.000          51.900          43.700          55.600  
  23908248.039    23908253.047    23908254.570    23908247.912    23908252.691  
 125638717.13106  97900302.98441  93821123.55607      1108.672         863.900  
         0.000          40.600          18.600          43.600  
  22758346.234    22758352.273    22758350.781    22758346.113    22758352.660  
 119595920.40907  93191646.68143  89308653.72809      3082.859        2402.228  
         0.000          43.900          31.800          49.600  
  22883936.922    22883939.430    22883937.121    22883937.213    22883940.660  
 120256129.89805  93705920.27141  89801482.81008      3276.555        2553.159  
         0.000          38.400          22.300          45.800  
  23836342.602           0.000           0.000    23836342.769    23836342.844  
 125260737.77307  97605853.28441         0.000         554.031         431.713  
         0.000          43.900          22.900           0.000  
  23845716.336    23845719.992    23845718.609    23845716.358    23845720.711  
 125310188.42207  97644224.76641  93575677.87608     -3714.625       -2894.513  
         0.000          43.400          23.800          46.700  
  22757069.781           0.000           0.000    22757069.168    22757072.289  
 119589260.70107  93186415.31943         0.000       -2458.691       -1915.863  
         0.000          44.600          30.400           0.000  
  23448946.609    23448949.105           0.000    23448946.787    23448948.582  
 123225141.13208  96019545.25342         0.000        -337.242        -262.786  
         0.000          46.100          27.800           0.000  
  21765365.891    21765366.848           0.000    21765364.598    21765367.234  
 116144158.01507  90334323.42744         0.000        3677.852        2860.551  
         0.000          43.300          35.900           0.000  
  21662016.336    21662017.820           0.000    21662014.121    21662017.922  
 115673990.75207  89968618.51945         0.000        2251.152        1750.896  
         0.000          42.500          38.800           0.000  
  19413206.609    19413207.402           0.000    19413205.309    19413208.293  
 103884013.02009  80798664.26848         0.000       -1344.957       -1046.078  
         0.000          50.500          47.600           0.000  
  23223637.586    23223638.977           0.000    23223635.246    23223639.254  
 124361537.91807  96725652.40646         0.000       -3739.852       -2908.773  
         0.000          42.500          40.300           0.000  
  20879825.875    20879827.711           0.000    20879825.512    20879828.008  
 111614632.44707  86811426.33545         0.000        -507.086        -394.400  
         0.000          44.700          36.000           0.000  
  21044943.430           0.000           0.000    21044942.797           0.000  
 112418317.02008         0.000           0.000       -2438.461           0.000  
         0.000          48.200           0.000           0.000  
  23503429.609    23503434.441           0.000    23503428.754    23503435.098  
 125595195.39805  97685149.49745         0.000       -4552.496       -3540.830  
         0.000          37.900          37.600           0.000  
  23133307.492    23133309.398           0.000    23133306.441    23133309.023  
 123704146.58706  96214379.95445         0.000       -3978.145       -3094.112  
         0.000          41.100          37.300           0.000  
  20398886.594    20398889.359           0.000    20398885.559    20398889.242  
 108890677.12309  84692757.66648         0.000        2724.004        2118.670  
         0.000          51.500          47.200           0.000  
 18  2  1  0 25 30.0000000  0 20G15G16G21G27G30G08G10G13G26G20G07R06-0.000000002
                                R13R21R04R05R12R11R20R22
  23687966.734    23687969.727           0.000    23687967.169    23687970.309  
 124481083.23407  96998283.90241         0.000        1439.375        1121.591  
         0.000          42.200          23.300           0.000  
  21768931.398           0.000           0.000    21768931.029    21768932.684  
 114396404.82308  89140133.51444         0.000       -2649.094       -2064.229  
         0.000          48.600          35.300           0.000  
  22259216.984           0.000           0.000    22259216.419    22259218.941  
 116972800.16208  91147809.13345         0.000       -1997.121       -1556.198  
         0.000          47.700          37.200           0.000  
  20365717.188    20365720.398    20365719.625    20365717.184    20365720.605  
 107022572.30109  83394235.10148  79919469.68109       931.113         725.543  
         0.000          52.400          45.000          55.600  
  23901974.672    23901979.316    23901979.453    23901974.545    23901979.207  
 125605742.64806  97874608.62941  93796499.80707      1089.461         848.931  
         0.000          39.900          19.600          43.900  
  22740771.352    22740776.172    22740775.184    22740771.230    22740776.078  
 119503559.04407  93119676.77744  89239682.56209      3074.387        2395.626  
         0.000          44.500          32.100          50.100  
  22865258.828    22865264.184    22865260.855    22865259.119    22865264.559  
 120157985.91505  93629444.50041  89728193.53408      3266.316        2545.182  
         0.000          37.800          21.500          46.600  
  23833239.086           0.000           0.000    23833239.254    23833240.324  
 125244425.67808  97593142.55942         0.000         533.293         415.553  
         0.000          45.100          25.300           0.000  
  23866937.242    23866941.836    23866940.711    23866937.264    23866942.145  
 125421709.69307  97731124.41742  93658956.69808     -3720.434       -2899.039  
         0.000          42.000          26.800          47.300  
  22771149.867           0.000           0.000    22771149.254    22771150.266  
 119663245.26408  93244065.64143         0.000       -2473.914       -1927.725  
         0.000          45.800          29.700           0.000  
  23450927.469    23450930.047           0.000    23450927.647    23450930.320  
 123235554.20707  96027659.34642         0.000        -357.191        -278.331  
         0.000          44.900          27.100           0.000  
  21744733.961    21744734.070           0.000    21744733.090    21744734.883  
 116034058.97807  90248690.85844         0.000        3661.980        2848.207  
         0.000          44.500          35.700           0.000  
  21649435.820    21649437.680           0.000    21649434.238    21649438.062  
 115606817.89206  89916372.96745         0.000        2226.695        1731.874  
         0.000          41.800          38.600           0.000  
  19420799.453    19420799.398           0.000    19420797.918    19420800.008  
 103924639.55209  80830262.66448         0.000       -1363.699       -1060.655  
         0.000          51.200          47.800           0.000  
  23244629.383    23244629.199           0.000    23244626.457    23244630.348  
 124473942.55007  96813078.22946         0.000       -3754.117       -2919.869  
         0.000          42.000          39.700           0.000  
  20882750.383    20882753.020           0.000    20882749.926    20882752.848  
 111630268.66307  86823587.82244         0.000        -535.617        -416.591  
         0.000          44.200          34.700           0.000  
  21058703.797           0.000           0.000    21058702.953           0.000  
 112491823.75208         0.000           0.000       -2462.211           0.000  
         0.000          48.100           0.000           0.000  
  23529000.719    23529004.938           0.000    23528999.090    23529005.406  
 125731836.94704  97791426.18045         0.000       -4557.254       -3544.531  
         0.000          35.700          37.900           0.000  
  23155635.086    23155639.035           0.000    23155634.199    23155637.555  
 123823546.00706  96307246.18845         0.000       -3982.160       -3097.236  
         0.000          40.100          38.000           0.000  
  20383617.180    20383619.617           0.000    20383615.906    20383619.406  
 108809165.50309  84629359.76048         0.000        2709.824        2107.641  
         0.000          52.300          47.300           0.000  
 18  2  1  0 26  0.0000000  0 20G15G16G21G27G30G08G10G13G26G20G07R06-0.000000002
                                R13R21R04R05R12R11R20R22
  23679803.367    23679806.336           0.000    23679803.802    23679806.180  
 124438177.97307  96964851.20542         0.000        1420.828        1107.139  
         0.000          43.200          25.700           0.000  
  21784096.531           0.000           0.000    21784096.162    21784098.461  
 114476101.54208  89202234.82144         0.000       -2664.160       -2075.969  
         0.000          48.900          35.500           0.000  
  22270645.539           0.000           0.000    22270644.974    22270646.559  
 117032856.35708  91194606.17245         0.000       -2006.844       -1563.774  
         0.000          48.400          37.400           0.000  
  20360449.875    20360452.711    20360451.855    20360449.871    20360452.590  
 106994890.93909  83372665.20948  79898798.52709       914.098         712.284  
         0.000          53.100          45.200          55.700  
  23895807.656    23895813.941    23895812.027    23895807.529    23895814.652  
 125573342.11606  97849361.44741  93772304.61107      1070.293         833.995  
         0.000          39.500          21.100          43.000  
  22723243.344    22723248.305    22723247.773    22723243.222    22723247.777  
 119411451.53207  93047904.69943  89170900.98909      3065.879        2388.997  
         0.000          44.500          31.000          50.600  
  22846639.773    22846646.430    22846644.285    22846640.064    22846646.852  
 120060148.05404  93553207.24041  89655132.81008      3255.781        2536.972  
         0.000          35.900          20.900          47.300  
  23830252.305           0.000           0.000    23830252.472    23830254.363  
 125228735.73407  97580916.65542         0.000         512.547         399.387  
         0.000          43.500          24.400           0.000  
  23888192.305    23888197.098    23888195.996    23888192.327    23888197.031  
 125533404.36507  97818159.17342  93742364.99808     -3726.074       -2903.434  
         0.000          43.300          26.400          47.700  
  22785314.086           0.000           0.000    22785313.473    22785315.070  
 119737683.07108  93302069.12343         0.000       -2488.906       -1939.407  
         0.000          46.300          29.000           0.000  
  23453023.469    23453025.941           0.000    23453023.647    23453026.203  
 123246561.32607  96036236.29842         0.000        -376.809        -293.617  
         0.000          44.700          27.700           0.000  
  21724190.023    21724191.074           0.000    21724189.246    21724191.367  
 115924437.56207  90163429.76245         0.000        3645.945        2835.735  
         0.000          43.000          36.000           0.000  
  21636993.586    21636995.730           0.000    21636991.652    21636996.559  
 115540377.48707  89864697.14945         0.000        2202.512        1713.065  
         0.000          42.100          38.800           0.000  
  19428495.117    19428496.121           0.000    19428494.074    19428496.918  
 103965826.47009  80862296.92948         0.000       -1382.270       -1075.099  
         0.000          50.900          48.000           0.000  
  23265700.055    23265698.910           0.000    23265696.328    23265699.305  
 124586768.97806  96900832.10346         0.000       -3767.879       -2930.572  
         0.000          41.700          39.800           0.000  
  20885834.633    20885837.762           0.000    20885834.105    20885837.121  
 111646755.84007  86836411.19944         0.000        -563.824        -438.530  
         0.000          44.900          35.600           0.000  
  21072597.266           0.000           0.000    21072596.586           0.000  
 112566039.59608         0.000           0.000       -2485.730           0.000  
         0.000          48.100           0.000           0.000  
  23554593.914    23554601.512           0.000    23554593.344    23554602.734  
 125868619.73604  97897812.67445         0.000       -4561.883       -3548.131  
         0.000          33.700          38.300           0.000  
  23177988.414    23177990.957           0.000    23177986.121    23177990.742  
 123943073.24006  96400211.81246         0.000       -3986.445       -3100.569  
         0.000          39.500          39.500           0.000  
  20368425.820    20368428.727           0.000    20368425.254    20368428.797  
 108728078.35609  84566291.99548         0.000        2695.750        2096.694  
         0.000          52.100          47.200           0.000  
 18  2  1  0 26 30.0000000  0 20G15G16G21G27G30G08G10G13G26G20G07R06-0.000000002
                                R13R21R04R05R12R11R20R22
  23671747.023    23671748.035           0.000    23671747.458    23671748.547  
 124395832.64708  96931854.85642         0.000        1402.266        1092.675  
         0.000          45.100          26.600           0.000  
  21799348.953           0.000           0.000    21799348.584    21799351.234  
 114556251.95708  89264689.65345         0.000       -2679.121       -2087.627  
         0.000          48.800          36.000           0.000  
  22282129.648           0.000           0.000    22282129.083    22282130.902  
 117093206.77608  91241632.47845         0.000       -2016.473       -1571.277  
         0.000          47.600          36.500           0.000  
  20355278.547    20355282.848    20355282.180    20355278.543    20355282.844  
 106967724.54909  83351496.58147  79878511.93009       897.082         699.025  
         0.000          52.000          43.100          55.500  
  23889752.086    23889757.609    23889756.328    23889751.959    23889757.676  
 125541516.78106  97824562.54141  93748538.99207      1051.223         819.135  
         0.000          40.600          21.500          44.100  
  22705764.562    22705769.453    22705768.195    22705764.441    22705768.527  
 119319599.36207  92976331.58343  89102310.07409      3057.512        2382.477  
         0.000          44.600          31.400          50.200  
  22828081.484    22828086.711    22828084.859    22828081.775    22828087.215  
 119962618.93205  93477210.53141  89582302.67008      3245.914        2529.284  
         0.000          38.400          23.000          48.100  
  23827385.727           0.000           0.000    23827385.894    23827386.203  
 125213668.77907  97569176.16741         0.000         491.914         383.310  
         0.000          44.100          23.900           0.000  
  23909479.844    23909484.953    23909483.441    23909479.866    23909485.098  
 125645270.04007  97905327.21242  93825901.01008     -3731.645       -2907.775  
         0.000          43.700          26.400          47.700  
  22799565.273           0.000           0.000    22799564.660    22799566.141  
 119812572.24908  93360424.35243         0.000       -2503.730       -1950.959  
         0.000          45.800          28.300           0.000  
  23455231.180    23455232.586           0.000    23455231.358    23455232.797  
 123258161.80208  96045275.60042         0.000        -396.504        -308.964  
         0.000          46.100          26.800           0.000  
  21703736.984    21703739.348           0.000    21703736.348    21703738.656  
 115815298.63907  90078543.91845         0.000        3629.914        2823.266  
         0.000          43.900          36.400           0.000  
  21624689.023    21624691.238           0.000    21624687.727    21624691.453  
 115474672.72607  89813593.41845         0.000        2177.895        1693.918  
         0.000          42.900          38.100           0.000  
  19436297.258    19436297.555           0.000    19436295.367    19436298.352  
 104007573.07809  80894766.51548         0.000       -1400.785       -1089.500  
         0.000          51.100          48.300           0.000  
  23286846.164    23286846.617           0.000    23286843.684    23286846.848  
 124700013.09706  96988910.81045         0.000       -3781.691       -2941.316  
         0.000          41.300          38.700           0.000  
  20889079.484    20889081.086           0.000    20889078.062    20889080.586  
 111664093.29608  86849895.89244         0.000        -591.996        -460.441  
         0.000          45.600          35.300           0.000  
  21086623.047           0.000           0.000    21086621.711           0.000  
 112640961.13908         0.000           0.000       -2509.090           0.000  
         0.000          47.500           0.000           0.000  
  23580216.961    23580224.066           0.000    23580217.070    23580225.004  
 126005539.98904  98004306.16345         0.000       -4566.023       -3551.352  
         0.000          33.300          37.500           0.000  
  23200363.961    23200366.996           0.000    23200361.148    23200365.727  
 124062726.58505  96493275.49545         0.000       -3990.449       -3103.683  
         0.000          37.600          38.900           0.000  
  20353316.039    20353317.441           0.000    20353314.719    20353318.031  
 108647417.85009  84503556.02948         0.000        2681.684        2085.754  
         0.000          52.500          47.100           0.000  
 18  2  1  0 27  0.0000000  0 20G15G16G21G27G30G08G10G13G26G20G07R06-0.000000002
                                R13R21R04R05R12R11R20R22
  23663794.672    23663796.844           0.000    23663795.106    23663796.664  
 124354048.99008  96899296.16443         0.000        1383.480        1078.037  
         0.000          45.500          28.100           0.000  
  21814686.469           0.000           0.000    21814686.100    21814689.453  
 114636853.40408  89327495.95345         0.000       -2694.246       -2099.413  
         0.000          48.000          36.100           0.000  
  22293669.891           0.000           0.000    22293669.325    22293670.910  
 117153849.32608  91288886.42045         0.000       -2026.277       -1578.917  
         0.000          47.900          36.800           0.000  
  20350206.750    20350211.508    20350210.781    20350206.746    20350211.691  
 106941073.67709  83330729.66047  79858610.29609       879.824         685.577  
         0.000          51.600          43.100          55.200  
  23883805.359    23883810.613    23883809.438    23883805.233    23883811.066  
 125510267.41406  97800212.41941  93725203.45007      1032.090         804.226  
         0.000          40.300          21.700          44.100  
  22688334.117    22688339.301    22688338.629    22688333.996    22688338.434  
 119228004.41608  92904958.91643  89033911.27109      3048.852        2375.728  
         0.000          45.100          31.200          50.000  
  22809582.344    22809586.152    22809585.074    22809582.634    22809586.785  
 119865400.81606  93401456.15642  89509704.74708      3235.402        2521.093  
         0.000          39.700          24.700          47.900  
  23824636.102           0.000           0.000    23824636.269    23824636.988  
 125199225.15307  97557921.41141         0.000         471.156         367.135  
         0.000          43.800          23.400           0.000  
  23930798.781    23930804.008    23930802.754    23930798.803    23930804.680  
 125757303.83107  97992626.22442  93909562.55308     -3737.324       -2912.201  
         0.000          44.500          26.100          47.300  
  22813901.273           0.000           0.000    22813900.660    22813902.844  
 119887909.89107  93419128.99842         0.000       -2518.645       -1962.580  
         0.000          44.500          27.200           0.000  
  23457551.359    23457553.012           0.000    23457551.537    23457552.566  
 123270355.19008  96054776.93343         0.000        -416.285        -324.378  
         0.000          45.800          28.900           0.000  
  21683376.672    21683377.254           0.000    21683375.402    21683377.336  
 115706645.64407  89994036.15245         0.000        3613.566        2810.552  
         0.000          44.600          36.300           0.000  
  21612524.734    21612524.789           0.000    21612521.910    21612525.148  
 115409706.53807  89763064.13945         0.000        2153.281        1674.774  
         0.000          42.100          38.200           0.000  
  19444202.781    19444203.410           0.000    19444201.434    19444204.133  
 104049877.71109  80927670.11348         0.000       -1419.492       -1104.049  
         0.000          51.400          48.000           0.000  
  23308070.398    23308071.391           0.000    23308067.637    23308071.246  
 124813670.04006  97077310.65845         0.000       -3795.367       -2951.952  
         0.000          41.400          38.600           0.000  
  20892481.867    20892483.961           0.000    20892480.871    20892482.359  
 111682279.53808  86864040.74444         0.000        -620.273        -482.435  
         0.000          45.700          35.600           0.000  
  21100780.188           0.000           0.000    21100778.969           0.000  
 112716585.08808         0.000           0.000       -2532.402           0.000  
         0.000          47.400           0.000           0.000  
  23605865.367    23605872.121           0.000    23605864.629    23605872.707  
 126142593.13704  98110902.99845         0.000       -4570.551       -3554.873  
         0.000          35.300          38.000           0.000  
  23222760.930    23222766.453           0.000    23222760.652    23222765.418  
 124182504.19205  96586435.85146         0.000       -3994.551       -3106.873  
         0.000          38.500          39.000           0.000  
  20338285.914    20338288.047           0.000    20338284.832    20338287.906  
 108567185.37809  84441152.98848         0.000        2667.277        2074.549  
         0.000          52.600          47.200           0.000  
 18  2  1  0 27 30.0000000  0 20G15G16G21G27G30G08G10G13G26G20G07R06-0.000000002
                                R13R21R04R05R12R11R20R22
  23655951.984    23655954.180           0.000    23655952.419    23655953.977  
 124312829.18608  96867176.85243         0.000        1364.504        1063.250  
         0.000          46.800          29.100           0.000  
  21830108.641           0.000           0.000    21830108.271    21830112.211  
 114717903.52808  89390651.87044         0.000       -2709.168       -2111.040  
         0.000          47.500          34.300           0.000  
  22305263.977           0.000           0.000    22305263.411    22305266.523  
 117214783.76808  91336367.81744         0.000       -2036.059       -1586.539  
         0.000          46.900          35.900           0.000  
  20345234.094    20345238.570    20345237.645    20345234.090    20345238.508  
 106914939.76209  83310365.56447  79839094.70909       862.492         672.072  
         0.000          52.500          43.800          56.100  
  23877968.648    23877974.547    23877973.617    23877968.522    23877974.062  
 125479595.63306  97776312.35841  93702299.22307      1012.691         789.110  
         0.000          40.800          22.300          44.700  
  22670953.539    22670959.098    22670957.453    22670953.418    22670958.852  
 119136668.75708  92833788.27244  88965706.07109      3040.152        2368.950  
         0.000          45.100          33.100          49.900  
  22791139.922    22791146.074    22791144.797    22791140.213    22791146.004  
 119768496.76106  93325946.52841  89437341.35808      3224.918        2512.923  
         0.000          39.200          22.800          46.700  
  23822005.953           0.000           0.000    23822006.121    23822008.246  
 125185405.95607  97547153.21741         0.000         450.109         350.735  
         0.000          43.000          22.600           0.000  
  23952149.930    23952154.957    23952154.008    23952149.952    23952155.242  
 125869503.64307  98080054.61942  93993348.10408     -3742.785       -2916.456  
         0.000          44.300          27.100          47.500  
  22828321.938           0.000           0.000    22828321.324    22828323.977  
 119963694.02207  93478181.54643         0.000       -2533.543       -1974.189  
         0.000          44.800          28.600           0.000  
  23459986.406    23459986.266           0.000    23459986.584    23459987.203  
 123283141.08208  96064739.96143         0.000        -436.074        -339.798  
         0.000          47.800          29.100           0.000  
  21663106.328    21663107.566           0.000    21663105.902    21663107.602  
 115598483.45007  89909910.02244         0.000        3597.172        2797.800  
         0.000          44.300          35.600           0.000  
  21600495.906    21600497.602           0.000    21600494.703    21600497.586  
 115345482.07207  89713111.75845         0.000        2128.340        1655.375  
         0.000          42.400          38.600           0.000  
  19452212.398    19452213.309           0.000    19452210.770    19452213.984  
 104092739.74909  80961007.26348         0.000       -1438.051       -1118.484  
         0.000          50.800          48.000           0.000  
  23329372.516    23329372.945           0.000    23329369.215    23329373.082  
 124927736.41006  97166028.84545         0.000       -3808.953       -2962.519  
         0.000          41.100          38.200           0.000  
  20896042.273    20896043.547           0.000    20896041.016    20896043.539  
 111701314.08207  86878845.40345         0.000        -648.738        -504.574  
         0.000          44.700          36.000           0.000  
  21115067.555           0.000           0.000    21115066.828           0.000  
 112792908.17608         0.000           0.000       -2555.723           0.000  
         0.000          47.300           0.000           0.000  
  23631541.055    23631544.008           0.000    23631540.270    23631544.758  
 126279775.69505  98217600.50545         0.000       -4574.977       -3558.315  
         0.000          38.400          37.100           0.000  
  23245186.359    23245188.973           0.000    23245184.207    23245187.750  
 124302404.60906  96679691.73346         0.000       -3998.707       -3110.105  
         0.000          39.500          39.300           0.000  
  20323336.656    20323337.824           0.000    20323335.172    20323338.695  
 108487383.40109  84379084.78748         0.000        2652.832        2063.314  
         0.000          52.200          47.400           0.000  
 18  2  1  0 28  0.0000000  0 20G15G16G21G27G30G08G10G13G26G20G07R06-0.000000002
                                R13R21R04R05R12R11R20R22
  23648214.133    23648218.438           0.000    23648214.567    23648218.938  
 124272174.58908  96835497.96143         0.000        1345.715        1048.609  
         0.000          45.400          28.800           0.000  
  21845617.758           0.000           0.000    21845617.389    21845620.508  
 114799400.24608  89454155.79744         0.000       -2724.004       -2122.600  
         0.000          47.700          35.000           0.000  
  22316915.781           0.000           0.000    22316915.216    22316916.801  
 117276008.80108  91384075.65045         0.000       -2045.641       -1594.006  
         0.000          48.500          36.800           0.000  
  20340360.219    20340364.121    20340362.844    20340360.215    20340364.281  
 106889323.42209  83290404.78147  79819965.62909       845.246         658.633  
         0.000          53.000          44.000          55.300  
  23872243.391    23872248.000    23872247.551    23872243.264    23872248.688  
 125449502.24306  97752862.96841  93679826.90708       993.492         774.150  
         0.000          41.600          23.200          45.300  
  22653622.789    22653628.125    22653626.574    22653622.668    22653628.219  
 119045594.02208  92762820.95344  88897695.72609      3031.504        2362.211  
         0.000          45.800          32.100          50.200  
  22772761.977    22772765.492    22772765.258    22772762.267    22772766.652  
 119671909.16206  93250683.50142  89365214.27508      3214.336        2504.677  
         0.000          41.800          25.400          47.500  
  23819495.305           0.000           0.000    23819495.472    23819496.953  
 125172212.01507  97536872.22841         0.000         429.316         334.532  
         0.000          42.600          22.500           0.000  
  23973531.750    23973537.527    23973536.367    23973531.772    23973537.648  
 125981866.76407  98167610.26942  94077255.59608     -3748.031       -2920.544  
         0.000          42.700          26.400          47.600  
  22842828.172           0.000           0.000    22842827.559    22842829.801  
 120039922.09708  93537580.07443         0.000       -2548.324       -1985.707  
         0.000          45.000          28.900           0.000  
  23462530.031    23462531.320           0.000    23462530.209    23462532.004  
 123296518.47808  96075163.90942         0.000        -455.816        -355.182  
         0.000          46.400          27.900           0.000  
  21642929.633    21642930.145           0.000    21642928.762    21642930.812  
 115490815.53807  89826168.33545         0.000        3580.754        2785.031  
         0.000          44.300          36.100           0.000  
  21588608.836    21588610.840           0.000    21588606.855    21588610.117  
 115282002.34006  89663738.67745         0.000        2103.484        1636.043  
         0.000          41.800          38.500           0.000  
  19460327.109    19460326.633           0.000    19460325.125    19460327.266  
 104136157.53209  80994776.65748         0.000       -1456.434       -1132.782  
         0.000          51.800          47.900           0.000  
  23350747.844    23350748.906           0.000    23350745.598    23350749.559  
 125042207.88306  97255062.17245         0.000       -3822.562       -2973.104  
         0.000          40.800          38.200           0.000  
  20899762.125    20899762.906           0.000    20899760.469    20899762.500  
 111721195.63508  86894308.82944         0.000        -676.793        -526.395  
         0.000          45.700          35.100           0.000  
  21129484.906           0.000           0.000    21129483.969           0.000  
 112869927.14808         0.000           0.000       -2578.879           0.000  
         0.000          46.400           0.000           0.000  
  23657237.078    23657240.359           0.000    23657236.508    23657240.852  
 126417083.37106  98324395.34445         0.000       -4578.891       -3561.359  
         0.000          40.100          37.500           0.000  
  23267630.492    23267633.598           0.000    23267629.910    23267632.867  
 124422425.91905  96773041.59046         0.000       -4002.637       -3113.162  
         0.000          38.300          40.000           0.000  
  20308467.531    20308469.027           0.000    20308466.426    20308469.430  
 108408013.44609  84317352.62348         0.000        2638.488        2052.158  
         0.000          52.300          47.400           0.000  
 18  2  1  0 28 30.0000000  0 20G15G16G21G27G30G08G10G13G26G20G07R06-0.000000002
                                R13R21R04R05R12R11R20R22
  23640587.484    23640589.410           0.000    23640587.919    23640590.180  
 124232087.30208  96804261.13943         0.000        1326.754        1033.834  
         0.000          46.500          29.300           0.000  
  21861211.312           0.000           0.000    21861210.943    21861213.418  
 114881341.24908  89518005.91044         0.000       -2738.730       -2134.076  
         0.000          48.600          34.800           0.000  
  22328621.750           0.000           0.000    22328621.185    22328623.062  
 117337522.54608  91432008.43645         0.000       -2055.203       -1601.457  
         0.000          48.100          36.400           0.000  
  20335584.484    20335588.035    20335587.215    20335584.480    20335588.371  
 106864225.62909  83270848.06447  79801223.77309       827.922         645.134  
         0.000          53.200          44.600          55.400  
  23866624.969    23866632.027    23866630.195    23866624.842    23866631.086  
 125419988.33406  97729865.12841  93657787.31408       974.004         758.964  
         0.000          39.900          22.900          45.900  
  22636341.672    22636347.805    22636345.703    22636341.550    22636346.984  
 118954782.35507  92692058.61443  88829881.81909      3022.637        2355.301  
         0.000          44.700          31.900          50.200  
  22754444.156    22754447.016    22754444.941    22754444.447    22754447.543  
 119575640.65207  93175669.08142  89293325.45008      3203.570        2496.289  
         0.000          43.900          27.800          46.800  
  23817102.836           0.000           0.000    23817103.004    23817105.539  
 125159643.59807  97527078.65741         0.000         408.574         318.370  
         0.000          42.000          22.600           0.000  
  23994944.609    23994950.023    23994949.438    23994944.632    23994950.566  
 126094390.72007  98255291.22042  94161283.15908     -3753.477       -2924.787  
         0.000          42.100          26.200          48.200  
  22857417.117           0.000           0.000    22857416.504    22857418.453  
 120116591.62107  93597322.55443         0.000       -2563.074       -1997.201  
         0.000          44.100          28.200           0.000  
  23465188.586    23465189.102           0.000    23465188.764    23465189.734  
 123310487.07408  96086048.51942         0.000        -475.414        -370.453  
         0.000          46.800          26.900           0.000  
  21622846.375    21622846.297           0.000    21622845.270    21622847.484  
 115383646.36607  89742814.53945         0.000        3563.965        2771.973  
         0.000          43.800          36.400           0.000  
  21576862.516    21576863.062           0.000    21576859.457    21576862.109  
 115219270.61707  89614947.34845         0.000        2078.633        1616.714  
         0.000          42.000          38.500           0.000  
  19468543.445    19468543.934           0.000    19468542.121    19468544.562  
 104180130.27909  81028977.69248         0.000       -1475.000       -1147.222  
         0.000          51.000          48.100           0.000  
  23372200.070    23372199.324           0.000    23372197.355    23372200.637  
 125157080.28606  97344407.27945         0.000       -3835.766       -2983.373  
         0.000          40.800          37.500           0.000  
  20903639.438    20903640.336           0.000    20903637.781    20903639.531  
 111741923.38208  86910430.39444         0.000        -704.961        -548.303  
         0.000          45.200          34.600           0.000  
  21144032.336           0.000           0.000    21144031.844           0.000  
 112947638.18508         0.000           0.000       -2601.898           0.000  
         0.000          46.700           0.000           0.000  
  23682955.312    23682959.297           0.000    23682954.387    23682958.992  
 126554512.23106  98431284.41145         0.000       -4582.906       -3564.483  
         0.000          41.000          37.100           0.000  
  23290097.984    23290100.809           0.000    23290096.113    23290099.609  
 124542566.24906  96866484.02846         0.000       -4006.727       -3116.343  
         0.000          39.000          40.200           0.000  
  20293680.109    20293682.383           0.000    20293679.262    20293681.984  
 108329077.63109  84255958.09748         0.000        2623.926        2040.831  
         0.000          51.900          47.000           0.000  
 18  2  1  0 29  0.0000000  0 20G15G16G21G27G30G08G10G13G26G20G07R06-0.000000002
                                R13R21R04R05R12R11R20R22
  23633066.977    23633069.066           0.000    23633067.411    23633069.379  
 124192569.07208  96773467.72342         0.000        1307.812        1019.075  
         0.000          46.300          27.500           0.000  
  21876888.922           0.000           0.000    21876888.553    21876890.324  
 114963724.12109  89582200.34144         0.000       -2753.387       -2145.496  
         0.000          49.000          35.400           0.000  
  22340382.320           0.000           0.000    22340381.755    22340383.633  
 117399324.09408  91480165.49345         0.000       -2064.781       -1608.920  
         0.000          48.200          36.500           0.000  
  20330906.820    20330910.910    20330909.938    20330906.816    20330910.883  
 106839647.34009  83251696.14247  79782869.84509       810.617         631.650  
         0.000          52.900          43.900          55.300  
  23861119.594    23861125.727    23861123.941    23861119.467    23861125.828  
 125391055.03206  97707319.69141  93636181.28108       954.680         743.906  
         0.000          39.000          21.500          45.700  
  22619111.242    22619117.461    22619115.648    22619111.121    22619116.672  
 118864235.66607  92621502.76343  88762265.79609      3013.879        2348.477  
         0.000          44.600          31.900          50.600  
  22736183.094    22736187.348    22736186.340    22736183.384    22736188.004  
 119479693.84007  93100905.32342  89221676.87608      3192.852        2487.936  
         0.000          42.100          27.100          47.200  
  23814830.859           0.000           0.000    23814831.027    23814833.270  
 125147701.56607  97517773.19041         0.000         387.648         302.064  
         0.000          42.800          21.800           0.000  
  24016386.906    24016393.316    24016392.109    24016386.928    24016393.273  
 126207073.03307  98343095.57442  94245428.99108     -3758.574       -2928.759  
         0.000          43.000          27.200          48.600  
  22872091.883           0.000           0.000    22872091.270    22872092.867  
 120193700.20208  93657407.15742         0.000       -2577.473       -2008.420  
         0.000          45.700          26.900           0.000  
  23467958.906    23467960.102           0.000    23467959.084    23467959.938  
 123325046.18608  96097393.28642         0.000        -495.109        -385.800  
         0.000          46.400          27.400           0.000  
  21602857.211    21602857.555           0.000    21602855.707    21602857.238  
 115276980.50507  89659852.23544         0.000        3547.129        2758.878  
         0.000          42.600          35.600           0.000  
  21565255.008    21565256.328           0.000    21565252.488    21565255.445  
 115157289.84607  89566740.10346         0.000        2053.586        1597.234  
         0.000          43.600          39.000           0.000  
  19476864.984    19476864.859           0.000    19476862.883    19476865.305  
 104224656.64809  81063609.31448         0.000       -1493.383       -1161.520  
         0.000          51.300          48.100           0.000  
  23393726.117    23393725.934           0.000    23393724.715    23393726.355  
 125272349.68006  97434061.15345         0.000       -3848.797       -2993.509  
         0.000          40.900          36.900           0.000  
  20907674.758    20907675.117           0.000    20907673.500    20907675.391  
 111763496.09608  86927209.15844         0.000        -733.188        -570.257  
         0.000          45.100          35.300           0.000  
  21158710.523           0.000           0.000    21158709.258           0.000  
 113026038.18108         0.000           0.000       -2624.711           0.000  
         0.000          47.400           0.000           0.000  
  23708696.430    23708698.047           0.000    23708694.613    23708699.148  
 126692058.29206  98538264.71145         0.000       -4586.871       -3567.566  
         0.000          41.500          37.000           0.000  
  23312585.266    23312589.074           0.000    23312584.426    23312588.113  
 124662823.61605  96960017.50546         0.000       -4010.336       -3119.150  
         0.000          38.500          39.200           0.000  
  20278974.781    20278976.605           0.000    20278973.605    20278976.539  
 108250577.93909  84194902.78348         0.000        2609.406        2029.538  
         0.000          53.000          47.100           0.000  
 18  2  1  0 29 30.0000000  0 20G15G16G21G27G30G08G10G13G26G20G07R06-0.000000002
                                R13R21R04R05R12R11R20R22
  23625656.039    23625657.273           0.000    23625656.474    23625658.031  
 124153621.39108  96743118.89942         0.000        1288.703        1004.184  
         0.000          46.600          27.700           0.000  
  21892648.523           0.000           0.000    21892648.154    21892650.863  
 115046546.62008  89646737.31644         0.000       -2768.051       -2156.923  
         0.000          48.500          34.200           0.000  
  22352197.109           0.000           0.000    22352196.544    22352198.129  
 117461411.29009  91528545.14145         0.000       -2074.355       -1616.381  
         0.000          49.000          37.000           0.000  
  20326328.719    20326333.172    20326331.883    20326328.715    20326333.484  
 106815589.15409  83232949.47647  79764904.28809       793.277         618.138  
         0.000          53.000          44.300          55.500  
  23855725.227    23855730.480    23855728.719    23855725.100    23855730.055  
 125362703.09806  97685227.30041  93615009.40008       935.398         728.882  
         0.000          39.800          21.100          45.500  
  22601932.539    22601937.477    22601935.715    22601932.418    22601936.914  
 118773955.67507  92551154.71344  88694848.90709      3004.820        2341.418  
         0.000          44.700          32.700          50.200  
  22717987.148    22717990.840    22717990.430    22717987.439    22717992.000  
 119384071.13007  93026394.14442  89150270.33008      3181.848        2479.362  
         0.000          43.200          27.700          47.900  
  23812676.695           0.000           0.000    23812676.863    23812679.223  
 125136386.20406  97508956.02041         0.000         366.637         285.691  
         0.000          41.600          21.800           0.000  
  24037857.445    24037865.207    24037864.223    24037857.468    24037865.219  
 126319910.98307  98431021.24042  94329691.06508     -3763.871       -2932.887  
         0.000          42.300          26.200          47.800  
  22886848.203           0.000           0.000    22886847.590    22886848.426  
 120271245.43008  93717832.02143         0.000       -2592.137       -2019.847  
         0.000          45.100          28.100           0.000  
  23470840.352    23470843.426           0.000    23470840.529    23470843.789  
 123340194.74608  96109197.34242         0.000        -514.793        -401.137  
         0.000          45.900          27.900           0.000  
  21582962.906    21582961.609           0.000    21582961.426    21582963.289  
 115170821.14407  89577283.85244         0.000        3530.176        2745.692  
         0.000          43.100          35.600           0.000  
  21553787.961    21553789.633           0.000    21553786.688    21553789.852  
 115096062.53707  89519118.86445         0.000        2028.207        1577.494  
         0.000          43.300          38.700           0.000  
  19485288.727    19485288.977           0.000    19485287.098    19485289.375  
 104269735.27509  81098670.46448         0.000       -1511.816       -1175.857  
         0.000          51.400          47.400           0.000  
  23415326.820    23415324.832           0.000    23415324.105    23415325.438  
 125388011.78506  97524020.44645         0.000       -3861.910       -3003.708  
         0.000          41.300          37.800           0.000  
  20911868.445    20911868.734           0.000    20911867.023    20911869.055  
 111785912.79708  86944644.36544         0.000        -761.297        -592.120  
         0.000          45.700          34.300           0.000  
  21173515.273           0.000           0.000    21173514.078           0.000  
 113105123.65808         0.000           0.000       -2647.574           0.000  
         0.000          47.600           0.000           0.000  
  23734455.641    23734458.898           0.000    23734456.477    23734458.664  
 126829717.51606  98645332.90345         0.000       -4590.410       -3570.319  
         0.000          40.500          36.300           0.000  
  23335095.422    23335097.566           0.000    23335093.762    23335096.625  
 124783196.54805  97053640.88145         0.000       -4014.227       -3122.176  
         0.000          37.100          37.000           0.000  
  20264350.727    20264353.797           0.000    20264349.855    20264353.328  
 108172515.78109  84134187.76948         0.000        2594.688        2018.090  
         0.000          52.800          47.400           0.000  
 18  2  1  0 30  0.0000000  0 20G15G16G21G27G30G08G10G13G26G20G07R06-0.000000002
                                R13R21R04R05R12R11R20R22
  23618352.039    23618354.516           0.000    23618352.474    23618354.266  
 124115246.24608  96713216.21642         0.000        1269.668         989.352  
         0.000          45.100          26.700           0.000  
  21908492.898           0.000           0.000    21908492.529    21908494.418  
 115129805.96508  89711614.71344         0.000       -2782.707       -2168.343  
         0.000          47.800          33.900           0.000  
  22364065.391           0.000           0.000    22364064.825    22364067.645  
 117523784.25708  91577147.44144         0.000       -2083.883       -1623.805  
         0.000          48.100          35.800           0.000  
  20321849.195    20321853.941    20321853.238    20321849.191    20321854.078  
 106792052.44109  83214609.17247  79747328.16309       775.789         604.511  
         0.000          52.700          44.100          55.600  
  23850439.312    23850445.176    23850444.609    23850439.186    23850445.723  
 125334934.09205  97663589.10841  93594272.79408       915.750         713.571  
         0.000          38.900          21.100          45.500  
  22584803.672    22584808.750    22584807.117    22584803.550    22584808.516  
 118683944.59008  92481016.19444  88627632.85009      2995.754        2334.354  
         0.000          45.400          33.000          50.400  
  22699852.188    22699856.465    22699854.871    22699852.478    22699857.449  
 119288775.47307  92952137.77942  89079108.00308      3171.066        2470.961  
         0.000          43.500          27.200          46.200  
  23810642.414           0.000           0.000    23810642.582    23810645.059  
 125125698.45606  97500627.94841         0.000         345.629         269.321  
         0.000          41.300          22.000           0.000  
  24059360.234    24059366.504    24059366.426    24059360.257    24059367.070  
 126432902.41707  98519066.45442  94414067.74408     -3769.035       -2936.911  
         0.000          42.100          27.500          48.200  
  22901688.016           0.000           0.000    22901687.403    22901688.004  
 120349225.22008  93778595.48742         0.000       -2606.613       -2031.127  
         0.000          45.700          27.700           0.000  
  23473836.539    23473839.035           0.000    23473836.717    23473839.332  
 123355932.56008  96121460.56242         0.000        -534.469        -416.469  
         0.000          47.100          27.000           0.000  
  21563162.070    21563166.008           0.000    21563162.188    21563165.527  
 115065173.03407  89495113.15745         0.000        3512.957        2732.300  
         0.000          42.300          37.000           0.000  
  21542462.422    21542465.926           0.000    21542461.852    21542465.277  
 115035591.67006  89472085.96645         0.000        2003.031        1557.913  
         0.000          41.900          38.900           0.000  
  19493814.781    19493816.113           0.000    19493813.480    19493816.559  
 104315365.24309  81134160.45548         0.000       -1530.234       -1190.182  
         0.000          50.900          47.600           0.000  
  23436997.711    23436997.270           0.000    23436995.676    23436997.289  
 125504062.88706  97614282.32945         0.000       -3874.926       -3013.831  
         0.000          39.500          37.100           0.000  
  20916219.258    20916220.578           0.000    20916217.953    20916220.711  
 111809171.96908  86962734.86644         0.000        -789.457        -614.022  
         0.000          45.000          35.700           0.000  
  21188448.031           0.000           0.000    21188446.555           0.000  
 113184891.21608         0.000           0.000       -2670.297           0.000  
         0.000          47.800           0.000           0.000  
  23760239.344    23760240.230           0.000    23760237.504    23760240.230  
 126967486.07806  98752486.14844         0.000       -4594.109       -3573.196  
         0.000          40.100          34.600           0.000  
  23357628.305    23357628.781           0.000    23357626.363    23357627.887  
 124903682.96005  97147352.52045         0.000       -4018.219       -3125.281  
         0.000          38.200          36.400           0.000  
  20249809.477    20249811.422           0.000    20249808.301    20249811.211  
 108094893.61609  84073814.99848         0.000        2579.969        2006.642  
         0.000          51.900          46.500           0.000  
 18  2  1  0 30 30.0000000  0 20G15G16G21G27G30G08G10G13G26G20G07R06-0.000000002
                                R13R21R04R05R12R11R20R22
  23611158.047    23611159.762           0.000    23611158.481    23611160.859  
 124077445.07908  96683760.77342         0.000        1250.426         974.358  
         0.000          45.000          26.000           0.000  
  21924419.586           0.000           0.000    21924419.217    21924421.047  
 115213500.54208  89776831.24144         0.000       -2796.957       -2179.447  
         0.000          48.700          34.400           0.000  
  22375988.133           0.000           0.000    22375987.567    22375990.504  
 117586441.01608  91625970.88545         0.000       -2093.133       -1631.013  
         0.000          47.800          36.300           0.000  
  20317470.227    20317474.363    20317473.227    20317470.223    20317474.699  
 106769037.66009  83196675.56647  79730141.79509       758.547         591.075  
         0.000          53.500          44.100          55.600  
  23845267.602    23845272.363    23845271.797    23845267.475    23845271.434  
 125307748.45406  97642405.47841  93573971.82108       896.586         698.638  
         0.000          39.900          21.500          45.800  
  22567726.586    22567731.957    22567729.668    22567726.464    22567731.957  
 118594203.81607  92411088.34644  88560618.64809      2986.832        2327.402  
         0.000          44.600          32.300          49.500  
  22681781.461    22681786.828    22681783.969    22681781.752    22681786.957  
 119193809.04407  92878138.01643  89008191.54708      3160.051        2462.377  
         0.000          43.300          29.300          46.400  
  23808730.344           0.000           0.000    23808730.511    23808732.285  
 125115638.48007  97492788.93941         0.000         325.062         253.295  
         0.000          42.300          22.500           0.000  
  24080890.562    24080896.551    24080896.000    24080890.585    24080896.637  
 126546044.51707  98607229.07742  94498556.93808     -3773.719       -2940.560  
         0.000          43.000          26.500          48.000  
  22916606.828           0.000           0.000    22916606.215    22916609.102  
 120427636.60107  93839695.25042         0.000       -2620.805       -2042.185  
         0.000          43.800          27.700           0.000  
  23476941.922    23476944.887           0.000    23476942.100    23476944.773  
 123372258.61107  96134182.14842         0.000        -553.836        -431.560  
         0.000          44.500          26.500           0.000  
  21543462.352    21543463.051           0.000    21543461.480    21543463.250  
 114960040.22107  89413343.21845         0.000        3496.020        2719.126  
         0.000          43.900          36.900           0.000  
  21531282.570    21531283.211           0.000    21531279.816    21531283.031  
 114975880.51207  89425643.95945         0.000        1977.742        1538.244  
         0.000          43.000          38.300           0.000  
  19502444.688    19502444.984           0.000    19502443.691    19502446.203  
 104361545.18609  81170078.16548         0.000       -1548.402       -1204.313  
         0.000          51.400          47.900           0.000  
  23458740.812    23458740.535           0.000    23458738.801    23458740.840  
 125620498.01306  97704843.01445         0.000       -3887.406       -3023.538  
         0.000          39.900          36.700           0.000  
  20920728.562    20920729.414           0.000    20920726.930    20920728.773  
 111833272.62008  86981479.82844         0.000        -817.277        -635.660  
         0.000          45.600          35.300           0.000  
  21203507.031           0.000           0.000    21203506.070           0.000  
 113265337.23608         0.000           0.000       -2692.613           0.000  
         0.000          46.900           0.000           0.000  
  23786037.125    23786040.570           0.000    23786037.773    23786041.109  
 127105359.64805  98859721.05544         0.000       -4597.691       -3575.982  
         0.000          37.700          35.400           0.000  
  23380180.203    23380183.074           0.000    23380178.215    23380181.430  
 125024281.53305  97241151.40945         0.000       -4021.699       -3127.988  
         0.000          37.100          37.200           0.000  
  20235352.188    20235351.738           0.000    20235350.539    20235352.465  
 108017713.14009  84013785.74948         0.000        2565.391        1995.304  
         0.000          52.600          47.200           0.000  
 18  2  1  0 31  0.0000000  0 19G15G16G21G27G30G08G10G13G26G20G07R06-0.000000002
                                R13R21R04R05R12R20R22
  23604075.820    23604077.957           0.000    23604076.255    23604078.223  
 124040219.83408  96654754.06843         0.000        1231.180         959.361  
         0.000          46.400          28.900           0.000  
  21940428.422           0.000           0.000    21940428.053    21940429.941  
 115297627.69808  89842384.83344         0.000       -2811.383       -2190.688  
         0.000          48.000          33.700           0.000  
  22387965.664           0.000           0.000    22387965.099    22387967.738  
 117649380.36508  91675014.54545         0.000       -2102.688       -1638.458  
         0.000          48.800          36.200           0.000  
  20313190.883    20313194.152    20313193.168    20313190.879    20313194.359  
 106746545.81609  83179149.45948  79713345.94909       740.996         577.400  
         0.000          54.100          45.000          55.300  
  23840205.469    23840210.184    23840209.359    23840205.342    23840210.180  
 125281147.37805  97621677.33341  93554107.35708       877.000         683.377  
         0.000          38.800          20.900          45.900  
  22550701.984    22550706.852    22550704.797    22550701.863    22550706.770  
 118504735.70808  92341372.94644  88493808.06309      2977.734        2320.312  
         0.000          46.400          33.200          50.000  
  22663773.891    22663778.520    22663775.848    22663774.181    22663777.922  
 119099174.74807  92804397.01243  88937523.06208      3148.785        2453.599  
         0.000          43.900          30.600          47.000  
  23806935.477           0.000           0.000    23806935.644    23806937.125  
 125106207.30806  97485439.89541         0.000         303.895         236.801  
         0.000          41.100          23.500           0.000  
  24102448.211    24102455.082    24102454.637    24102448.233    24102454.578  
 126659334.90007  98695507.26942  94583156.85508     -3778.848       -2944.557  
         0.000          43.400          24.700          48.300  
  22931609.766           0.000           0.000    22931609.153    22931610.984  
 120506477.38207  93901129.60142         0.000       -2635.195       -2053.399  
         0.000          44.000          25.800           0.000  
  23480162.117    23480162.820           0.000    23480162.295    23480163.207  
 123389172.05208  96147361.48143         0.000        -573.605        -446.965  
         0.000          48.000          28.700           0.000  
  21523856.312    21523857.387           0.000    21523855.676    21523858.641  
 114855426.35407  89331976.88245         0.000        3478.391        2705.415  
         0.000          42.200          36.700           0.000  
  21520243.055    21520244.609           0.000    21520240.652    21520244.430  
 114916931.32807  89379794.58346         0.000        1952.133        1518.326  
         0.000          42.100          39.400           0.000  
  19511178.484    19511177.961           0.000    19511175.820    19511178.477  
 104408273.78009  81206422.64248         0.000       -1566.777       -1218.605  
         0.000          51.300          47.900           0.000  
  23480554.984    23480554.191           0.000    23480553.301    23480556.160  
 125737313.42605  97795699.44145         0.000       -3900.023       -3033.352  
         0.000          36.800          36.600           0.000  
  20925392.867    20925394.094           0.000    20925391.801    20925394.484  
 111858213.43607  87000878.20644         0.000        -845.414        -657.544  
         0.000          44.900          35.000           0.000  
  21218693.203           0.000           0.000    21218692.148           0.000  
 113346457.98408         0.000           0.000       -2715.258           0.000  
         0.000          47.900           0.000           0.000  
  23402755.719    23402755.094           0.000    23402753.496    23402754.152  
 125144990.30505  97335035.93745         0.000       -4025.430       -3130.890  
         0.000          38.700          37.200           0.000  
  20220976.062    20220978.078           0.000    20220974.719    20220977.773  
 107940976.11009  83954101.37048         0.000        2550.434        1983.671  
         0.000          52.400          47.900           0.000  
 18  2  1  0 31 30.0000000  0 20G15G16G21G27G30G08G10G13G26G20G07R06-0.000000002
                                R13R21R04R05R12R11R20R22
  23597101.523    23597104.715           0.000    23597101.958    23597103.926  
 124003571.78608  96626197.16243         0.000        1212.016         944.428  
         0.000          45.500          28.600           0.000  
  21956518.711           0.000           0.000    21956518.342    21956520.055  
 115382184.65808  89908273.34444         0.000       -2825.707       -2201.850  
         0.000          47.000          34.600           0.000  
  22399996.242           0.000           0.000    22399995.677    22399997.789  
 117712600.52109  91724277.01945         0.000       -2112.012       -1645.723  
         0.000          49.100          36.600           0.000  
  20309010.023    20309013.586    20309012.941    20309010.020    20309013.676  
 106724577.35309  83162031.18247  79696940.92309       723.512         563.775  
         0.000          53.800          44.300          55.600  
  23835255.102    23835259.004    23835257.656    23835254.975    23835259.168  
 125255131.53706  97601405.26841  93534679.92308       857.395         668.100  
         0.000          39.600          20.900          45.500  
  22533728.828    22533733.859    22533731.500    22533728.707    22533733.496  
 118415541.48808  92271870.95744  88427201.96509      2968.570        2313.172  
         0.000          45.300          34.200          49.800  
  22645829.633    22645831.754    22645832.000    22645829.923    22645832.961  
 119004874.60208  92730916.40143  88867104.14008      3137.695        2444.957  
         0.000          45.400          29.900          48.400  
  23805261.297           0.000           0.000    23805261.465    23805261.656  
 125097404.86607  97478580.85042         0.000         282.934         220.468  
         0.000          42.300          25.700           0.000  
  24124034.281    24124040.129    24124041.012    24124034.303    24124040.473  
 126772770.66907  98783898.78642  94667865.33008     -3783.594       -2948.255  
         0.000          43.200          24.000          47.700  
  22946693.977           0.000           0.000    22946693.364    22946695.254  
 120585744.69207  93962896.34242         0.000       -2649.262       -2064.360  
         0.000          43.700          27.300           0.000  
  23483492.117    23483493.980           0.000    23483492.295    23483494.090  
 123406671.96408  96160997.77842         0.000        -593.172        -462.212  
         0.000          46.300          27.700           0.000  
  21504350.617    21504351.715           0.000    21504349.910    21504352.102  
 114751335.18107  89251017.11545         0.000        3460.938        2691.840  
         0.000          43.300          36.600           0.000  
  21509345.289    21509348.840           0.000    21509344.086    21509348.449  
 114858746.97806  89334540.13046         0.000        1926.805        1498.626  
         0.000          41.900          39.400           0.000  
  19520011.562    19520012.824           0.000    19520010.402    19520013.172  
 104455549.51609  81243192.63648         0.000       -1584.953       -1232.741  
         0.000          51.100          47.900           0.000  
  23502439.102    23502439.648           0.000    23502436.270    23502440.605  
 125854504.76705  97886848.32444         0.000       -3912.527       -3043.077  
         0.000          38.600          34.400           0.000  
  20930215.922    20930218.016           0.000    20930214.902    20930217.094  
 111883993.01308  87020928.97244         0.000        -873.270        -679.210  
         0.000          45.000          35.600           0.000  
  21234005.234           0.000           0.000    21234004.227           0.000  
 113428249.98308         0.000           0.000       -2737.562           0.000  
         0.000          47.500           0.000           0.000  
  23837698.023    23837698.137           0.000    23837696.559    23837698.840  
 127381406.43404  99074423.96844         0.000       -4603.551       -3580.539  
         0.000          35.500          34.100           0.000  
  23425346.102    23425348.293           0.000    23425344.676    23425348.312  
 125265806.94804  97429004.42245         0.000       -4028.922       -3133.606  
         0.000          35.900          38.000           0.000  
  20206683.688    20206685.773           0.000    20206682.391    20206685.844  
 107864684.17909  83894763.20548         0.000        2535.695        1972.207  
         0.000          52.100          48.100           0.000  
